"Id","AthleteId","RecruitType","Year","Ranking","Name","School","CommittedTo","Position","Height","Weight","Stars","Rating","City","StateProvince","Country","HometownInfo Latitude","HometownInfo Longitude","HometownInfo FipsCode"
"171581","","HighSchool","2002","1","Vince Young","Madison","Texas","DUAL","77","200","5","1","Houston","TX","USA","29.7589382","-95.3676974","48201"
"171582","","HighSchool","2002","2","Lorenzo Booker","St. Bonaventure","Florida State","APB","70","180","5","0.9992","Ventura","CA","USA","34.3435092","-119.29560423163717","06111"
"171583","","HighSchool","2002","3","Ryan Moore","Dr. Phillips","Miami","WR","75","185","5","0.9986","Orlando","FL","USA","28.5421109","-81.3790304","12095"
"171584","","HighSchool","2002","4","Chris Davis","St. Petersburg","Florida State","ATH","70","170","5","0.998","St. Petersburg","FL","USA","27.7703796","-82.6695085","12103"
"171585","","HighSchool","2002","4","Ben Olson","Hillcrest Christian School","BYU","PRO","76","205","5","0.998","Thousand Oaks","CA","USA","34.17142715","-118.91058772974445","06111"
"171586","","HighSchool","2002","6","Gerald Riggs Jr.","Red Bank","Tennessee","RB","72","220","5","0.997","Chattanooga","TN","USA","35.0457219","-85.3094883","47065"
"171587","","HighSchool","2002","6","Rodrique Wright","Alief Hastings","Texas","DT","77","330","5","0.997","Houston","TX","USA","29.7589382","-95.3676974","48201"
"171588","","HighSchool","2002","6","Ciatrick Fason","Duncan U. Fletcher","Florida","RB","72","210","5","0.997","Neptune Beach","FL","USA","30.311908","-81.3964734","12031"
"171589","","HighSchool","2002","6","Reggie McNeal","Lufkin","Texas A&M","ATH","73","210","5","0.997","Lufkin","TX","USA","31.3386242","-94.7288558","48005"
"171590","","HighSchool","2002","10","Haloti Ngata","Highland","Oregon","DT","77","310","5","0.9962","Salt Lake City","UT","USA","40.7596198","-111.8867975","49035"
"171591","","HighSchool","2002","11","Leon Washington","Andrew Jackson","Florida State","CB","68","180","5","0.9946","Jacksonville","FL","USA","30.3321838","-81.655651","12031"
"171592","","HighSchool","2002","12","Michael Johnson","Heritage","Virginia","RB","70","180","5","0.9942","Newport News","VA","USA","36.9786449","-76.4321089","51700"
"171593","","HighSchool","2002","13","Nathan Rhodes","East Bakersfield","Washington","OT","79","305","5","0.9938","Bakersfield","CA","USA","35.3738712","-119.0194639","06029"
"171594","","HighSchool","2002","14","Brandon Jefferies","Crest","Tennessee","OG","77","265","5","0.9934","Shelby","NC","USA","35.2919489","-81.5402112","37045"
"171595","","HighSchool","2002","15","Pat Watkins","Lincoln","Florida State","S","75","190","5","0.9926","Tallahassee","FL","USA","30.4380832","-84.2809332","12073"
"171596","","HighSchool","2002","15","Mike D'Andrea","Avon Lake","Ohio State","ILB","75","230","5","0.9926","Avon Lake","OH","USA","41.510033","-82.0185895","39093"
"171597","","HighSchool","2002","17","Ricardo Hurley","Greenwood","South Carolina","ILB","73","235","5","0.9924","Greenwood","SC","USA","34.1954001","-82.1617883","45047"
"171598","","HighSchool","2002","18","DiShon Platt","Charlotte","Florida State","WR","72","170","5","0.9922","Punta Gorda","FL","USA","26.9297836","-82.0453664","12015"
"171599","","HighSchool","2002","18","Justin Blalock","Plano East","Texas","OG","76","325","5","0.9922","Plano","TX","USA","33.0136764","-96.6925096","48085"
"171600","","HighSchool","2002","20","Ahmad Brooks","C. D. Hylton","Virginia","OLB","75","230","5","0.9914","Woodbridge","VA","USA","38.6581723","-77.2497049","51153"
"171601","","HighSchool","2002","21","Derek Morris","North Mecklenburg","Ohio State","OT","78","350","5","0.9912","Huntersville","NC","USA","35.410845","-80.8429094","37119"
"171602","","HighSchool","2002","22","Marcus Vick","Warwick","Virginia Tech","DUAL","72","185","5","0.991","Newport News","VA","USA","36.9786449","-76.4321089","51700"
"171603","","HighSchool","2002","23","Jerious Norwood","Brandon","Mississippi State","RB","72","200","5","0.9906","Brandon","MS","USA","32.2731475","-89.9868058","28121"
"171604","","HighSchool","2002","24","Marquis Johnson","Centennial","Texas","WR","75","190","5","0.9902","Champaign","IL","USA","40.1164205","-88.2433829","17019"
"171605","","HighSchool","2002","25","Trent Edwards","Los Gatos","Stanford","PRO","76","190","5","0.9894","Los Gatos","CA","USA","37.226611","-121.9746797","06085"
"171606","","HighSchool","2002","26","Darren Williams","Clarksdale","Mississippi State","S","75","205","5","0.9892","Clarksdale","MS","USA","34.2006479","-90.5702071","28027"
"171607","","HighSchool","2002","27","Devin Hester","Suncoast","Miami","ATH","71","180","5","0.9884","Riviera Beach","FL","USA","26.7753405","-80.0580969","12099"
"171608","","HighSchool","2002","28","Bryan Pickryl","Jenks","Texas","WDE","77","230","5","0.988","Jenks","OK","USA","36.0228734","-95.9683278","40143"
"171609","","HighSchool","2002","29","James Banks","Ben Davis","Tennessee","DUAL","75","195","5","0.9878","Indianapolis","IN","USA","39.7683331","-86.1583502","18097"
"171610","","HighSchool","2002","30","Julian Jenkins","Woodward Academy","Stanford","WDE","77","230","5","0.9859","Atlanta","GA","USA","33.7490987","-84.3901849","13121"
"171611","","HighSchool","2002","31","Ben Obomanu","Selma","Auburn","WR","74","185","5","0.9855","Selma","AL","USA","32.4078632","-87.0207473","01047"
"171612","","HighSchool","2002","32","Winston Justice","Long Beach Poly","USC","OT","78","295","5","0.9849","Long Beach","CA","USA","33.7690164","-118.1916048","06037"
"171613","","HighSchool","2002","33","Kedric Golston","Sandy Creek","Georgia","DT","76","285","5","0.9845","Tyrone","GA","USA","33.4713249","-84.5972005","13113"
"171614","","HighSchool","2002","34","Justin Zwick","Washington","Ohio State","PRO","76","205","5","0.9843","Massillon","OH","USA","40.7967244","-81.5215093","39151"
"171615","","HighSchool","2002","35","Maurice Clarett","Warren G Harding","Ohio State","RB","72","230","5","0.9841","Warren","OH","USA","41.237557","-80.818417","39155"
"171616","","HighSchool","2002","36","Gabe Watson","Southfield","Michigan","DT","76","330","5","0.9839","Southfield","MI","USA","42.4733689","-83.2218731","26125"
"171617","","HighSchool","2002","37","Zach Latimer","Gateway","Oklahoma","OLB","75","215","5","0.9835","Aurora","CO","USA","39.729432","-104.8319196","08005"
"171618","","HighSchool","2002","37","Marcedes Lewis","Long Beach Poly","UCLA","TE","78","233","5","0.9835","Long Beach","CA","USA","33.7690164","-118.1916048","06037"
"171619","","HighSchool","2002","37","Lonnie Davis","Ed White","Florida State","SDE","76","255","5","0.9835","Jacksonville","FL","USA","30.3321838","-81.655651","12031"
"171620","","HighSchool","2002","40","Marvin Byrdsong","Longview","Mississippi State","OLB","75","230","4","0.9829","Longview","TX","USA","32.5007031","-94.74049","48183"
"171621","","HighSchool","2002","41","Kai Parham","Princess Anne","Virginia","WDE","76","230","4","0.9827","Virginia Beach","VA","USA","36.8529841","-75.9774183","51810"
"171622","","HighSchool","2002","42","Gavin Dickey","Lincoln","Florida","DUAL","72","190","4","0.9821","Tallahassee","FL","USA","30.4380832","-84.2809332","12073"
"171623","","HighSchool","2002","43","Rhema McKnight","John F. Kennedy","Notre Dame","WR","75","180","4","0.9819","La Palma","CA","USA","33.846404","-118.0467306","06059"
"171624","","HighSchool","2002","43","Richard Washington","Fort Myers","NC State","WR","73","175","4","0.9819","Fort Myers","FL","USA","26.640628","-81.8723084","12071"
"171625","","HighSchool","2002","45","Eric Winston","Lee","Miami","TE","79","255","4","0.9793","Midland","TX","USA","31.9973662","-102.0779482","48329"
"171626","","HighSchool","2002","46","Parys Haralson","Madison Central","Tennessee","WDE","74","235","4","0.9791","Madison","MS","USA","32.4618086","-90.1153638","28089"
"171627","","HighSchool","2002","46","Kyle Williams","Highland Park","USC","OT","78","275","4","0.9791","Dallas","TX","USA","32.7762719","-96.7968559","48113"
"171628","","HighSchool","2002","48","DeShawn Wynn","Reading Community","Florida","RB","72","215","4","0.9789","Cincinnati","OH","USA","39.1014537","-84.5124602","39061"
"171629","","HighSchool","2002","49","Jason Allen","Muscle Shoals","Tennessee","ATH","74","200","4","0.9781","Muscle Shoals","AL","USA","34.7451786","-87.6686733","01033"
"171630","","HighSchool","2002","50","Marcus Jackson","Norcross","Georgia","WDE","75","235","4","0.9779","Norcross","GA","USA","33.9412127","-84.2135309","13135"
"171631","","HighSchool","2002","51","Aaron Harris","North Mesquite","Texas","ILB","72","230","4","0.9773","Mesquite","TX","USA","32.7666103","-96.599472","48113"
"171632","","HighSchool","2002","52","Jason Carter","Jenks","Oklahoma","CB","72","230","4","0.9771","Jenks","OK","USA","36.0228734","-95.9683278","40143"
"171633","","HighSchool","2002","53","Tamba Hali","Teaneck","Penn State","SDE","76","255","4","0.9769","Teaneck","NJ","USA","40.8860164","-74.0072568","34003"
"171634","","HighSchool","2002","53","Derek Landri","De La Salle","Notre Dame","DT","74","285","4","0.9769","Concord","CA","USA","37.9768525","-122.0335624","06013"
"171635","","HighSchool","2002","55","David Richard","Hazelwood East","Michigan State","RB","74","225","4","0.9767","St. Louis","MO","USA","38.6268039","-90.1994097","29510"
"171636","","HighSchool","2002","56","Darnell Bing","Long Beach Poly","USC","S","74","205","4","0.9759","Long Beach","CA","USA","33.7690164","-118.1916048","06037"
"171637","","HighSchool","2002","57","Jarrad Page","San Leandro","UCLA","S","73","200","4","0.9757","San Leandro","CA","USA","37.7249296","-122.1560768","06001"
"171638","","HighSchool","2002","57","Edorian McCullough","North Garland","Texas","CB","71","190","4","0.9757","Garland","TX","USA","32.912624","-96.6388833","48113"
"171639","","HighSchool","2002","59","A.J. Nicholson","Mount Tabor","Florida State","ILB","74","232","4","0.9753","Winston Salem","NC","USA","36.0998131","-80.2440518","37067"
"171640","","HighSchool","2002","60","Jonathan Mapu","Kahuku","Tennessee","SDE","75","265","4","0.9747","Kahuku","HI","USA","21.679124","-157.94838","15003"
"171641","","HighSchool","2002","61","Kamerion Wimbley","Northwest","Florida State","WDE","76","225","4","0.9745","Wichita","KS","USA","37.6922361","-97.3375448","20173"
"171642","","HighSchool","2002","62","Doug Datish","Howland","Ohio State","OT","77","285","4","0.9739","Warren","OH","USA","41.237557","-80.818417","39155"
"171643","","HighSchool","2002","63","Manuel Wright","Long Beach Poly","USC","DT","78","310","4","0.9735","Long Beach","CA","USA","33.7690164","-118.1916048","06037"
"171644","","HighSchool","2002","64","A.J. Davis","Northern","NC State","CB","72","177","4","0.9729","Durham","NC","USA","35.996653","-78.9018053","37063"
"171645","","HighSchool","2002","65","DaBryan Blanton","Forney","Oklahoma","ATH","72","165","4","0.9723","Forney","TX","USA","32.747893","-96.4719289","48257"
"171646","","HighSchool","2002","66","Chris Baker","Osceola","Arkansas","WR","74","185","4","0.9717","Osceola","AR","USA","35.7050778","-89.969532","05093"
"171647","","HighSchool","2002","67","Eric McNeal","Junipero Serra","UCLA","S","74","195","4","0.9715","Gardena","CA","USA","33.8963593","-118.3053037","06037"
"171648","","HighSchool","2002","68","Kyle Brown","West Bloomfield","Michigan State","WR","73","200","4","0.9705","West Bloomfield","MI","USA","42.5679","-83.3733","36069"
"171649","","HighSchool","2002","69","Donny Mateaki","Iolani","Washington","SDE","78","260","4","0.9697","Honolulu","HI","USA","21.304547","-157.8556764","15003"
"171650","","HighSchool","2002","69","Chase Pittman","Evangel Christian Academy","Texas","DT","76","265","4","0.9697","Shreveport","LA","USA","32.5221828","-93.7651944","22017"
"171651","","HighSchool","2002","71","Quinn Pitcock","Piqua","Ohio State","DT","76","285","4","0.9693","Piqua","OH","USA","40.1447732","-84.2424449","39109"
"171652","","HighSchool","2002","71","Aaron Miller","Edison","Oklahoma","S","73","175","4","0.9693","Fresno","CA","USA","36.7295295","-119.70886126075588","06019"
"171653","","HighSchool","2002","73","Mike Hawkins","Turner","Oklahoma","CB","73","170","4","0.9691","Carrollton","TX","USA","32.9537349","-96.8902816","48113"
"171654","","HighSchool","2002","74","Jonathan Wade","Evangel Christian Academy","Tennessee","ATH","71","180","4","0.9687","Shreveport","LA","USA","32.5221828","-93.7651944","22017"
"171655","","HighSchool","2002","74","David Horne","Central","Nebraska","RB","72","195","4","0.9687","Omaha","NE","USA","41.2587459","-95.9383758","31055"
"171656","","HighSchool","2002","74","Hershel Dennis","Long Beach Poly","USC","RB","71","190","4","0.9687","Long Beach","CA","USA","33.7690164","-118.1916048","06037"
"171657","","HighSchool","2002","77","Akieem Jolla","St. Augustine","Miami","WR","74","180","4","0.9683","New Orleans","LA","USA","29.9499323","-90.0701156","22071"
"171658","","HighSchool","2002","77","Montae Pitts","Loachapoka","Auburn","ATH","73","180","4","0.9683","Notasulga","AL","USA","32.5566305","-85.66949976609848","01087"
"171659","","HighSchool","2002","77","Selvin Young","Jersey Village","Texas","RB","72","195","4","0.9683","Houston","TX","USA","29.7589382","-95.3676974","48201"
"171660","","HighSchool","2002","80","Heath Benedict","The Peddie School","Tennessee","OT","78","285","4","0.9675","Hightstown","NJ","USA","40.2695538","-74.5232089","34021"
"171661","","HighSchool","2002","81","Devin Aromashodu","Miami Springs","Auburn","WR","74","185","4","0.9671","Miami","FL","USA","25.7742658","-80.1936589","12086"
"171662","","HighSchool","2002","82","Chris Davis","St Petersburg Catholic","Florida State","ATH","72","170","4","0.9667","St. Petersburg","FL","USA","27.7703796","-82.6695085","12103"
"171663","","HighSchool","2002","82","Ryan Boschetti","San Mateo","UCLA","DT","77","285","4","0.9667","San Mateo","CA","USA","37.5439684","-122.3066789","06081"
"171664","","HighSchool","2002","82","Scott Young","Dixie","BYU","DT","77","305","4","0.9667","St. George","UT","USA","37.104153","-113.5841313","49053"
"171665","","HighSchool","2002","85","Aaron Kirkland","Jack Britt","Tennessee","TE","77","240","4","0.9665","Fayetteville","NC","USA","35.0525759","-78.878292","37051"
"171666","","HighSchool","2002","86","Anthony Martinez","Patrick Henry","Virginia","PRO","76","220","4","0.9653","Ashland","VA","USA","37.7594012","-77.4806603","51085"
"171667","","HighSchool","2002","87","Neale Tweedie","Allen","Texas","OG","77","260","4","0.9647","Allen","TX","USA","33.1031744","-96.6705503","48085"
"171668","","HighSchool","2002","88","Curtis Justus","Perry","Miami","TE","79","210","4","0.9641","Perry","OK","USA","36.2894855","-97.2880983","40103"
"171669","","HighSchool","2002","89","Matt Gutierrez","De La Salle","Michigan","PRO","76","210","4","0.9637","Concord","CA","USA","37.9768525","-122.0335624","06013"
"171670","","HighSchool","2002","89","William Cooper","Northern Commencement Academy","Michigan","CB","73","185","4","0.9637","Flint","MI","USA","43.0161693","-83.6900211","26049"
"171671","","HighSchool","2002","91","Randy Hand","Estero","Florida","OT","78","300","4","0.962","Estero","FL","USA","26.4381474","-81.8067537","12071"
"171672","","HighSchool","2002","92","Nate Harris","Edison","Miami","OLB","74","210","4","0.9616","Miami","FL","USA","25.7742658","-80.1936589","12086"
"171673","","HighSchool","2002","93","Larry Dibbles","Lancaster","Texas","SDE","73","275","4","0.9591","Lancaster","TX","USA","32.5920798","-96.7561083","48113"
"171674","","HighSchool","2002","94","Max Jean-Gilles","North Miami Beach Senior","Georgia","OT","75","340","4","0.9484","Miami","FL","USA","25.7742658","-80.1936589","12086"
"171675","","HighSchool","2002","95","Chris Anderson","Mandarin","Florida State","DT","75","295","4","0.9428","Jacksonville","FL","USA","30.3321838","-81.655651","12031"
"171676","","HighSchool","2002","96","Robert Timmons","Marcus","Texas","WR","74","205","4","0.942","Flower Mound","TX","USA","33.0283854","-97.0867203","48121"
"171677","","HighSchool","2002","97","Tyler Palko","West Allegheny","Pittsburgh","DUAL","74","205","4","0.9408","Imperial","PA","USA","40.4495127","-80.2445041","42003"
"171678","","HighSchool","2002","98","Travis Leitko","The Woodlands","Notre Dame","SDE","77","265","4","0.938","The Woodlands","TX","USA","30.1734194","-95.504686","48339"
"171679","","HighSchool","2002","99","Tony Ugoh","Westfield","Arkansas","OT","78","275","4","0.9373","Houston","TX","USA","29.7589382","-95.3676974","48201"
"171680","","HighSchool","2002","100","Maurice Stovall","Archbishop John Carroll","Notre Dame","WR","77","205","4","0.9369","Wayne","PA","USA","40.0440149","-75.3878616","42045"
"171681","","HighSchool","2002","101","Lester Ricard","Amite","LSU","DUAL","76","195","4","0.9367","Amite","LA","USA","30.7265747","-90.5089815","22105"
"171682","","HighSchool","2002","101","Marco Martin","Mesquite","Texas","DT","76","300","4","0.9367","Mesquite","TX","USA","32.7666103","-96.599472","48113"
"171683","","HighSchool","2002","103","Mario Whitney","Jackson","Missouri","RB","72","190","4","0.9355","Jackson","MO","USA","37.3828316","-89.6684487","29031"
"171684","","HighSchool","2002","104","James Bonelli","St. Bonaventure","Notre Dame","OG","76","285","4","0.9353","Ventura","CA","USA","34.3435092","-119.29560423163717","06111"
"171685","","HighSchool","2002","105","Nick Turner","Washington","Mississippi State","RB","71","195","4","0.9343","Atlanta","GA","USA","33.7490987","-84.3901849","13121"
"171686","","HighSchool","2002","106","Leonard Pope","Americus Sumter County South","Georgia","TE","79","240","4","0.9333","Americus","GA","USA","32.0723862","-84.2326876","13261"
"171687","","HighSchool","2002","106","Mike Kudla","Highland","Ohio State","SDE","76","235","4","0.9333","Medina","OH","USA","41.1383878","-81.8637474","39103"
"171688","","HighSchool","2002","106","Todd Pegram","Plano West","Texas A&M","K","70","180","4","0.9333","Plano","TX","USA","33.0136764","-96.6925096","48085"
"171689","","HighSchool","2002","106","David Abdul","Washington","Pittsburgh","K","71","180","4","0.9333","Massillon","OH","USA","40.7967244","-81.5215093","39151"
"171690","","HighSchool","2002","106","Micheal Hawkins","Turner","Oklahoma","CB","73","170","4","0.9333","Carrollton","TX","USA","32.9537349","-96.8902816","48113"
"171691","","HighSchool","2002","106","Peni Holakeituai","Madison Senior","Kansas State","OT","78","310","4","0.9333","Rexburg","ID","USA","43.8235163","-111.7870222","16065"
"171692","","HighSchool","2002","106","James Wilhoit","Hendersonville","Tennessee","K","73","180","4","0.9333","Hendersonville","TN","USA","36.3049177","-86.621443","47165"
"171693","","HighSchool","2002","106","Brodney Pool","Westbury","Oklahoma","S","75","193","4","0.9333","Houston","TX","USA","29.7589382","-95.3676974","48201"
"171694","","HighSchool","2002","106","Randy Jordan","Bakersfield","Kansas State","CB","74","175","4","0.9333","Bakersfield","CA","USA","35.3738712","-119.0194639","06029"
"171695","","HighSchool","2002","115","Glenn Ohaeri","Aquinas","UCLA","APB","69","190","4","0.9329","San Bernardino","CA","USA","34.1083449","-117.2897652","06071"
"171696","","HighSchool","2002","116","Albert Hardy","Galena Park","Texas","FB","71","225","4","0.9321","Galena Park","TX","USA","29.7335616","-95.2302123","48201"
"171697","","HighSchool","2002","117","Jason Avant","Carver Military Academy","Michigan","WR","74","200","4","0.9311","Chicago","IL","USA","41.8755616","-87.6244212","17031"
"171698","","HighSchool","2002","117","Rob Smith","Highlands","Tennessee","OG","76","290","4","0.9311","Fort Thomas","KY","USA","39.0786242","-84.4483432","21037"
"171699","","HighSchool","2002","119","Isaiah Stanback","Garfield","Washington","DUAL","75","190","4","0.9307","Seattle","WA","USA","47.6038321","-122.3300624","53033"
"171700","","HighSchool","2002","120","Kyle Williams","Ruston","LSU","DT","75","290","4","0.9303","Ruston","LA","USA","32.5232053","-92.637927","22061"
"171701","","HighSchool","2002","121","Jim Unis","Gloucester","Boston College","WDE","77","225","4","0.9301","Gloucester","MA","USA","42.6159286","-70.6619888","25009"
"171702","","HighSchool","2002","121","Jabari Levey","Berkeley","South Carolina","OT","79","300","4","0.9301","Moncks Corner","SC","USA","33.1960027","-80.0131374","45015"
"171703","","HighSchool","2002","123","Terrell Walden","Edison","","CB","70","165","4","0.9","Miami","FL","USA","25.7742658","-80.1936589","12086"
"171704","","HighSchool","2002","123","Tully Janszen","Keller","","DT","75","250","4","0.9","Keller","TX","USA","32.9299655","-97.2271249","48439"
"171705","","HighSchool","2002","123","Mike Nixon","Sunnyslope","","ATH","75","205","4","0.9","Phoenix","AZ","USA","33.4484367","-112.0741417","04013"
"171706","","HighSchool","2002","123","Archie McDaniel","Bay City","Texas A&M","ILB","73","215","4","0.9","Bay City","TX","USA","28.9827565","-95.969402","48321"
"171707","","HighSchool","2002","123","Willie Henderson","Ridgeway","","DT","79","270","4","0.9","Memphis","TN","USA","35.1490215","-90.0516285","47157"
"171708","","HighSchool","2002","123","Jon Peattie","Countryside","","K","75","185","4","0.9","Clearwater","FL","USA","27.9658533","-82.8001026","12103"
"171709","","HighSchool","2002","123","Glenn Sharpe","Miami Carol City","","CB","71","180","4","0.9","Opa Locka","FL","USA","25.896733849999997","-80.25949640850294","12086"
"171710","","HighSchool","2002","123","DeAngelo Williams","Wynne","","APB","68","185","4","0.9","Wynne","AR","USA","35.224533","-90.7867798","05037"
"171711","","HighSchool","2002","123","Sam Williams","Greenwood","","DUAL","75","185","4","0.9","Greenwood","SC","USA","34.1954001","-82.1617883","45047"
"171712","","HighSchool","2002","123","Dedrick Harrington","Mexico","","ATH","76","225","4","0.9","Mexico","MO","USA","39.1697626","-91.8829484","29007"
"171713","","HighSchool","2002","123","Alex Pou","Coral Gables","","OT","76","280","4","0.9","Miami","FL","USA","25.7742658","-80.1936589","12086"
"171714","","HighSchool","2002","123","Anthony Wright","Klein Forest","","WR","75","204","4","0.9","Houston","TX","USA","29.7589382","-95.3676974","48201"
"171715","","HighSchool","2002","123","Aaron Ross","John Tyler","","CB","73","180","4","0.9","Tyler","TX","USA","32.3512601","-95.3010624","48423"
"171798","","HighSchool","2002","123","Jeff Edwards","Marist School","","OT","79","250","4","0.9","Atlanta","GA","USA","33.7490987","-84.3901849","13121"
"171799","","HighSchool","2002","123","Demario Minter","Stephenson","","CB","71","180","4","0.9","Stone Mountain","GA","USA","33.8080924","-84.1706273","13089"
"171800","","HighSchool","2002","123","Omar Gaither","Myers Park","","OLB","74","210","4","0.9","Charlotte","NC","USA","35.2272","-80.843083","37119"
"171801","","HighSchool","2002","123","Chris Hollis","Hinkley","","ILB","73","220","4","0.9","Aurora","CO","USA","39.729432","-104.8319196","08005"
"171802","","HighSchool","2002","123","Greg Jones","Jonesboro","","DT","78","265","4","0.9","Jonesboro","AR","USA","35.8428646","-90.7034522","05031"
"171803","","HighSchool","2002","123","Nate Salley","St. Thomas Aquinas","","S","75","180","4","0.9","Fort Lauderdale","FL","USA","26.1223084","-80.1433786","12011"
"171804","","HighSchool","2002","123","Troy Smith","Glenville","","DUAL","73","200","4","0.9","Cleveland","OH","USA","41.5051613","-81.6934446","39035"
"171805","","HighSchool","2002","123","Fabian Bean","Salisbury School","","SDE","75","270","4","0.9","Salisbury","CT","USA","41.983426","-73.4212318","09005"
"171806","","HighSchool","2002","123","E.J. Underwood","Hamilton","","CB","73","175","4","0.9","Hamilton","OH","USA","39.3995067","-84.5613428","39017"
"171807","","HighSchool","2002","123","Dan Inman","South View","","OT","79","300","4","0.9","Hope Mills","NC","USA","34.9704419","-78.9453056","37051"
"171808","","HighSchool","2002","123","Brian Mattes","Wyoming Valley West","","TE","78","245","4","0.9","Plymouth","PA","USA","41.2403596","-75.9446428","42079"
"171809","","HighSchool","2002","123","Skyler Green","L.W. Higgins","","APB","69","192","4","0.9","Marrero","LA","USA","29.8993723","-90.1003506","22051"
"171810","","HighSchool","2002","123","Tim Schafer","Upper Arlington","","SDE","77","245","4","0.9","Columbus","OH","USA","39.9622601","-83.0007065","39049"
"171811","","HighSchool","2002","123","Blair Irvin","Patterson","","ATH","72","170","4","0.9","Patterson","LA","USA","29.6933","-91.3021","06099"
"171716","","HighSchool","2002","123","Chris Herring","South Panola","","ILB","74","257","4","0.9","Batesville","MS","USA","34.3114982","-89.9442567","28107"
"171717","","HighSchool","2002","123","Marc Guillon","Miramonte","","PRO","76","185","4","0.9","Orinda","CA","USA","37.8771476","-122.1796888","06013"
"171718","","HighSchool","2002","123","Drew Olson","Piedmont Hills","","PRO","74","190","4","0.9","San Jose","CA","USA","37.3361905","-121.8905833","06085"
"171719","","HighSchool","2002","123","Greg Threat","Lincoln","","CB","73","185","4","0.9","Tallahassee","FL","USA","30.4380832","-84.2809332","12073"
"171720","","HighSchool","2002","123","J.R. Mounts","Key West","","RB","71","215","4","0.9","Key West","FL","USA","24.5625566","-81.7724368","12087"
"171721","","HighSchool","2002","123","Nurahda Manning","Bay City","","ILB","75","235","4","0.9","Bay City","TX","USA","28.9827565","-95.969402","48321"
"171722","","HighSchool","2002","123","John Wood","American","","WDE","76","235","4","0.9","Hialeah","FL","USA","25.8575963","-80.2781057","12086"
"171723","","HighSchool","2002","123","Abraham Brown","Booker","","S","76","205","4","0.9","Sarasota","FL","USA","27.3364347","-82.5306527","12115"
"171724","","HighSchool","2002","123","Matt Traverso","Christian Brothers","","TE","78","245","4","0.9","Sacramento","CA","USA","38.5815719","-121.4943996","06067"
"171725","","HighSchool","2002","123","Elijah Dukes","Hillsborough","","OLB","75","225","4","0.9","Tampa","FL","USA","27.9477595","-82.458444","12057"
"171726","","HighSchool","2002","123","L'Tydrick Riley","Crockett","","ATH","76","220","4","0.9","Crockett","TX","USA","31.318017","-95.4572993","48225"
"171727","","HighSchool","2002","123","Anthony Johnson","Byrnes","","DUAL","70","188","4","0.9","Duncan","SC","USA","34.9378962","-82.1451096","45083"
"171728","","HighSchool","2002","123","Curtis James","Mira Mesa","","OT","77","305","4","0.9","San Diego","CA","USA","32.7174209","-117.1627714","06073"
"171729","","HighSchool","2002","123","David Thomas","Frenship","","TE","75","210","4","0.9","Wolfforth","TX","USA","33.5059189","-102.0090575","48303"
"171730","","HighSchool","2002","123","Antwuan Smith","Buchanan","","WR","72","180","4","0.9","Clovis","CA","USA","36.8252277","-119.7029194","06019"
"171731","","HighSchool","2002","123","Ron Green","Dixie","Rutgers","OT","77","315","4","0.9","St. George","UT","USA","37.104153","-113.5841313","49053"
"171732","","HighSchool","2002","123","Markell McKinley","Weir Attendance Center","","SDE","75","267","4","0.9","Weir","MS","USA","33.2667917","-89.2909022","28019"
"171733","","HighSchool","2002","123","Loren Howard","Saguaro","","DT","77","270","4","0.9","Scottsdale","AZ","USA","33.4942189","-111.9260184","04013"
"171734","","HighSchool","2002","123","Kenny James","Dos Palos","","RB","71","206","4","0.9","Dos Palos","CA","USA","36.9860582","-120.6265722","06047"
"171735","","HighSchool","2002","123","Kelvin Grant","Camden","","WR","74","205","4","0.9","Camden","SC","USA","34.2465393","-80.6070238","45055"
"171736","","HighSchool","2002","123","LaDarius Love","Jonesboro-Hodge","","DT","75","310","4","0.9","Jonesboro","LA","USA","32.2412672","-92.7159854","13063"
"171737","","HighSchool","2002","123","Kwakou Robinson","Poly Prep","","DT","76","315","4","0.9","Brooklyn","NY","USA","40.6501038","-73.9495823","36047"
"171738","","HighSchool","2002","123","Jay Moore","Elkhorn","","WDE","76","235","4","0.9","Elkhorn","NE","USA","41.2860699","-96.2346121","31055"
"171739","","HighSchool","2002","123","Brandon Kirsch","Cedar Crest","","PRO","75","190","4","0.9","Lebanon","PA","USA","40.3429683","-76.4233816","42075"
"171740","","HighSchool","2002","123","Trestin George","Berkeley","","CB","69","190","4","0.9","Berkeley","CA","USA","37.8708393","-122.2728639","06001"
"171741","","HighSchool","2002","123","William Beckford","Glades Central","","OLB","73","215","4","0.9","Belle Glade","FL","USA","26.6845104","-80.6675577","12099"
"171742","","HighSchool","2002","123","Jake Kuresa","Mountain Crest","","DT","76","305","4","0.9","Hyrum","UT","USA","41.63022515","-111.83896318870987","49005"
"171743","","HighSchool","2002","123","Stanley Daniels","Marian Catholic","","OT","76","310","4","0.9","Chicago Heights","IL","USA","41.5062834","-87.6357079","17031"
"171744","","HighSchool","2002","123","Jon Clark","Madison Senior","","TE","77","215","4","0.9","Rexburg","ID","USA","43.8235163","-111.7870222","16065"
"171745","","HighSchool","2002","123","Wyatt Sexton","Tallahassee Leon","","PRO","75","185","4","0.9","Tallahassee","FL","USA","30.4380832","-84.2809332","12073"
"171746","","HighSchool","2002","123","Steve Breaston","Woodland Hills","","ATH","74","170","4","0.9","Pittsburgh","PA","USA","40.4416941","-79.9900861","42003"
"171747","","HighSchool","2002","123","Brandon Snow","Newark","","FB","74","225","4","0.9","Newark","DE","USA","39.6852191","-75.7508289","10003"
"171748","","HighSchool","2002","123","Carl Tabb","Huron","","WR","74","180","4","0.9","Ann Arbor","MI","USA","42.2681569","-83.7312291","26161"
"171749","","HighSchool","2002","123","Marcus Hamilton","Centreville","","CB","73","180","4","0.9","Clifton","VA","USA","38.7802204","-77.3864722","51059"
"171750","","HighSchool","2002","123","Mike Kolodziej","Joliet Catholic Academy","","OT","79","275","4","0.9","Joliet","IL","USA","41.5263603","-88.0840212","17197"
"171751","","HighSchool","2002","123","Keith Andrews","Ouachita Christian School","","K","72","175","4","0.9","Monroe","LA","USA","32.5093109","-92.1193012","22073"
"171752","","HighSchool","2002","123","Sam McGrew","Wakulla","","ILB","75","220","4","0.9","Crawfordville","FL","USA","30.1760358","-84.3751778","12129"
"171753","","HighSchool","2002","123","Justin Miller","Owensboro","","CB","72","180","4","0.9","Owensboro","KY","USA","37.7742152","-87.1133304","21059"
"171754","","HighSchool","2002","123","Buster Davis","Mainland","","ILB","71","228","4","0.9","Daytona Beach","FL","USA","29.2108147","-81.0228331","12127"
"171755","","HighSchool","2002","123","Ben Patrick","Jenkins","","TE","76","260","4","0.9","Savannah","GA","USA","32.0809263","-81.0911768","13051"
"171756","","HighSchool","2002","123","Scott White","Mission Bay","","ILB","75","230","4","0.9","San Diego","CA","USA","32.7174209","-117.1627714","06073"
"171757","","HighSchool","2002","123","Brandon Ala","Kamehameha","","ILB","75","225","4","0.9","Honolulu","HI","USA","21.304547","-157.8556764","15003"
"171758","","HighSchool","2002","123","Drew Stanton","Harrison","","PRO","76","215","4","0.9","Farmington","MI","USA","42.4644795","-83.3763219","27037"
"171759","","HighSchool","2002","123","Quinton McCoy","Valley Christian","","ATH","71","175","4","0.9","Chandler","AZ","USA","33.3062223","-111.8413317","04013"
"171760","","HighSchool","2002","123","David Jordan","Brookstone","","K","77","185","4","0.9","Columbus","GA","USA","32.4609764","-84.9877094","13215"
"171761","","HighSchool","2002","123","Chris Turner","Ed White","","DT","75","265","4","0.9","Jacksonville","FL","USA","30.3321838","-81.655651","12031"
"171762","","HighSchool","2002","123","Larry Fitzgerald","Valley Forge Military Academy (HS)","","WR","75","205","4","0.9","Minneapolis","MN","USA","44.9772995","-93.2654692","27053"
"171763","","HighSchool","2002","123","Bobby Carpenter","Lancaster","","OLB","75","235","4","0.9","Lancaster","OH","USA","39.7136754","-82.5993294","39045"
"171764","","HighSchool","2002","123","Kyle Tatum","Prattville","","DT","78","260","4","0.9","Prattville","AL","USA","32.4640245","-86.4596966","01001"
"171765","","HighSchool","2002","123","Cameron Vaughn","Archbishop Shaw","","ILB","75","220","4","0.9","Marrero","LA","USA","29.8993723","-90.1003506","22051"
"171766","","HighSchool","2002","123","Baraka Atkins","Booker","","SDE","77","245","4","0.9","Sarasota","FL","USA","27.3364347","-82.5306527","12115"
"171767","","HighSchool","2002","123","Stan White","Gilman","","OLB","75","225","4","0.9","Baltimore","MD","USA","39.2908816","-76.610759","24510"
"171768","","HighSchool","2002","123","Mario Raley","Independence","","WR","73","185","4","0.9","Charlotte","NC","USA","35.2272","-80.843083","37119"
"171769","","HighSchool","2002","123","Joe Tereshinski","Athens Academy","","PRO","75","205","4","0.9","Athens","GA","USA","33.9597677","-83.376398","13059"
"171770","","HighSchool","2002","123","Terrell McGill","Norland","","OT","76","280","4","0.9","Miami","FL","USA","25.7742658","-80.1936589","12086"
"171771","","HighSchool","2002","123","Vernon Grant","Duncanville","","CB","70","173","4","0.9","Duncanville","TX","USA","32.6518004","-96.9083366","48113"
"171772","","HighSchool","2002","123","Cody Douglas","La Marque","","OG","76","310","4","0.9","La Marque","TX","USA","29.3685674","-94.9713134","48167"
"171773","","HighSchool","2002","123","Albert Toeaina","Pitt-Ant","","OT","0","","4","0.9","San Francisco","CA","USA","37.7790262","-122.4199061","06075"
"171774","","HighSchool","2002","123","Justin Bruce","Pepperell","","TE","80","250","4","0.9","Lindale","GA","USA","34.194346","-85.17765061746866","13115"
"171775","","HighSchool","2002","123","Anthony Fasano","Verona","","TE","75","230","4","0.9","Verona","NJ","USA","40.829822","-74.2401466","34013"
"171776","","HighSchool","2002","123","Jeremy Ruffin","Meridian","","OLB","74","205","4","0.9","Meridian","MS","USA","32.3643098","-88.703656","28075"
"171777","","HighSchool","2002","123","Brian Calhoun","Oak Creek","","RB","71","190","4","0.9","Oak Creek","WI","USA","42.8858503","-87.8631362","55079"
"171778","","HighSchool","2002","123","R.J. Coleman","Robert C. Byrd","","TE","78","260","4","0.9","Clarksburg","WV","USA","39.2806451","-80.3445341","54033"
"171779","","HighSchool","2002","123","Brian Crum","Camden County","","S","75","210","4","0.9","Kingsland","GA","USA","30.7999563","-81.6898261","13039"
"171780","","HighSchool","2002","123","Jamie Ryan","Marian Catholic","","OT","77","275","4","0.9","Tamaqua","PA","USA","40.7974296","-75.9696186","42107"
"171781","","HighSchool","2002","123","Kelvin Flood","Kimball","","OLB","74","210","4","0.9","Dallas","TX","USA","32.7762719","-96.7968559","48113"
"171782","","HighSchool","2002","123","Michael Williams","Lindale","","OLB","76","225","4","0.9","Lindale","TX","USA","32.5156971","-95.4093998","48423"
"171783","","HighSchool","2002","123","Channing Crowder","North Springs","","OLB","74","220","4","0.9","Atlanta","GA","USA","33.7490987","-84.3901849","13121"
"171784","","HighSchool","2002","123","Bobby Morton","McKinney","","OG","76","305","4","0.9","McKinney","TX","USA","33.1976496","-96.6154471","48085"
"171785","","HighSchool","2002","123","Moe Thompson","Stratford","","TE","76","255","4","0.9","Goose Creek","SC","USA","32.9961038","-80.0387292","45015"
"171786","","HighSchool","2002","123","Kareem Brown","Norland","","DT","77","265","4","0.9","Miami","FL","USA","25.7742658","-80.1936589","12086"
"171787","","HighSchool","2002","123","Tommy Jackson","Opelika","","DT","73","280","4","0.9","Opelika","AL","USA","32.72667","-85.39249304591837","01081"
"171788","","HighSchool","2002","123","Cedric Washington","Bryan","","DUAL","72","183","4","0.9","Bryan","TX","USA","30.6743643","-96.3699632","48041"
"171789","","HighSchool","2002","123","Nate Schiccatano","Southern Columbia","","RB","75","215","4","0.9","Catawissa","PA","USA","40.9548267","-76.4609868","42037"
"171790","","HighSchool","2002","123","Fred Matua","Phineas Banning Senior","","DT","75","290","4","0.9","Wilmington","CA","USA","33.7800164","-118.2625095","06037"
"171791","","HighSchool","2002","123","Sammy Joseph","Archbishop Shaw","","CB","73","185","4","0.9","Marrero","LA","USA","29.8993723","-90.1003506","22051"
"171792","","HighSchool","2002","123","Dallas Sartz","Granite Bay","","OLB","77","215","4","0.9","Granite Bay","CA","USA","38.7632346","-121.1638361","06061"
"171793","","HighSchool","2002","123","Garett Wibel","Archbishop Rummel","","OG","75","315","4","0.9","Metairie","LA","USA","30.001852","-90.1767149159888","22051"
"171794","","HighSchool","2002","123","Brandon Cox","Hewitt-Trussville","","PRO","75","190","4","0.9","Trussville","AL","USA","33.626629","-86.5549335251678","01073"
"171795","","HighSchool","2002","123","Roy Hall","Brush","","WR","75","200","4","0.9","Cleveland","OH","USA","41.5051613","-81.6934446","39035"
"171796","","HighSchool","2002","123","Joe Newton","Roseburg","","TE","79","235","4","0.9","Roseburg","OR","USA","43.216505","-123.3417381","41019"
"171797","","HighSchool","2002","123","Brandon Williams","Shaw","","CB","73","196","4","0.9","Columbus","GA","USA","32.4609764","-84.9877094","13215"
"171812","","HighSchool","2002","264","Blake Mackey","Bakersfield","","WR","75","185","4","0.8988","Bakersfield","CA","USA","35.3738712","-119.0194639","06029"
"171813","","HighSchool","2002","265","Davin Joseph","Hallandale","","OG","76","290","4","0.8972","Hallandale","FL","USA","25.985600599999998","-80.13999671464335","12011"
"171814","","HighSchool","2002","266","Lucas Jackson","West Monroe","","ILB","73","220","3","0.8667","West Monroe","LA","USA","32.5184775","-92.1476353","22073"
"171815","","HighSchool","2002","266","Wayne Chambers","Grandview","","ILB","75","235","3","0.8667","Grandview","MO","USA","38.8898478","-94.5313816","29095"
"171816","","HighSchool","2002","266","Andre Bailey","Mcclintock","","S","75","190","3","0.8667","Tempe","AZ","USA","33.4255056","-111.9400125","04013"
"171817","","HighSchool","2002","266","Mike Williams","Plant","","WR","77","200","3","0.8667","Tampa","FL","USA","27.9477595","-82.458444","12057"
"171818","","HighSchool","2002","266","Randy Boxilll","Santaluces Community","","OT","75","318","3","0.8667","Lake Worth","FL","USA","26.615891","-80.0691435","12099"
"171819","","HighSchool","2002","266","Curt Dukes","Newton-conover","","DUAL","74","210","3","0.8667","Newton","NC","USA","35.6630887","-81.2219363","37035"
"171820","","HighSchool","2002","266","Brandon Meriweather","Apopka","","S","71","198","3","0.8667","Apopka","FL","USA","28.6779683","-81.5115214","12095"
"171821","","HighSchool","2002","266","Cyruss Garrett","Romeoville","","OLB","75","220","3","0.8667","Romeoville","IL","USA","41.6475306","-88.0895061","17197"
"171822","","HighSchool","2002","266","Shawne Merriman","Frederick Douglass","","WDE","76","225","3","0.8667","Upper Marlboro","MD","USA","38.8165274","-76.7519753","24033"
"171823","","HighSchool","2002","266","Chansi Stuckey","Northside","","ATH","72","170","3","0.8667","Warner Robins","GA","USA","32.6200973","-83.606568","13153"
"171824","","HighSchool","2002","266","Fletcher Session","John Tyler","","OLB","72","210","3","0.8667","Tyler","TX","USA","32.3512601","-95.3010624","48423"
"171825","","HighSchool","2002","266","Nathaniel Clayton","Baltimore City College","","OT","76","315","3","0.8667","Baltimore","MD","USA","39.2908816","-76.610759","24510"
"171826","","HighSchool","2002","266","Courtney Lewis","Madison","","APB","71","175","3","0.8667","Houston","TX","USA","29.7589382","-95.3676974","48201"
"171827","","HighSchool","2002","266","Randy Hill","Mcclintock","","RB","73","200","3","0.8667","Tempe","AZ","USA","33.4255056","-111.9400125","04013"
"171828","","HighSchool","2002","266","Brian Patrick","Sam Rayburn","","DT","77","270","3","0.8667","Pasadena","TX","USA","29.6910625","-95.2091006","48201"
"171829","","HighSchool","2002","266","Darnell Jenkins","Miami Central","","WR","70","172","3","0.8667","Miami","FL","USA","25.7742658","-80.1936589","12086"
"171830","","HighSchool","2002","266","Bryan uga McClendon","Mays","","ATH","73","180","3","0.8667","Atlanta","GA","USA","33.7490987","-84.3901849","13121"
"171831","","HighSchool","2002","266","Agim Shabaj","Harrison","","WR","70","185","3","0.8667","Farmington","MI","USA","42.4644795","-83.3763219","27037"
"171832","","HighSchool","2002","266","Taylor Schuster","Sharyland","","OT","77","255","3","0.8667","Mission","TX","USA","26.2159066","-98.3252932","48215"
"171833","","HighSchool","2002","266","Robert James","Maryvale","","S","71","180","3","0.8667","Phoenix","AZ","USA","33.4484367","-112.0741417","04013"
"171834","","HighSchool","2002","266","Ashton Watson","Wayne","","CB","71","160","3","0.8667","Dayton","OH","USA","39.7589478","-84.1916069","39113"
"171835","","HighSchool","2002","266","Mel Bryant","Muncie Central","","TE","78","215","3","0.8667","Muncie","IN","USA","40.1936892","-85.3865271","18035"
"171836","","HighSchool","2002","266","Stefan Orange","Culpeper County","","CB","73","180","3","0.8667","Culpeper","VA","USA","38.4733823","-77.9961275","51047"
"171837","","HighSchool","2002","266","Tyler Everett","McKinley","","S","72","190","3","0.8667","Canton","OH","USA","40.7989522","-81.3784445","39151"
"171838","","HighSchool","2002","266","Justin Harrell","Westview","","DT","77","300","3","0.8667","Martin","TN","USA","36.3433965","-88.850338","47183"
"171839","","HighSchool","2002","266","Tristan Walker","Claremont","","FB","73","222","3","0.8667","Claremont","CA","USA","34.0966764","-117.7197785","06037"
"171840","","HighSchool","2002","266","Wali Lundy","Holy Cross","","RB","72","195","3","0.8667","Delran","NJ","USA","40.0179845","-74.94348457116372","34005"
"171841","","HighSchool","2002","266","Thomas Bachman","Evangel Christian Academy","","WR","71","180","3","0.8667","Shreveport","LA","USA","32.5221828","-93.7651944","22017"
"171842","","HighSchool","2002","266","Robert Merrill","Taft","","RB","71","200","3","0.8667","San Antonio","TX","USA","29.4246002","-98.4951405","48029"
"171843","","HighSchool","2002","266","John Derraney","Fayette County","","K","75","180","3","0.8667","Fayetteville","GA","USA","33.4487257","-84.4549262","13113"
"171844","","HighSchool","2002","266","LaRon Harris","Kingsbury","","DT","75","305","3","0.8667","Memphis","TN","USA","35.1490215","-90.0516285","47157"
"171845","","HighSchool","2002","266","Ibrahim Halsey","Elizabeth","","RB","71","190","3","0.8667","Elizabeth","NJ","USA","40.6639916","-74.2107006","34039"
"171846","","HighSchool","2002","266","B.J. Fields","Camden County","","CB","71","180","3","0.8667","Kingsland","GA","USA","30.7999563","-81.6898261","13039"
"171847","","HighSchool","2002","266","David Ligon","Christian Brothers","","SDE","77","275","3","0.8667","Memphis","TN","USA","35.1490215","-90.0516285","47157"
"171848","","HighSchool","2002","266","Abner Estrada","Turner","","OG","76","275","3","0.8667","Carrollton","TX","USA","32.9537349","-96.8902816","48113"
"171849","","HighSchool","2002","266","Biren Ealy","Cy Falls","Arizona","WR","76","200","3","0.8667","Houston","TX","USA","29.7589382","-95.3676974","48201"
"171850","","HighSchool","2002","266","Matt Herian","Pierce","","TE","77","220","3","0.8667","Pierce","NE","USA","42.1990988","-97.5271491","31139"
"171851","","HighSchool","2002","266","Dustin Fry","Summerville","","OG","75","305","3","0.8667","Summerville","SC","USA","33.0206179","-80.1747537","45035"
"171852","","HighSchool","2002","266","Kasey Studdard","Highlands Ranch","Texas","OG","74","260","3","0.8667","Littleton","CO","USA","39.613321","-105.0166498","08005"
"171853","","HighSchool","2002","266","Doug Morris","Woodham","","SDE","76","250","3","0.8667","Pensacola","FL","USA","30.421309","-87.2169149","12033"
"171854","","HighSchool","2002","266","Lawrence Pinson","Jenks","","ILB","74","246","3","0.8667","Jenks","OK","USA","36.0228734","-95.9683278","40143"
"171855","","HighSchool","2002","266","Thaddaeus Washington","John Ehret","","ILB","71","240","3","0.8667","Marrero","LA","USA","29.8993723","-90.1003506","22051"
"171856","","HighSchool","2002","266","Scott Raridon","Mason City","","OT","79","275","3","0.8667","Mason City","IA","USA","43.1535728","-93.2010367","19033"
"171857","","HighSchool","2002","266","Tyler Littlehales","Boulder","","WR","76","205","3","0.8667","Boulder","CO","USA","40.0149856","-105.2705456","08013"
"171858","","HighSchool","2002","266","Lyle Sendlein","Chaparral","","DT","76","270","3","0.8667","Scottsdale","AZ","USA","33.4942189","-111.9260184","04013"
"171859","","HighSchool","2002","266","Carl Tuitavuki","Madison Senior","","DT","76","320","3","0.8667","Rexburg","ID","USA","43.8235163","-111.7870222","16065"
"171860","","HighSchool","2002","266","Stevie Hicks","Creighton Prep","","RB","74","215","3","0.8667","Omaha","NE","USA","41.2587459","-95.9383758","31055"
"171861","","HighSchool","2002","266","Brandon Merriweather","Apopka","","S","73","175","3","0.8667","Apopka","FL","USA","28.6779683","-81.5115214","12095"
"171862","","HighSchool","2002","266","Matthew Melton","John Tyler","","S","72","190","3","0.8667","Tyler","TX","USA","32.3512601","-95.3010624","48423"
"171863","","HighSchool","2002","266","Anthony Wollschlager","St. Thomas Aquinas","","OT","78","295","3","0.8667","Fort Lauderdale","FL","USA","26.1223084","-80.1433786","12011"
"171864","","HighSchool","2002","266","Mark LeFlore","Central","","WR","72","185","3","0.8667","Omaha","NE","USA","41.2587459","-95.9383758","31055"
"171865","","HighSchool","2002","266","Jeremy Van Alstyne","Center Grove","","ILB","76","235","3","0.8667","Greenwood","IN","USA","39.6136578","-86.1066526","18081"
"171866","","HighSchool","2002","266","Jeff Francoeur","Parkview","","S","76","205","3","0.8667","Lilburn","GA","USA","33.8901036","-84.1429719","13135"
"171867","","HighSchool","2002","266","Marques Binns","Dorsey","","CB","72","170","3","0.8667","Los Angeles","CA","USA","34.0536909","-118.2427666","06037"
"171868","","HighSchool","2002","266","Roshawn Pope","Ball","","ATH","71","180","3","0.8667","Galveston","TX","USA","29.299328","-94.7945882","48167"
"171869","","HighSchool","2002","266","Fabian Washington","Bayshore","","ATH","72","175","3","0.8667","Bradenton","FL","USA","27.4989278","-82.5748194","12081"
"171870","","HighSchool","2002","266","Reggie Banks","Evangel Christian Academy","","SDE","76","260","3","0.8667","Shreveport","LA","USA","32.5221828","-93.7651944","22017"
"171871","","HighSchool","2002","266","Darnell Hood","Harper Woods","","APB","72","185","3","0.8667","Harper Woods","MI","USA","42.4333367","-82.9238847","26163"
"171872","","HighSchool","2002","266","Damien Collins","Bryan Adams","","WR","73","187","3","0.8667","Dallas","TX","USA","32.7762719","-96.7968559","48113"
"171873","","HighSchool","2002","266","Earl Anderson","San Marcos","","DT","75","270","3","0.8667","San Marcos","TX","USA","29.8826436","-97.9405828","48209"
"171874","","HighSchool","2002","266","Mike Jefferson","Parkland","","WR","75","205","3","0.8667","El Paso","TX","USA","31.7754152","-106.4646348","48141"
"171875","","HighSchool","2002","266","Aryhel Freeman","Tri-Cities","","DUAL","74","200","3","0.8667","Atlanta","GA","USA","33.7490987","-84.3901849","13121"
"171876","","HighSchool","2002","266","Ryan O'Hara","John Muir","","DUAL","78","193","3","0.8667","Pasadena","CA","USA","34.1476452","-118.1444779","06037"
"171877","","HighSchool","2002","266","Jay Kirkland","New Albany","","OG","76","300","3","0.8667","New Albany","MS","USA","34.4942683","-89.0078418","28145"
"171878","","HighSchool","2002","266","Tom Malone","Temescal Canyon","","K","71","175","3","0.8667","Lake Elsinore","CA","USA","33.6680772","-117.3272615","06065"
"171879","","HighSchool","2002","266","Lance Evans","Eastern","","S","77","185","3","0.8667","Voorhees","NJ","USA","39.8512162","-74.9619779","34007"
"171880","","HighSchool","2002","266","Marcus McCutcheon","Edison","","CB","72","180","3","0.8667","Huntington Beach","CA","USA","33.6783336","-118.0000166","06059"
"171881","","HighSchool","2002","266","James McCoy","Moss Point","","OT","76","285","3","0.8667","Moss Point","MS","USA","30.4115881","-88.5344601","28059"
"171882","","HighSchool","2002","266","Andrew Wicker","Silliman Institute","","SDE","76","260","3","0.8667","Clinton","LA","USA","30.8657","-91.0157","36065"
"171883","","HighSchool","2002","266","Brandon Fails","Colleyville Heritage","","DT","75","295","3","0.8667","Colleyville","TX","USA","32.8809603","-97.155012","48439"
"171884","","HighSchool","2002","266","Jayme Mitchell","Forest Hill","","SDE","78","270","3","0.8667","Jackson","MS","USA","32.2990384","-90.1847691","28049"
"171885","","HighSchool","2002","266","Regis Edgerson","Garfield Heights","","FB","73","220","3","0.8667","Cleveland","OH","USA","41.5051613","-81.6934446","39035"
"171886","","HighSchool","2002","266","David Beall","Mountain View","","OG","77","295","3","0.8667","Vancouver","WA","USA","45.6306954","-122.6744557","53011"
"171887","","HighSchool","2002","266","Jamal Pittman","Columbia","","RB","74","225","3","0.8667","Columbia","MS","USA","31.2518439","-89.83758","28091"
"171888","","HighSchool","2002","266","Marcus Freeman","Cretin Derham Hall","","TE","76","240","3","0.8667","Saint Paul","MN","USA","44.9504037","-93.1015026","27123"
"171889","","HighSchool","2002","266","Chris Doyle","Mater Dei","","OG","74","285","3","0.8667","Santa Ana","CA","USA","33.7494951","-117.8732213","06059"
"171890","","HighSchool","2002","266","Chris Frome","Hart","","WDE","77","240","3","0.8667","Newhall","CA","USA","37.3485422","-121.9203988069216","06085"
"171891","","HighSchool","2002","266","Keith Jackson","Inglewood","","OT","78","300","3","0.8667","Inglewood","CA","USA","33.9562003","-118.353132","06037"
"171892","","HighSchool","2002","266","Reggie Lewis","First Coast","","WR","71","180","3","0.8667","Jacksonville","FL","USA","30.3321838","-81.655651","12031"
"171893","","HighSchool","2002","384","Adrian Campbell","Berkner","","DT","78","255","3","0.8489","Richardson","TX","USA","32.9481789","-96.7297206","48113"
"171894","","HighSchool","2002","385","Nick Mangold","Kettering Fairmont","","OG","76","270","3","0.8333","Dayton","OH","USA","39.7589478","-84.1916069","39113"
"171895","","HighSchool","2002","385","Bryan Brown","Corinth","","ATH","70","185","3","0.8333","Corinth","MS","USA","34.9343599","-88.5223353","28003"
"171896","","HighSchool","2002","385","David Wooldridge","Davie County","","K","75","200","3","0.8333","Mocksville","NC","USA","35.8940236","-80.5617846","37059"
"171897","","HighSchool","2002","385","Cole Chason","Norcross","","K","72","155","3","0.8333","Norcross","GA","USA","33.9412127","-84.2135309","13135"
"171898","","HighSchool","2002","385","Brodrick Bunkley","Chamberlain","","DT","75","260","3","0.8333","Tampa","FL","USA","27.9477595","-82.458444","12057"
"171899","","HighSchool","2002","385","Nate Livings","Washington-Marion","","OT","77","315","3","0.8333","Lake Charles","LA","USA","30.2265949","-93.2173759","22019"
"171900","","HighSchool","2002","385","Brandon Hancock","Clovis West","","FB","73","235","3","0.8333","Fresno","CA","USA","36.7295295","-119.70886126075588","06019"
"171901","","HighSchool","2002","385","Marlon Brisco","Morningside","","WDE","76","225","3","0.8333","Inglewood","CA","USA","33.9562003","-118.353132","06037"
"171902","","HighSchool","2002","385","Brian Bennett","Holy Cross","","OLB","73","210","3","0.8333","Delran","NJ","USA","40.0179845","-74.94348457116372","34005"
"171903","","HighSchool","2002","385","Jeremy Parker","Mesquite","","K","67","175","3","0.8333","Mesquite","TX","USA","32.7666103","-96.599472","48113"
"171904","","HighSchool","2002","385","Adam Podlesh","Pittsford-mendon","","K","72","195","3","0.8333","Pittsford","NY","USA","43.090959","-77.515298","36055"
"171905","","HighSchool","2002","385","Nick Johnson","Chandler","","SDE","76","247","3","0.8333","Chandler","AZ","USA","33.3062223","-111.8413317","04013"
"171906","","HighSchool","2002","385","Chris Wilson","Catonsville","","FB","73","235","3","0.8333","Catonsville","MD","USA","39.2720504","-76.7318456","24005"
"171907","","HighSchool","2002","385","James Washington","Oxnard Union","","OLB","74","205","3","0.8333","Oxnard","CA","USA","34.1976308","-119.1803818","06111"
"171908","","HighSchool","2002","385","Aaron Gipson","Etiwanda","","CB","69","170","3","0.8333","Rancho Cucamonga","CA","USA","34.1033192","-117.5751735","06071"
"171909","","HighSchool","2002","385","Jeremy Kapinos","West Springfield","","K","73","215","3","0.8333","Springfield","VA","USA","38.7890522","-77.1870368","51059"
"171910","","HighSchool","2002","385","Nic Schmitt","Salem","","K","75","230","3","0.8333","Salem","VA","USA","37.293378","-80.054667","51775"
"171911","","HighSchool","2002","385","Joel Filani","Paradise Valley","","WR","75","205","3","0.8333","Phoenix","AZ","USA","33.4484367","-112.0741417","04013"
"171912","","HighSchool","2002","385","Ruben Mayes","Ridgeway","","FB","74","240","3","0.8333","Memphis","TN","USA","35.1490215","-90.0516285","47157"
"171913","","HighSchool","2002","385","Pierre Rembert","Cudahy","","RB","73","200","3","0.8333","Cudahy","WI","USA","42.959738","-87.861471","55079"
"171914","","HighSchool","2002","385","Samson Satele","Kailua","","OG","76","285","3","0.8333","Kailua","HI","USA","21.394833","-157.72989134661873","15003"
"171915","","HighSchool","2002","385","Zach Zwilling","Fort Zumwalt East","","TE","78","250","3","0.8333","Saint Peters","MO","USA","38.791612","-90.5958468","29183"
"171916","","HighSchool","2002","385","Tre Smith","Venice","","RB","71","190","3","0.8333","Venice","FL","USA","27.0999188","-82.4543597","12115"
"171917","","HighSchool","2002","385","Chris Hannon","Riverview","","ATH","76","190","3","0.8333","Sarasota","FL","USA","27.3364347","-82.5306527","12115"
"171918","","HighSchool","2002","385","Scott Shurden","Neshoba Central","","K","68","185","3","0.8333","Philadelphia","MS","USA","32.7703841","-89.1153488","28099"
"171919","","HighSchool","2002","385","Clifton Ryan","Arthur Hill","","SDE","75","255","3","0.8333","Saginaw","MI","USA","43.4200387","-83.9490365","26145"
"171920","","HighSchool","2002","385","Nick Cannon","Hahnville","","DUAL","75","198","3","0.8333","Boutte","LA","USA","29.8951685","-90.38943007298417","22089"
"171921","","HighSchool","2002","414","Leroy White","South Garland","","OLB","73","220","3","0.8333","Garland","TX","USA","32.912624","-96.6388833","48113"
"171922","","HighSchool","2002","414","Ian Firestone","Wilson","","WR","73","191","3","0.8333","Reading","PA","USA","40.335345","-75.9279495","42011"
"171923","","HighSchool","2002","414","Wayman Casey","Northside","","SDE","78","235","3","0.8333","Fort Smith","AR","USA","35.3872218","-94.4248983","05131"
"171924","","HighSchool","2002","414","Ra'Shawn Mosley","Southwest","","APB","71","175","3","0.8333","San Antonio","TX","USA","29.4246002","-98.4951405","48029"
"171925","","HighSchool","2002","414","Daunte Fields","Cardinal Newman","","WR","73","155","3","0.8333","West Palm Beach","FL","USA","26.715364","-80.0532942","12099"
"171926","","HighSchool","2002","414","Braden Campbell","Slippery Rock Area","","SDE","77","255","3","0.8333","Slippery Rock","PA","USA","41.0639506","-80.0564468","42019"
"171927","","HighSchool","2002","414","J.D. Runnels","Carl Albert","","FB","73","230","3","0.8333","Oklahoma City","OK","USA","35.4729886","-97.5170536","40109"
"171928","","HighSchool","2002","414","Aries Nelson","East Side","","DUAL","75","200","3","0.8333","Cleveland","MS","USA","33.7440023","-90.7248187","28011"
"171929","","HighSchool","2002","414","Anthony Waters","Lake View","","OLB","75","205","3","0.8333","Lake View","SC","USA","45.3233851","-68.9258708","23021"
"171930","","HighSchool","2002","414","Jamar Brittingham","Neshaminy","","RB","73","190","3","0.8333","Langhorne","PA","USA","40.1745538","-74.9226665","42017"
"171931","","HighSchool","2002","414","Jaren Hayes","Cedar Crest","","APB","69","180","3","0.8333","Lebanon","PA","USA","40.3429683","-76.4233816","42075"
"171932","","HighSchool","2002","414","John Parada","Alta Loma","","OT","79","305","3","0.8333","Rancho Cucamonga","CA","USA","34.1033192","-117.5751735","06071"
"171933","","HighSchool","2002","414","Ray Williams","Scotch Plains Fanwood","","WR","74","170","3","0.8333","Scotch Plains","NJ","USA","40.65538","-74.3898732","34039"
"171934","","HighSchool","2002","414","Matthew Trannon","Northern Commencement Academy","","WR","79","195","3","0.8333","Flint","MI","USA","43.0161693","-83.6900211","26049"
"171935","","HighSchool","2002","414","Larry Birdine","Eisenhower","","WDE","76","230","3","0.8333","Lawton","OK","USA","34.6086854","-98.3903305","40031"
"171936","","HighSchool","2002","414","Ron Darden","Glen Burnie Senior","","OG","76","315","3","0.8333","Glen Burnie","MD","USA","39.1626298","-76.6250756","24003"
"171937","","HighSchool","2002","414","Azzie Beagnyam","Clear Lake","","ILB","73","225","3","0.8333","Houston","TX","USA","29.7589382","-95.3676974","48201"
"171938","","HighSchool","2002","414","Kenneth Kern","Clarksdale","","ILB","73","225","3","0.8333","Clarksdale","MS","USA","34.2006479","-90.5702071","28027"
"171939","","HighSchool","2002","414","Tony Franklin","St Peter Chanel","","APB","71","175","3","0.8333","Bedford","OH","USA","41.39311","-81.536509","39035"
"171940","","HighSchool","2002","414","Karim El Nokali","Chartiers Valley","","PRO","76","200","3","0.8333","Bridgeville","PA","USA","40.3561805","-80.1100556","42003"
"171941","","HighSchool","2002","414","James Clancy","Bishop Kelley","","FB","73","240","3","0.8333","Tulsa","OK","USA","36.1556805","-95.9929113","40143"
"171942","","HighSchool","2002","414","Malcolm Ruff","Gilman","","RB","72","217","3","0.8333","Baltimore","MD","USA","39.2908816","-76.610759","24510"
"171943","","HighSchool","2002","414","David Reese","Milford Academy (HS)","","CB","71","185","3","0.8333","New Berlin","NY","USA","42.6239023","-75.3321363","36017"
"171944","","HighSchool","2002","414","Andy Alleman","Washington","","WDE","76","235","3","0.8333","Massillon","OH","USA","40.7967244","-81.5215093","39151"
"171945","","HighSchool","2002","414","Elliot Goode","Fayetteville-Manlius","","OLB","73","220","3","0.8333","Manlius","NY","USA","43.0020107","-75.9768632","36067"
"171946","","HighSchool","2002","414","Antwarn Franklin","Woodlawn","","DT","77","300","3","0.8333","Birmingham","AL","USA","33.5206824","-86.8024326","01073"
"171947","","HighSchool","2002","414","Akeem Retig","Carlisle","","OT","79","325","3","0.8333","Laneville","TX","USA","31.9743339","-94.8138252","48401"
"171948","","HighSchool","2002","414","Derron Ware","Dorsey","","S","76","205","3","0.8333","Los Angeles","CA","USA","34.0536909","-118.2427666","06037"
"171949","","HighSchool","2002","414","D'Brickashaw Ferguson","Freeport","","OG","77","250","3","0.8333","Freeport","NY","USA","40.6576022","-73.5831835","36059"
"171950","","HighSchool","2002","414","Ronald Morton","Hamilton West-watson","","WR","73","180","3","0.8333","Trenton","NJ","USA","40.2170575","-74.7429463","34021"
"171951","","HighSchool","2002","414","Lequalan McDonald","Waco","","OT","78","325","3","0.8333","Waco","TX","USA","31.549333","-97.1466695","48309"
"171952","","HighSchool","2002","414","Jeff Cook","Notre Dame","","S","75","190","3","0.8333","Crowley","LA","USA","30.2140928","-92.3745761","48439"
"171953","","HighSchool","2002","414","Willie Davis","Emsley A Laney","","S","75","190","3","0.8333","Wilmington","NC","USA","34.2257282","-77.9447107","37129"
"171954","","HighSchool","2002","414","Kendall High","West Rowan","","DT","78","260","3","0.8333","Mount Ulla","NC","USA","35.6584725","-80.7267361","37159"
"171955","","HighSchool","2002","414","Terry Bynes","Dillard","","OLB","74","200","3","0.8333","Fort Lauderdale","FL","USA","26.1223084","-80.1433786","12011"
"171956","","HighSchool","2002","414","Kyle Cook","Dakota","","OT","76","280","3","0.8333","Macomb","MI","USA","42.6652","-82.9286","17109"
"171957","","HighSchool","2002","414","Jason Lilly","Dover","","WR","74","205","3","0.8333","Dover","DE","USA","39.158168","-75.5243682","10001"
"171958","","HighSchool","2002","414","Barry Cofield","Cleveland Heights","","SDE","77","250","3","0.8333","Cleveland","OH","USA","41.5051613","-81.6934446","39035"
"171959","","HighSchool","2002","414","Willie Andrews","Longview","","CB","70","180","3","0.8333","Longview","TX","USA","32.5007031","-94.74049","48183"
"171960","","HighSchool","2002","414","Dedric Poole","Little Rock Central","","APB","69","184","3","0.8333","Little Rock","AR","USA","34.7464809","-92.2895948","05119"
"171961","","HighSchool","2002","414","Nephi Penerosa","St. Mary's","","OG","77","300","3","0.8333","Stockton","CA","USA","37.9577016","-121.2907796","06077"
"171962","","HighSchool","2002","414","Shang Moore","Worthing","","ATH","74","190","3","0.8333","Houston","TX","USA","29.7589382","-95.3676974","48201"
"171963","","HighSchool","2002","414","Derrele Mitchell","Reynolds","","WR","75","190","3","0.8333","Winston Salem","NC","USA","36.0998131","-80.2440518","37067"
"171964","","HighSchool","2002","414","Justin Laird","Lee","","K","74","180","3","0.8333","Baytown","TX","USA","29.7355047","-94.9774274","48201"
"171965","","HighSchool","2002","414","L.C. Kirkpatrick","Aldine","","WDE","75","255","3","0.8333","Houston","TX","USA","29.7589382","-95.3676974","48201"
"171966","","HighSchool","2002","414","Charles Sallet","Armwood","","ILB","71","220","3","0.8333","Seffner","FL","USA","27.998541000000003","-82.27488400114905","12057"
"171967","","HighSchool","2002","414","Sinorice Moss","Miami Carol City","","WR","68","163","3","0.8333","Opa Locka","FL","USA","25.896733849999997","-80.25949640850294","12086"
"171968","","HighSchool","2002","414","Ben Bandel","Murrieta Valley","","TE","79","265","3","0.8333","Murrieta","CA","USA","33.577752399999994","-117.18845420205307","06065"
"171969","","HighSchool","2002","414","Kenneth Tynes","Centreville","","RB","71","185","3","0.8333","Clifton","VA","USA","38.7802204","-77.3864722","51059"
"171970","","HighSchool","2002","414","Chad McCullar","North Shore","","WR","77","173","3","0.8333","Houston","TX","USA","29.7589382","-95.3676974","48201"
"171971","","HighSchool","2002","414","Brandon Greeson","High Point Central","","DT","78","315","3","0.8333","High Point","NC","USA","35.9556924","-80.0053176","37081"
"171972","","HighSchool","2002","414","Kevis Burnam","Macon County","","ILB","75","230","3","0.8333","Montezuma","GA","USA","32.3051576","-84.0274073","13193"
"171973","","HighSchool","2002","414","Ken Topps","Shannon","","ATH","72","170","3","0.8333","Shannon","MS","USA","34.1162203","-88.7117181","28081"
"171974","","HighSchool","2002","414","Jason Snelling","Lloyd C. Bird","","FB","73","315","3","0.8333","Chesterfield","VA","USA","37.3770935","-77.5058196","51041"
"171975","","HighSchool","2002","414","Richard Burch","Brandon","","OT","77","305","3","0.8333","Brandon","MS","USA","32.2731475","-89.9868058","28121"
"171976","","HighSchool","2002","414","Reggie Corner","McKinley","","WR","71","170","3","0.8333","Canton","OH","USA","40.7989522","-81.3784445","39151"
"171977","","HighSchool","2002","414","Chase Pressley","Southside","","DT","76","270","3","0.8333","Fort Smith","AR","USA","35.3872218","-94.4248983","05131"
"171978","","HighSchool","2002","414","Reggie Merriweather","North Augusta","","RB","70","190","3","0.8333","North Augusta","SC","USA","33.520849999999996","-81.96696923114902","45003"
"171979","","HighSchool","2002","414","Matthew Fountaine","Bishop O'Dowd","","CB","71","182","3","0.8333","Oakland","CA","USA","37.8044557","-122.2713563","06001"
"171980","","HighSchool","2002","414","Beau Carr","Westfield","","APB","71","195","3","0.8333","Houston","TX","USA","29.7589382","-95.3676974","48201"
"171981","","HighSchool","2002","414","Will Proctor","Trinity Preparatory School","","PRO","75","185","3","0.8333","Winter Park","FL","USA","26.13784445","-81.75399813758739","12021"
"171982","","HighSchool","2002","414","Brodrick Cross","Dwyer","","OLB","73","234","3","0.8333","Palm Beach Gardens","FL","USA","26.8418256","-80.13590694666684","12099"
"171983","","HighSchool","2002","414","Victor Worsley","North Edgecombe","","ILB","74","230","3","0.8333","Tarboro","NC","USA","35.8968236","-77.5358049","37065"
"171984","","HighSchool","2002","414","Dan Milsten","Governor John Rogers","","DT","77","250","3","0.8333","Puyallup","WA","USA","47.1849009","-122.2921406","53053"
"171985","","HighSchool","2002","414","David Noel","Southern","","WR","77","208","3","0.8333","Durham","NC","USA","35.996653","-78.9018053","37063"
"171986","","HighSchool","2002","414","Larry Anam","American","","S","72","180","3","0.8333","Hialeah","FL","USA","25.8575963","-80.2781057","12086"
"171987","","HighSchool","2002","414","Willis Barringer","Scott","","CB","72","195","3","0.8333","Toledo","OH","USA","41.6786754","-83.5127283","39095"
"171988","","HighSchool","2002","414","Mark Bihl","Washington","","OG","77","260","3","0.8333","Washington Court House","OH","USA","39.5364511","-83.4390843","39047"
"171989","","HighSchool","2002","414","Tom Berishaj","Adlai Stevenson","","OG","77","299","3","0.8333","Sterling Heights","MI","USA","42.5803122","-83.0302033","26099"
"171990","","HighSchool","2002","414","Jamayel Phillips","Winnfield Senior","","OT","78","320","3","0.8333","Winnfield","LA","USA","31.928273","-92.63905622689076","22127"
"171991","","HighSchool","2002","414","Zach Rupp","Dixie","","SDE","77","235","3","0.8333","St. George","UT","USA","37.104153","-113.5841313","49053"
"171992","","HighSchool","2002","414","Desmond Sims","New Madrid","","WR","74","195","3","0.8333","New Madrid","MO","USA","36.5864488","-89.5278547","29143"
"171993","","HighSchool","2002","414","Reginald Cribbs Jr.","Hubbard","","OLB","73","210","3","0.8333","Chicago","IL","USA","41.8755616","-87.6244212","17031"
"171994","","HighSchool","2002","414","Jawan Walker","Cathedral Prep","","APB","70","180","3","0.8333","Erie","PA","USA","42.1294712","-80.0852695","42049"
"171995","","HighSchool","2002","414","Damian Spradlin","Liberty","","OG","75","290","3","0.8333","Bedford","VA","USA","37.3344561","-79.5235083","51515"
"171996","","HighSchool","2002","414","D.J. Bell","Caesar Rodney","","OG","76","298","3","0.8333","Camden Wyoming","DE","USA","39.1181681","-75.5588139","10001"
"171997","","HighSchool","2002","414","Brandon Wright","East","","WR","70","170","3","0.8333","Memphis","TN","USA","35.1490215","-90.0516285","47157"
"171998","","HighSchool","2002","414","DeMar Baisy","Rainier Beach","","WDE","77","225","3","0.8333","Seattle","WA","USA","47.6038321","-122.3300624","53033"
"171999","","HighSchool","2002","414","Josh Lay","Valley Forge Military Academy (HS)","","S","73","190","3","0.8333","Wayne","PA","USA","40.0440149","-75.3878616","42045"
"172000","","HighSchool","2002","414","Jordan Reffett","Moses Lake","","SDE","78","245","3","0.8333","Moses Lake","WA","USA","47.1301417","-119.2780771","53025"
"172001","","HighSchool","2002","414","Alex Kotzur","St. Thomas","","OT","77","280","3","0.8333","Houston","TX","USA","29.7589382","-95.3676974","48201"
"172002","","HighSchool","2002","414","Michael DePriest","Fossil Ridge","","WR","72","173","3","0.8333","Keller","TX","USA","32.9299655","-97.2271249","48439"
"172003","","HighSchool","2002","414","Thad Hedgpeth","Lumberton Senior","","OG","76","292","3","0.8333","Lumberton","NC","USA","34.6183433","-79.0083993","37155"
"172004","","HighSchool","2002","414","Brandon Flanigan","Haughton","","OT","77","278","3","0.8333","Haughton","LA","USA","32.5326514","-93.5040627","22015"
"172005","","HighSchool","2002","414","Kevin Huntley","Valley Forge Military Academy (HS)","","SDE","78","255","3","0.8333","Wayne","PA","USA","40.0440149","-75.3878616","42045"
"172006","","HighSchool","2002","414","Jimtavis Walker","Statesboro","","APB","70","195","3","0.8333","Statesboro","GA","USA","32.4490141","-81.7832912","13031"
"172007","","HighSchool","2002","414","Patrick Dosh","Benedictine","","PRO","75","205","3","0.8333","Richmond","VA","USA","37.5385087","-77.43428","51760"
"172008","","HighSchool","2002","414","Jamie Beeghley","Midland Christian","","PRO","75","195","3","0.8333","Midland","TX","USA","31.9973662","-102.0779482","48329"
"172009","","HighSchool","2002","414","Darnell Smith","Taft","","ILB","75","220","3","0.8333","San Antonio","TX","USA","29.4246002","-98.4951405","48029"
"172010","","HighSchool","2002","414","Patrick Fleming","Colleyville Heritage","","TE","76","270","3","0.8333","Colleyville","TX","USA","32.8809603","-97.155012","48439"
"172011","","HighSchool","2002","414","Hammond Thomas","Lee","","WR","74","180","3","0.8333","Baytown","TX","USA","29.7355047","-94.9774274","48201"
"172012","","HighSchool","2002","414","Ray McDonald","Glades Central","","SDE","76","245","3","0.8333","Belle Glade","FL","USA","26.6845104","-80.6675577","12099"
"172013","","HighSchool","2002","414","D'Jaun Woods","Millwood","","WR","73","190","3","0.8333","Oklahoma City","OK","USA","35.4729886","-97.5170536","40109"
"172014","","HighSchool","2002","414","Daniel McLemore","Duncanville","","APB","68","170","3","0.8333","Duncanville","TX","USA","32.6518004","-96.9083366","48113"
"172015","","HighSchool","2002","414","Kris Mick","Troy","","OT","77","275","3","0.8333","Troy","OH","USA","40.0394982","-84.2032767","39109"
"172016","","HighSchool","2002","414","Josh Hibbets","Enid","","DUAL","75","190","3","0.8333","Enid","OK","USA","36.3967623","-97.8791341","40047"
"172017","","HighSchool","2002","414","Quintin Echols","O D Wyatt","","DT","74","300","3","0.8333","Fort Worth","TX","USA","32.753177","-97.3327459","48439"
"172018","","HighSchool","2002","414","Dallas Baker","Northfield Mount Hermon","","WR","76","185","3","0.8333","Northfield","MA","USA","42.6784273","-72.4348221","25011"
"172019","","HighSchool","2002","414","Marvin Mitchell","Lake Taylor","","ILB","75","230","3","0.8333","Norfolk","VA","USA","36.8462923","-76.2929252","51710"
"172020","","HighSchool","2002","414","Aldo De La Garza","New Braunfels","","OG","76","295","3","0.8333","New Braunfels","TX","USA","29.7028266","-98.1257348","48091"
"172021","","HighSchool","2002","414","Marcus Guerrero-Bacon","Cy Springs","","S","75","190","3","0.8333","Cypress","TX","USA","29.9691116","-95.6971686","48201"
"172022","","HighSchool","2002","414","Brandon Grandberry","Crowley","","CB","71","185","3","0.8333","Crowley","TX","USA","32.5782835","-97.3609829","48439"
"172023","","HighSchool","2002","414","Kenneth Tookes","First Coast","","WR","74","180","3","0.8333","Jacksonville","FL","USA","30.3321838","-81.655651","12031"
"172024","","HighSchool","2002","414","Pagitte McGee","John Tyler","","OLB","72","215","3","0.8333","Tyler","TX","USA","32.3512601","-95.3010624","48423"
"172025","","HighSchool","2002","414","Rimmon McNeese","Grandview","","TE","74","215","3","0.8333","Grandview","MO","USA","38.8898478","-94.5313816","29095"
"172026","","HighSchool","2002","414","Franklin Payne","University School","","WR","72","176","3","0.8333","Johnson City","TN","USA","36.3134398","-82.3534728","47179"
"172027","","HighSchool","2002","414","Dennis Ellis","Cleveland","","SDE","75","250","3","0.8333","Cleveland","TX","USA","30.3417711","-95.0854786","48291"
"172028","","HighSchool","2002","414","Andre Hemphill","Brevard","","WR","73","190","3","0.8333","Brevard","NC","USA","35.2334472","-82.7342919","37175"
"172029","","HighSchool","2002","414","Albert Bond","South Grand Prairie","","OG","76","260","3","0.8333","Grand Prairie","TX","USA","32.657368000000005","-97.02846624175038","48113"
"172030","","HighSchool","2002","414","Jon Beuthin","Blue Valley Northwest","","OT","77","260","3","0.8333","Overland Park","KS","USA","38.9742502","-94.6851702","20091"
"172031","","HighSchool","2002","414","Kurt Seifried","Jenks","","OG","76","290","3","0.8333","Jenks","OK","USA","36.0228734","-95.9683278","40143"
"172032","","HighSchool","2002","414","Olaolu Sanni-Osomo","LaGrange","","S","74","195","3","0.8333","LaGrange","GA","USA","33.039291","-85.0313269","13285"
"172033","","HighSchool","2002","414","Logan Robinson","Eastern Heights","","OG","81","310","3","0.8333","Agra","KS","USA","39.761678","-99.119254","20147"
"172034","","HighSchool","2002","414","Brandon Leone","Oak Ridge","","S","73","190","3","0.8333","Conroe","TX","USA","30.3118769","-95.4560512","48339"
"172035","","HighSchool","2002","414","Andy Matakis","Flour Bluff","","ILB","75","220","3","0.8333","Corpus Christi","TX","USA","27.7477253","-97.4014129","48355"
"172036","","HighSchool","2002","414","Ken Darby","Sr Butler Sch","","RB","71","195","3","0.8333","Huntsville","AL","USA","34.729847","-86.5859011","01089"
"172037","","HighSchool","2002","414","Glenn Jackson","Turner","","OLB","73","210","3","0.8333","Carrollton","TX","USA","32.9537349","-96.8902816","48113"
"172038","","HighSchool","2002","414","Jamar Ransom","Andress","","ATH","71","205","3","0.8333","El Paso","TX","USA","31.7754152","-106.4646348","48141"
"172039","","HighSchool","2002","414","Josh Tischer","Morris Community","","ILB","73","215","3","0.8333","Morris","IL","USA","41.3573813","-88.421565","17063"
"172040","","HighSchool","2002","414","Dvon Hill","Greenwood","","WR","75","200","3","0.8333","Greenwood","SC","USA","34.1954001","-82.1617883","45047"
"172041","","HighSchool","2002","414","Sean Harmon","Santa Fe","","SDE","76","260","3","0.8333","Edmond","OK","USA","35.6571367","-97.4649038","40109"
"172042","","HighSchool","2002","414","Nicolaus Brooks","Northside","","CB","74","180","3","0.8333","Columbus","GA","USA","32.4609764","-84.9877094","13215"
"172043","","HighSchool","2002","414","Antwan Stewart","Potomac","","ATH","72","180","3","0.8333","Dumfries","VA","USA","38.5676202","-77.3280382","51153"
"172044","","HighSchool","2002","414","Noah Strozier","Rockhurst","","CB","72","180","3","0.8333","Kansas City","MO","USA","39.100105","-94.5781416","29095"
"172045","","HighSchool","2002","414","Troy Reddick","Westover School","","OT","78","310","3","0.8333","Middlebury","CT","USA","41.5278742","-73.1276107","09009"
"172046","","HighSchool","2002","414","Sean Lowe","Lamar","","ILB","75","215","3","0.8333","Arlington","TX","USA","32.701938999999996","-97.10562379033699","48439"
"172047","","HighSchool","2002","414","Aaron Scranton","Buford","","WDE","77","230","3","0.8333","Buford","GA","USA","34.1206564","-84.0043513","13135"
"172048","","HighSchool","2002","414","John Scott","Zanesville","","RB","72","185","3","0.8333","Zanesville","OH","USA","39.9403453","-82.0131924","39119"
"172049","","HighSchool","2002","414","I-Perfection Harris","Poly Prep","","CB","70","165","3","0.8333","Brooklyn","NY","USA","40.6501038","-73.9495823","36047"
"172050","","HighSchool","2002","414","Martrez Milner","West Hall","","ATH","77","235","3","0.8333","Oakwood","GA","USA","34.227602","-83.8843455","13139"
"172051","","HighSchool","2002","414","Dominique Owens","Kempner","","APB","70","185","3","0.8333","Sugar Land","TX","USA","29.6196787","-95.6349463","48157"
"172052","","HighSchool","2002","414","Taylor Owenby","South Forsyth","","OLB","74","220","3","0.8333","Cumming","GA","USA","34.2073196","-84.1401926","13117"
"172053","","HighSchool","2002","414","LaKeldrick Bridges","Hillcrest","","ATH","75","170","3","0.8333","Dallas","TX","USA","32.7762719","-96.7968559","48113"
"172054","","HighSchool","2002","414","Lee Lispi","Pittston Area","","OT","78","297","3","0.8333","Pittston","PA","USA","41.3259134","-75.7893604","42079"
"172055","","HighSchool","2002","414","Korey Smith","Kirkwood","","WDE","76","217","3","0.8333","St. Louis","MO","USA","38.6268039","-90.1994097","29510"
"172056","","HighSchool","2002","414","Paris Hodges","Vanden","","OT","79","330","3","0.8333","Fairfield","CA","USA","38.2493581","-122.0399663","06095"
"172057","","HighSchool","2002","414","Erick Phillips","Hilliard Davidson","","APB","70","205","3","0.8333","Hilliard","OH","USA","40.033814","-83.1596108","39049"
"172058","","HighSchool","2002","414","Bartley Miller","Marist School","","OT","77","275","3","0.8333","Atlanta","GA","USA","33.7490987","-84.3901849","13121"
"172059","","HighSchool","2002","414","Akeem Jackson","Elizabeth","","S","73","180","3","0.8333","Elizabeth","NJ","USA","40.6639916","-74.2107006","34039"
"172060","","HighSchool","2002","414","Robert Price","Shaker Heights","","DT","74","290","3","0.8333","Cleveland","OH","USA","41.5051613","-81.6934446","39035"
"172061","","HighSchool","2002","414","Ty Kalandyk","Suwannee","","OLB","74","210","3","0.8333","Live Oak","FL","USA","30.2949457","-82.98402","12121"
"172062","","HighSchool","2002","414","Brian Johnson","Amos P. Godby","","OT","77","300","3","0.8333","Tallahassee","FL","USA","30.4380832","-84.2809332","12073"
"172063","","HighSchool","2002","414","Maurice Humphrey","Berlin","","S","73","182","3","0.8333","Berlin","CT","USA","41.621488","-72.7456519","09003"
"172064","","HighSchool","2002","414","Kellen Tillman","Plano West","","OLB","74","218","3","0.8333","Plano","TX","USA","33.0136764","-96.6925096","48085"
"172065","","HighSchool","2002","414","Bob Whitaker","Mt. Lebanon","","OT","77","310","3","0.8333","Pittsburgh","PA","USA","40.4416941","-79.9900861","42003"
"172066","","HighSchool","2002","414","Jerome Kemp","Southeast","","S","70","188","3","0.8333","Wichita","KS","USA","37.6922361","-97.3375448","20173"
"172067","","HighSchool","2002","414","Manuel Ramirez","Fort Bend Willowridge","","OG","76","315","3","0.8333","Houston","TX","USA","29.7589382","-95.3676974","48201"
"172068","","HighSchool","2002","414","J.D. Groves","North Marion","","FB","75","225","3","0.8333","Aurora","OR","USA","45.2310497","-122.7550359","41047"
"172069","","HighSchool","2002","414","Xavier McGuire","Carter","","WR","77","210","3","0.8333","Dallas","TX","USA","32.7762719","-96.7968559","48113"
"172070","","HighSchool","2002","414","Gabe Hall","Coronado","","TE","76","235","3","0.8333","Lubbock","TX","USA","33.5635206","-101.879336","48303"
"172071","","HighSchool","2002","414","Brandon Archer","Cretin Derham Hall","","OLB","74","220","3","0.8333","Saint Paul","MN","USA","44.9504037","-93.1015026","27123"
"172072","","HighSchool","2002","414","Dane Uperesa","Punahou","","OG","77","300","3","0.8333","Honolulu","HI","USA","21.304547","-157.8556764","15003"
"172073","","HighSchool","2002","414","Vernon Russell","John Curtis","","CB","73","185","3","0.8333","New Orleans","LA","USA","29.9499323","-90.0701156","22071"
"172074","","HighSchool","2002","414","Jerome Lewis","Turner","","APB","70","175","3","0.8333","Carrollton","TX","USA","32.9537349","-96.8902816","48113"
"172075","","HighSchool","2002","414","Chad Schroeder","Westlake","","ATH","74","170","3","0.8333","Austin","TX","USA","30.2711286","-97.7436995","48453"
"172076","","HighSchool","2002","414","Lawrence Williams","Lutcher","","ILB","76","230","3","0.8333","Lutcher","LA","USA","30.0404796","-90.6989797","22093"
"172077","","HighSchool","2002","414","Kirby Joseph","Washington-Marion","","WDE","74","220","3","0.8333","Lake Charles","LA","USA","30.2265949","-93.2173759","22019"
"172078","","HighSchool","2002","414","Jebiaus Brown","Milpitas","","CB","72","185","3","0.8333","Milpitas","CA","USA","37.4282724","-121.9066238","06085"
"172079","","HighSchool","2002","414","Antonio Mercier","Washington-Wilkes","","OT","77","335","3","0.8333","Washington","GA","USA","33.7367948","-82.7393089","13317"
"172080","","HighSchool","2002","414","Mark Simmons","DeSoto","","WR","71","170","3","0.8333","DeSoto","TX","USA","32.6061241","-96.865612653687","48113"
"172081","","HighSchool","2002","414","Thomas Patton","Oakland Technical","","WDE","75","244","3","0.8333","Oakland","CA","USA","37.8044557","-122.2713563","06001"
"172082","","HighSchool","2002","414","Donnie Johnson","North College Hill","","RB","72","195","3","0.8333","Cincinnati","OH","USA","39.1014537","-84.5124602","39061"
"172083","","HighSchool","2002","414","Anthony Barnett","Carter","","APB","70","180","3","0.8333","Dallas","TX","USA","32.7762719","-96.7968559","48113"
"172084","","HighSchool","2002","414","Dontavius Wilcox","Rockledge","","APB","72","200","3","0.8333","Southwest Brevard Cnty","FL","USA","","",""
"172085","","HighSchool","2002","414","Billy Don Malone","North Lamar","","PRO","74","185","3","0.8333","Paris","TX","USA","33.6617962","-95.555513","48277"
"172086","","HighSchool","2002","414","Brandon Douglas","Mesquite","","ATH","74","180","3","0.8333","Mesquite","TX","USA","32.7666103","-96.599472","48113"
"172087","","HighSchool","2002","414","Micah Sweats","Jersey Village","","S","73","190","3","0.8333","Houston","TX","USA","29.7589382","-95.3676974","48201"
"172088","","HighSchool","2002","414","J.J. Hair","Capistrano Valley","","TE","79","235","3","0.8333","Mission Viejo","CA","USA","33.5965685","-117.659405","06059"
"172089","","HighSchool","2002","414","Nick Reid","Derby","","DUAL","76","197","3","0.8333","Derby","KS","USA","37.5455735","-97.2689331","20173"
"172090","","HighSchool","2002","414","David Ochoa","Dobie","","OG","77","255","3","0.8333","Houston","TX","USA","29.7589382","-95.3676974","48201"
"172091","","HighSchool","2002","414","Patrick Lowery","Davie County","","ILB","74","227","3","0.8333","Mocksville","NC","USA","35.8940236","-80.5617846","37059"
"172092","","HighSchool","2002","414","Herbert Taylor II","Hightower","","OG","76","245","3","0.8333","Missouri City","TX","USA","29.6185669","-95.5377215","48157"
"172093","","HighSchool","2002","414","Ricky Wilson","Memorial","","ATH","70","162","3","0.8333","Port Arthur","TX","USA","29.8988618","-93.9288723","48245"
"172094","","HighSchool","2002","414","Jason Whieldon","Orange","","PRO","73","190","3","0.8333","Orange","CA","USA","33.7872568","-117.8503088","06059"
"172095","","HighSchool","2002","414","A.J. Hawk","Centerville","","OLB","74","230","3","0.8333","Dayton","OH","USA","39.7589478","-84.1916069","39113"
"172096","","HighSchool","2002","414","Deon Anderson","Avon Old Farms","","ILB","71","230","3","0.8333","Avon","CT","USA","41.8098209","-72.8306541","09003"
"172097","","HighSchool","2002","414","Chris Auletta","St. Anthony's","","OT","78","300","3","0.8333","Long Island City","NY","USA","40.7415095","-73.9569751","36081"
"172098","","HighSchool","2002","414","Paul Phillip","San Bernardino","Arizona","SDE","75","265","3","0.8333","San Bernardino","CA","USA","34.1083449","-117.2897652","06071"
"172099","","HighSchool","2002","414","Darrell Burston","Starrs Mill","Florida State","OLB","74","210","3","0.8333","Fayetteville","GA","USA","33.4487257","-84.4549262","13113"
"172100","","HighSchool","2002","668","Brandon Browner","Sylmar","Oregon State","WR","76","190","3","0.8222","Sylmar","CA","USA","34.3076252","-118.4492148","06037"
"172101","","HighSchool","2002","669","Jason Hall","McCallie School","Tennessee","SDE","76","245","3","0.8111","Chattanooga","TN","USA","35.0457219","-85.3094883","47065"
"172102","","HighSchool","2002","670","Jeff Burns","Ridge","Boston College","OLB","75","210","3","0.8","Basking Ridge","NJ","USA","40.7064088","-74.5492725","34035"
"172103","","HighSchool","2002","670","Shawn Bell","China Spring","Baylor","PRO","73","185","3","0.8","China Spring","TX","USA","31.6517652","-97.3067348","48309"
"172104","","HighSchool","2002","670","Craig Wilson","John Curtis","West Virginia","DT","74","275","3","0.8","New Orleans","LA","USA","29.9499323","-90.0701156","22071"
"172105","","HighSchool","2002","670","Travis Farst","Cedar Park","Baylor","OT","79","303","3","0.8","Cedar Park","TX","USA","30.5217116","-97.827833","48491"
"172106","","HighSchool","2002","670","Robert Ziminski","Argo Community","Boston College","WDE","76","225","3","0.8","Summit Argo","IL","USA","41.7769163","-87.8064005","17031"
"172107","","HighSchool","2002","670","Donnell Clark","Griffin","Clemson","ILB","75","240","3","0.8","Griffin","GA","USA","33.2467807","-84.2640904","13255"
"172108","","HighSchool","2002","670","D.D. Terry","Willis","Baylor","OLB","72","177","3","0.8","Willis","TX","USA","30.4241219","-95.4796587","48339"
"172109","","HighSchool","2002","670","Andrew Carnahan","Hereford","Arizona State","OT","80","275","3","0.8","Hereford","TX","USA","34.8245521","-102.398778","48117"
"172110","","HighSchool","2002","670","Steven Bright","Riverside","Vanderbilt","DUAL","76","205","3","0.8","Greer","SC","USA","34.9381361","-82.2272119","45045"
"172111","","HighSchool","2002","670","Chris Messner","Frederick","Oklahoma","OT","79","240","3","0.8","Frederick","OK","USA","34.3920263","-99.0184093","40141"
"172112","","HighSchool","2002","670","Paul Joran","Apple Valley","Wisconsin","ILB","75","220","3","0.8","Saint Paul","MN","USA","44.9504037","-93.1015026","27123"
"172113","","HighSchool","2002","670","Reggie Carter","Naples","Pittsburgh","CB","72","190","3","0.8","Naples","FL","USA","26.1421976","-81.7942944","12021"
"172114","","HighSchool","2002","670","John Stocco","Academy Of Holy Angels","Wisconsin","PRO","74","180","3","0.8","Minneapolis","MN","USA","44.9772995","-93.2654692","27053"
"172115","","HighSchool","2002","670","Mike Davis","Cathedral","Arizona State","S","74","170","3","0.8","Los Angeles","CA","USA","34.0536909","-118.2427666","06037"
"172116","","HighSchool","2002","670","Andre Chattams","Chaminade Julienne","Purdue","WR","72","180","3","0.8","Dayton","OH","USA","39.7589478","-84.1916069","39113"
"172117","","HighSchool","2002","670","Jake Ottolini","New Hampton School","Boston College","WDE","77","235","3","0.8","New Hampton","NH","USA","43.605753","-71.654892","33001"
"172195","","HighSchool","2002","670","Ju Parks","Lufkin","Texas A&M","DT","73","325","3","0.8","Lufkin","TX","USA","31.3386242","-94.7288558","48005"
"172118","","HighSchool","2002","670","Steven Brent","Georgetown","Vanderbilt","OG","76","270","3","0.8","Georgetown","TX","USA","30.671598","-97.65500660120435","48491"
"172119","","HighSchool","2002","670","Lamarr Watkins","Lenape","Wisconsin","RB","73","205","3","0.8","Medford","NJ","USA","39.9009472","-74.8234961","34005"
"172120","","HighSchool","2002","670","Stephen Berg","Canyon Del Oro","Arizona State","OT","77","305","3","0.8","Tucson","AZ","USA","32.2228765","-110.9748477","04019"
"172121","","HighSchool","2002","670","Sam Hollenbach","Pennridge","Maryland","PRO","77","210","3","0.8","Perkasie","PA","USA","40.372048","-75.292676","42017"
"172122","","HighSchool","2002","670","Jacob Bingham","Granite Hills","Arizona State","OG","77","300","3","0.8","El Cajon","CA","USA","32.7947731","-116.9625269","06073"
"172123","","HighSchool","2002","670","Mark Zalewski","East","Wisconsin","ILB","74","225","3","0.8","Wausau","WI","USA","44.9596017","-89.6298239","55073"
"172124","","HighSchool","2002","670","Iris Williams","Cy-Fair","Baylor","WR","76","218","3","0.8","Cypress","TX","USA","29.9691116","-95.6971686","48201"
"172125","","HighSchool","2002","670","Jim Marten","Brebeuf Jesuit Preparatory School","Boston College","OT","80","295","3","0.8","Indianapolis","IN","USA","39.7683331","-86.1583502","18097"
"172126","","HighSchool","2002","670","Nathan Uranga","Burleson","Baylor","OLB","73","190","3","0.8","Burleson","TX","USA","32.5420821","-97.3208492","48251"
"172127","","HighSchool","2002","670","Corey Ford","Skyline","Baylor","SDE","76","250","3","0.8","Dallas","TX","USA","32.7762719","-96.7968559","48113"
"172128","","HighSchool","2002","670","Levonne Rowan","Mercyhurst Preparatory School","Wisconsin","S","73","180","3","0.8","Erie","PA","USA","42.1294712","-80.0852695","42049"
"172129","","HighSchool","2002","670","Kellen Bradley","Saguaro","Arizona State","DUAL","75","175","3","0.8","Scottsdale","AZ","USA","33.4942189","-111.9260184","04013"
"172130","","HighSchool","2002","670","Mawase Falana","Northeast","Purdue","DT","75","290","3","0.8","St. Petersburg","FL","USA","27.7703796","-82.6695085","12103"
"172131","","HighSchool","2002","670","Rick Brown","Elder","Boston College","OLB","74","230","3","0.8","Cincinnati","OH","USA","39.1014537","-84.5124602","39061"
"172132","","HighSchool","2002","670","Phillip Fuller","Nimitz","Wisconsin","RB","70","180","3","0.8","Irving","TX","USA","32.8295183","-96.9442177","48113"
"172133","","HighSchool","2002","670","Dwayne Smith","Hales Franciscan","Wisconsin","RB","70","215","3","0.8","Chicago","IL","USA","41.8755616","-87.6244212","17031"
"172134","","HighSchool","2002","670","Alexander Webb","Highland Park","Northwestern","PRO","73","180","3","0.8","Dallas","TX","USA","32.7762719","-96.7968559","48113"
"172135","","HighSchool","2002","670","Quinton Broussard","The Colony","Toledo","CB","70","185","3","0.8","The Colony","TX","USA","33.0890094","-96.8863922","48121"
"172136","","HighSchool","2002","670","Anthony Longe","St. Paul Open School","Illinois","CB","71","175","3","0.8","Saint Paul","MN","USA","44.9504037","-93.1015026","27123"
"172137","","HighSchool","2002","670","Brandon Horn","Detroit Country Day","Northwestern","WR","73","205","3","0.8","Franklin","MI","USA","42.5222567","-83.3060432","26125"
"172138","","HighSchool","2002","670","Wes Walker","Bishop Amat","UCLA","OLB","74","215","3","0.8","La Puente","CA","USA","34.01979","-117.9503677","06037"
"172139","","HighSchool","2002","670","Chad Andrus","Keller","TCU","TE","76","215","3","0.8","Keller","TX","USA","32.9299655","-97.2271249","48439"
"172140","","HighSchool","2002","670","Will Down","San Pasqual","Colorado","DT","75","280","3","0.8","Escondido","CA","USA","33.1216751","-117.0814849","06073"
"172141","","HighSchool","2002","670","Derell Jenkins","Bolingbrook","Northwestern","ATH","74","186","3","0.8","Bolingbrook","IL","USA","41.7003302","-88.0717708","17197"
"172142","","HighSchool","2002","670","Rick McDole","Marysville","Northwestern","OT","78","325","3","0.8","Marysville","OH","USA","40.2364486","-83.3671432","39159"
"172143","","HighSchool","2002","670","James Cox","Royal","Colorado","DUAL","75","185","3","0.8","Simi Valley","CA","USA","34.2694474","-118.781482","06111"
"172144","","HighSchool","2002","670","Mike Imoh","Robinson Secondary","Virginia Tech","APB","67","180","3","0.8","Fairfax","VA","USA","38.8462236","-77.3063733","51600"
"172145","","HighSchool","2002","670","Jeff Ballard","Friendswood","TCU","PRO","73","195","3","0.8","Friendswood","TX","USA","29.5293998","-95.2010447","48167"
"172146","","HighSchool","2002","670","Elliot Vallejo","Palma","UCLA","OT","80","300","3","0.8","Salinas","CA","USA","36.6744117","-121.6550372","06053"
"172147","","HighSchool","2002","670","Trent Shelton","North Crowley","Baylor","WR","74","175","3","0.8","Fort Worth","TX","USA","32.753177","-97.3327459","48439"
"172148","","HighSchool","2002","670","Richard Freeman","Brentwood","Vanderbilt","WDE","77","230","3","0.8","Brentwood","TN","USA","36.0325687","-86.7825235","47187"
"172149","","HighSchool","2002","670","Taylor Sele","Lawrence Academy","Boston College","ATH","73","190","3","0.8","Groton","MA","USA","42.6112242","-71.5745402","25017"
"172150","","HighSchool","2002","670","Eric Fritz","Dublin Coffman","Pittsburgh","DT","77","295","3","0.8","Dublin","OH","USA","40.0992294","-83.1140771","39049"
"172151","","HighSchool","2002","670","Andrew Burk","Castle","Illinois","DT","77","265","3","0.8","Newburgh","IN","USA","37.9456824","-87.4046571","18173"
"172152","","HighSchool","2002","670","Chris Pazan","Brother Rice","Illinois","DUAL","74","205","3","0.8","Oak Lawn","IL","USA","41.7108662","-87.7581081","17031"
"172153","","HighSchool","2002","670","Adam Serena","South Allegheny","West Virginia","TE","75","220","3","0.8","Mckeesport","PA","USA","40.3478472","-79.864215","42003"
"172154","","HighSchool","2002","670","Seth Nitschmann","Calallen","Texas Tech","WDE","76","230","3","0.8","Corpus Christi","TX","USA","27.7477253","-97.4014129","48355"
"172155","","HighSchool","2002","670","Jeremy Foreman","Lutcher","Tulane","CB","74","170","3","0.8","Lutcher","LA","USA","30.0404796","-90.6989797","22093"
"172156","","HighSchool","2002","670","Darnell Ray","Hazelwood East","Illinois","CB","73","175","3","0.8","St. Louis","MO","USA","38.6268039","-90.1994097","29510"
"172157","","HighSchool","2002","670","Scott Moss","Minooka","Illinois","DT","74","230","3","0.8","Minooka","IL","USA","41.4553084","-88.2617305","17063"
"172158","","HighSchool","2002","670","Danny Foster","Centennial","Colorado State","CB","71","170","3","0.8","Corona","CA","USA","33.8752945","-117.5664449","06065"
"172159","","HighSchool","2002","670","Glen January","Second Baptist","Texas Tech","OT","78","250","3","0.8","Houston","TX","USA","29.7589382","-95.3676974","48201"
"172160","","HighSchool","2002","670","Tommy Griffin","John Tyler","Tulane","CB","70","195","3","0.8","Tyler","TX","USA","32.3512601","-95.3010624","48423"
"172161","","HighSchool","2002","670","Chris Reis","Roswell","Georgia Tech","S","73","204","3","0.8","Roswell","GA","USA","34.02332","-84.360022","13121"
"172162","","HighSchool","2002","670","Marshall Tharpe","Santa Margarita Catholic","Colorado State","PRO","75","182","3","0.8","Rancho Santa Margarita","CA","USA","33.6408845","-117.6029341","06059"
"172163","","HighSchool","2002","670","Kenyon Scott","Newton","Texas Tech","DT","75","285","3","0.8","Newton","TX","USA","30.8491127","-93.7574139","48351"
"172164","","HighSchool","2002","670","Edward Johnson","Crockett","Penn State","SDE","75","245","3","0.8","Detroit","MI","USA","42.3315509","-83.0466403","26163"
"172165","","HighSchool","2002","670","D'Qwell Jackson","Seminole","Maryland","OLB","73","210","3","0.8","Seminole","FL","USA","27.842588","-82.7788139333887","12103"
"172166","","HighSchool","2002","670","Jo Jo Walker","Creekview","Maryland","CB","70","165","3","0.8","Carrollton","TX","USA","32.9537349","-96.8902816","48113"
"172167","","HighSchool","2002","670","Zeb McHargue","Jones County","Georgia Tech","OT","78","280","3","0.8","Gray","GA","USA","33.0095802","-83.5337816","13169"
"172168","","HighSchool","2002","670","William Kershaw","Hoke County","Maryland","ILB","75","210","3","0.8","Raeford","NC","USA","34.9809996","-79.2241998","37093"
"172169","","HighSchool","2002","670","Terron Pullen","Johnson County","Georgia Tech","SDE","76","260","3","0.8","Wrightsville","GA","USA","32.7293279","-82.7198591","13167"
"172170","","HighSchool","2002","670","Alex Potasi","Narbonne","UCLA","OT","78","320","3","0.8","Harbor City","CA","USA","33.7972822","-118.3004717","06037"
"172171","","HighSchool","2002","670","Scott Lee","Stephenville","Texas Tech","ILB","75","225","3","0.8","Stephenville","TX","USA","32.2191836","-98.2130634","48143"
"172172","","HighSchool","2002","670","Jonathan Cruz","Arlington","Oklahoma State","OT","79","320","3","0.8","Arlington","TX","USA","32.701938999999996","-97.10562379033699","48439"
"172173","","HighSchool","2002","670","William Blaylock","John Tyler","Tulane","OG","75","290","3","0.8","Tyler","TX","USA","32.3512601","-95.3010624","48423"
"172174","","HighSchool","2002","670","Jeromey Clary","Mansfield Summit","Kansas State","OT","80","290","3","0.8","Arlington","TX","USA","32.701938999999996","-97.10562379033699","48439"
"172175","","HighSchool","2002","670","Steve Harris","Coral Gables","Florida","WDE","76","220","3","0.8","Miami","FL","USA","25.7742658","-80.1936589","12086"
"172176","","HighSchool","2002","670","Tim Norman","Tyler Lee","Texas Tech","CB","72","185","3","0.8","Tyler","TX","USA","32.3512601","-95.3010624","48423"
"172177","","HighSchool","2002","670","Cary Wade","Robinson Secondary","Virginia Tech","S","71","180","3","0.8","Fairfax","VA","USA","38.8462236","-77.3063733","51600"
"172178","","HighSchool","2002","670","Michael Sampson","Lewisville","Georgia Tech","ATH","74","190","3","0.8","Lewisville","TX","USA","33.046233","-96.994174","48121"
"172179","","HighSchool","2002","670","Dennis Burke","Sprayberry","Middle Tennessee","OLB","74","215","3","0.8","Marietta","GA","USA","33.9528472","-84.5496148","13067"
"172180","","HighSchool","2002","670","Ryan Parks","Chino","Colorado State","OG","76","275","3","0.8","Chino","CA","USA","34.0133561","-117.690075","06071"
"172181","","HighSchool","2002","670","Robby D'Angelo","Harrison Central","Southern Miss","OG","75","285","3","0.8","Gulfport","MS","USA","30.3674198","-89.0928155","28047"
"172182","","HighSchool","2002","670","J.T. Perry","Allen","West Virginia","WR","75","200","3","0.8","Allen","TX","USA","33.1031744","-96.6705503","48085"
"172183","","HighSchool","2002","670","Sean Miller","Solon","Indiana","RB","71","205","3","0.8","Solon","OH","USA","41.3897764","-81.4412259","39035"
"172184","","HighSchool","2002","670","Iverick Harris","Hugh M Cummings","East Carolina","WR","75","190","3","0.8","Burlington","NC","USA","36.0956918","-79.4377991","37001"
"172185","","HighSchool","2002","670","Jamaal Lewis","Rampart","Arizona State","TE","77","220","3","0.8","Colorado Springs","CO","USA","38.8339578","-104.8253485","08041"
"172186","","HighSchool","2002","670","Jamar Williams","Langham Creek","Arizona State","ILB","74","210","3","0.8","Houston","TX","USA","29.7589382","-95.3676974","48201"
"172187","","HighSchool","2002","670","Greg Casnave","Fontainebleau","Southern Miss","DT","75","265","3","0.8","Mandeville","LA","USA","30.3582305","-90.0657477","22103"
"172188","","HighSchool","2002","670","Lamon Means","Galena Park","Arizona","S","75","185","3","0.8","Galena Park","TX","USA","29.7335616","-95.2302123","48201"
"172189","","HighSchool","2002","670","Jarrett Hicks","Sharpstown","Texas Tech","WR","75","185","3","0.8","Houston","TX","USA","29.7589382","-95.3676974","48201"
"172190","","HighSchool","2002","670","Nick Rhodes","Brownwood","Texas A&M","WR","74","180","3","0.8","Brownwood","TX","USA","31.7070026","-98.9831022","48049"
"172191","","HighSchool","2002","670","Taurean Brown","Cinco Ranch","Tulane","DT","78","275","3","0.8","Katy","TX","USA","29.7857853","-95.8243956","48157"
"172192","","HighSchool","2002","670","Patrick Hall","Sequoyah","Penn State","ATH","75","245","3","0.8","Canton","GA","USA","34.2367621","-84.4907621","13057"
"172193","","HighSchool","2002","670","Vincent Meeks","Rockwall","Texas Tech","ATH","71","180","3","0.8","Rockwall","TX","USA","32.9312336","-96.4597089","48397"
"172194","","HighSchool","2002","670","Jermaine McCollum","Miami Southridge","Florida","CB","70","165","3","0.8","Miami","FL","USA","25.7742658","-80.1936589","12086"
"172196","","HighSchool","2002","670","Matt Maddox","Manasquan","Illinois","OG","75","280","3","0.8","Manasquan","NJ","USA","40.126226","-74.049304","34025"
"172197","","HighSchool","2002","670","Robin Kezirian","Central East","Washington","OG","76","280","3","0.8","Fresno","CA","USA","36.7295295","-119.70886126075588","06019"
"172198","","HighSchool","2002","670","Mark Setterstrom","Northfield Senior","Minnesota","OG","75","270","3","0.8","Northfield","MN","USA","44.4582041","-93.161159","27131"
"172199","","HighSchool","2002","670","Roman Fry","Ironton","Clemson","OG","76","255","3","0.8","Ironton","OH","USA","38.5367471","-82.6829406","39087"
"172200","","HighSchool","2002","670","Junior Joseph","O. Perry Walker","LSU","WR","73","175","3","0.8","New Orleans","LA","USA","29.9499323","-90.0701156","22071"
"172201","","HighSchool","2002","670","Gerald McCloud","St. John's Country Day School","Clemson","WR","74","185","3","0.8","Orange Park","FL","USA","30.1654707","-81.7016346","12019"
"172202","","HighSchool","2002","670","Ryan Willis","Holy Cross","LSU","WDE","76","250","3","0.8","New Orleans","LA","USA","29.9499323","-90.0701156","22071"
"172203","","HighSchool","2002","670","Tim Volk","Notre Dame","Arizona","WDE","74","250","3","0.8","Sherman Oaks","CA","USA","34.1508718","-118.4489865","06037"
