"Id","AthleteId","RecruitType","Year","Ranking","Name","School","CommittedTo","Position","Height","Weight","Stars","Rating","City","StateProvince","Country","HometownInfo Latitude","HometownInfo Longitude","HometownInfo FipsCode"
"167846","161717","HighSchool","2004","1","Adrian Peterson","Palestine","Oklahoma","RB","74","210","5","0.9996","Palestine","TX","USA","31.7621153","-95.6307891","48001"
"167847","","HighSchool","2004","2","Ted Ginn Jr.","Glenville","Ohio State","CB","72","170","5","0.9992","Cleveland","OH","USA","41.5051613","-81.6934446","39035"
"167848","","HighSchool","2004","3","Willie Williams","Miami Carol City","Miami","OLB","74","225","5","0.9988","Opa Locka","FL","USA","25.896733849999997","-80.25949640850294","12086"
"167849","","HighSchool","2004","4","Rhett Bomar","Grand Prairie","Oklahoma","PRO","76","205","5","0.9982","Grand Prairie","TX","USA","32.657368000000005","-97.02846624175038","48113"
"167851","","HighSchool","2004","5","Brandon Miller","Miller County","Georgia","WDE","76","225","5","0.998","Coolidge","GA","USA","31.0112991","-83.8662821","13275"
"167850","161128","HighSchool","2004","5","Early Doucet","St. Martinville","LSU","WR","73","207","5","0.998","St. Martinville","LA","USA","30.1252011","-91.8334498","22099"
"167852","161103","HighSchool","2004","7","Keith Rivers","Lake Mary","USC","ILB","74","215","5","0.997","Lake Mary","FL","USA","28.756618000000003","-81.33888382214167","12117"
"167853","","HighSchool","2004","8","Xavier Lee","Seabreeze","Florida State","DUAL","76","200","5","0.9964","Daytona Beach","FL","USA","29.2108147","-81.0228331","12127"
"167854","","HighSchool","2004","9","Jeff Byers","Loveland","USC","OC","76","280","5","0.9962","Loveland","CO","USA","40.385549","-105.04436132094955","08069"
"167855","","HighSchool","2004","10","Jeff Schweiger","Valley Christian","USC","WDE","77","245","5","0.996","San Jose","CA","USA","37.3361905","-121.8905833","06085"
"167856","","HighSchool","2004","11","Derrick Harvey","Eleanor Roosevelt","Florida","WDE","77","235","5","0.9956","Greenbelt","MD","USA","39.0099993","-76.9125366","24033"
"167857","","HighSchool","2004","12","DeMario Pressley","Dudley","NC State","DT","76","285","5","0.9946","Greensboro","NC","USA","36.0726355","-79.7919754","37081"
"167858","156817","HighSchool","2004","13","Dan Connor","Strath Haven","Penn State","ILB","75","215","5","0.9944","Wallingford","PA","USA","39.8909454","-75.3629687","42045"
"167859","156173","HighSchool","2004","13","Fred Davis","Rogers","USC","WR","76","210","5","0.9944","Toledo","OH","USA","41.6786754","-83.5127283","39095"
"167860","164344","HighSchool","2004","15","Anthony Morelli","Penn Hills","Penn State","PRO","76","208","5","0.9936","Pittsburgh","PA","USA","40.4416941","-79.9900861","42003"
"167861","161269","HighSchool","2004","16","Cameron Colvin","De La Salle","Oregon","WR","74","193","5","0.9932","Concord","CA","USA","37.9768525","-122.0335624","06013"
"167862","161135","HighSchool","2004","17","Xavier Carter","Palm Bay Senior","LSU","WR","75","190","5","0.993","Melbourne","FL","USA","28.0836269","-80.6081089","12009"
"167863","160898","HighSchool","2004","18","Chad Henne","Wilson","Michigan","PRO","75","210","5","0.9924","Reading","PA","USA","40.335345","-75.9279495","42011"
"167864","160260","HighSchool","2004","19","Brian Toal","Don Bosco Prep","Boston College","ILB","74","228","5","0.992","Ramsey","NJ","USA","41.0573188","-74.1409771","34003"
"167865","","HighSchool","2004","20","Frank Okam","Lake Highlands","Texas","DT","77","300","5","0.9918","Dallas","TX","USA","32.7762719","-96.7968559","48113"
"167866","160069","HighSchool","2004","21","Charles Johnson","Hawkinsville","Georgia","WDE","75","240","5","0.991","Hawkinsville","GA","USA","32.2839257","-83.4719948","13235"
"167867","","HighSchool","2004","22","Kyle Williams","Bolingbrook","Iowa","OLB","74","217","5","0.9908","Bolingbrook","IL","USA","41.7003302","-88.0717708","17197"
"167868","161197","HighSchool","2004","23","Calvin Johnson","Sandy Creek","Georgia Tech","WR","76","210","5","0.9902","Tyrone","GA","USA","33.4713249","-84.5972005","13113"
"167869","161118","HighSchool","2004","24","Lance Leggett","Grace Preparatory Academy","Miami","WR","76","180","5","0.9896","Arlington","TX","USA","32.701938999999996","-97.10562379033699","48439"
"167870","163361","HighSchool","2004","25","Marshawn Lynch","Oakland Technical","California","RB","71","195","5","0.9892","Oakland","CA","USA","37.8044557","-122.2713563","06001"
"167871","160314","HighSchool","2004","26","Zach Miller","Desert Vista","Arizona State","TE","76","240","5","0.9892","Phoenix","AZ","USA","33.4484367","-112.0741417","04013"
"167872","119003","HighSchool","2004","27","Matt Tuiasosopo","Woodinville","Washington","DUAL","74","200","5","0.989","Woodinville","WA","USA","47.7545827","-122.1588902","53033"
"167873","","HighSchool","2004","28","Chris Patterson","Hubbard","Oklahoma","OLB","75","220","5","0.9884","Chicago","IL","USA","41.8755616","-87.6244212","17031"
"167874","116838","HighSchool","2004","29","Tony Carter","Mandarin","Florida State","CB","69","175","5","0.9876","Jacksonville","FL","USA","30.3321838","-81.655651","12031"
"167877","","HighSchool","2004","30","Brandon Siler","Evans","Florida","OLB","75","220","5","0.9867","Orlando","FL","USA","28.5421109","-81.3790304","12095"
"167876","162406","HighSchool","2004","30","Andrew Kelson","Lamar","Texas","S","74","210","5","0.9867","Houston","TX","USA","29.7589382","-95.3676974","48201"
"167875","","HighSchool","2004","30","Glenn Dorsey","East Ascension","LSU","DT","74","293","5","0.9867","Gonzales","LA","USA","30.2385294","-90.9200987","48177"
"167878","","HighSchool","2004","33","Thomas Herring","John C. Fremont Senior","USC","OT","78","290","5","0.9859","Los Angeles","CA","USA","34.0536909","-118.2427666","06037"
"167879","","HighSchool","2004","34","Demonte Bolden","Tyner Academy","Tennessee","DT","77","295","5","0.9845","Chattanooga","TN","USA","35.0457219","-85.3094883","47065"
"167880","","HighSchool","2004","34","Bobby Reid","North Shore","Oklahoma State","DUAL","75","225","5","0.9845","Houston","TX","USA","29.7589382","-95.3676974","48201"
"167881","","HighSchool","2004","36","Roland Martin","Harper","Michigan State","OT","77","325","5","0.9841","Chicago","IL","USA","41.8755616","-87.6244212","17031"
"167882","161113","HighSchool","2004","36","Charlie Jones","South Dade","Miami","RB","71","200","5","0.9841","Homestead","FL","USA","25.4718946","-80.4759905","12086"
"167884","161084","HighSchool","2004","38","Dwayne Jarrett","New Brunswick","USC","WR","77","205","5","0.9837","New Brunswick","NJ","USA","40.4862174","-74.4518173","34023"
"167883","","HighSchool","2004","38","Bobby Washington","Killian","Miami","RB","72","200","5","0.9837","Miami","FL","USA","25.7742658","-80.1936589","12086"
"167885","","HighSchool","2004","40","Marcus Walker","Waco","Oklahoma","CB","71","180","5","0.9835","Waco","TX","USA","31.549333","-97.1466695","48309"
"167886","160061","HighSchool","2004","41","Thomas Brown","Tucker","Georgia","RB","70","185","4","0.9829","Tucker","GA","USA","33.8532701","-84.2200729","13089"
"167888","","HighSchool","2004","42","Brandon Barrett","Martinsburg","West Virginia","WR","73","190","4","0.9823","Martinsburg","WV","USA","39.4562528","-77.9639604","54003"
"167887","156474","HighSchool","2004","42","A.J. Bryant","Peach County","Georgia","ATH","74","185","4","0.9823","Fort Valley","GA","USA","32.5537585","-83.8874084","13225"
"167889","","HighSchool","2004","44","James Bryant","Reading","Miami","ILB","75","240","4","0.9811","Reading","PA","USA","40.335345","-75.9279495","42011"
"167890","","HighSchool","2004","45","Eric McLendon","Vidalia Comprehensive","","DT","78","288","4","0.9805","Vidalia","GA","USA","32.2176855","-82.4134614","13279"
"167891","","HighSchool","2004","46","Tim Jamison","Thornton Township","Michigan","WDE","75","240","4","0.9799","Harvey","IL","USA","41.6100344","-87.6467132","17031"
"167892","","HighSchool","2004","47","Brandon Braxton","Ursuline","Oklahoma","OT","78","300","4","0.9791","Youngstown","OH","USA","41.1035786","-80.6520161","39099"
"167893","166664","HighSchool","2004","48","Jamaal Edwards","Dudley","Florida State","RB","72","200","4","0.9787","Greensboro","NC","USA","36.0726355","-79.7919754","37081"
"167894","164609","HighSchool","2004","49","Brian Brohm","Trinity","Louisville","PRO","75","200","4","0.9783","Louisville","KY","USA","38.2542376","-85.759407","21111"
"167895","","HighSchool","2004","50","Cedric Dockery","Lakeview Centennial","Texas","OG","76","315","4","0.9783","Garland","TX","USA","32.912624","-96.6388833","48113"
"167897","","HighSchool","2004","51","J.R. Bryant","Killian","Florida State","CB","73","170","4","0.9781","Miami","FL","USA","25.7742658","-80.1936589","12086"
"167896","","HighSchool","2004","51","Kyle Mitchum","McDowell","Ohio State","OT","78","265","4","0.9781","Erie","PA","USA","42.1294712","-80.0852695","42049"
"167898","","HighSchool","2004","53","Cortney Grixby","Central","Nebraska","CB","69","165","4","0.9773","Omaha","NE","USA","41.2587459","-95.9383758","31055"
"167900","","HighSchool","2004","54","Leon Hart","Spring Valley","Auburn","OG","76","290","4","0.9765","Columbia","SC","USA","34.0007493","-81.0343313","45079"
"167899","","HighSchool","2004","54","Nikita Stover","Hartselle","Alabama","WR","73","195","4","0.9765","Hartselle","AL","USA","34.4443243","-86.934547","01103"
"167901","","HighSchool","2004","56","Dwayne Jones","Lakewood","Rutgers","FB","73","233","4","0.9763","Lakewood","NJ","USA","40.0978929","-74.2176435","34029"
"167902","160201","HighSchool","2004","57","Kyle Jackson","Duncan U. Fletcher","Florida","S","72","190","4","0.9755","Neptune Beach","FL","USA","30.311908","-81.3964734","12031"
"167903","","HighSchool","2004","58","William Morrisey","Silsbee","Texas A&M","DT","73","285","4","0.9751","Silsbee","TX","USA","30.3490978","-94.1779626","48199"
"167904","","HighSchool","2004","58","Herman Johnson","Denton","LSU","OT","79","350","4","0.9751","Denton","TX","USA","33.2150386","-97.1330516","48121"
"167905","","HighSchool","2004","60","Greg Harrison","Valley","Penn State","OG","77","295","4","0.9747","New Kensington","PA","USA","40.5697893","-79.7647705","42129"
"167906","","HighSchool","2004","60","Aaron Jones","Edgewater","Florida State","DT","75","270","4","0.9747","Orlando","FL","USA","28.5421109","-81.3790304","12095"
"167907","","HighSchool","2004","62","Marlon Favorite","West Jefferson","LSU","DT","74","310","4","0.9745","Harvey","LA","USA","29.9035387","-90.0772944","17031"
"167910","","HighSchool","2004","63","Drew Miller","Riverview","Florida","OT","77","305","4","0.9743","Sarasota","FL","USA","27.3364347","-82.5306527","12115"
"167909","","HighSchool","2004","63","Stephen McGee","Burnet","Texas A&M","PRO","75","205","4","0.9743","Burnet","TX","USA","30.75726","-98.2269358","48053"
"167908","","HighSchool","2004","63","Calvin Darity","Lincoln","North Carolina","OG","76","275","4","0.9743","Tallahassee","FL","USA","30.4380832","-84.2809332","12073"
"167911","","HighSchool","2004","66","Marcus Freeman","Wayne","Ohio State","ILB","73","240","4","0.9741","Dayton","OH","USA","39.7589478","-84.1916069","39113"
"167912","","HighSchool","2004","67","Olu Hall","Robinson Secondary","Virginia","WDE","77","220","4","0.9739","Fairfax","VA","USA","38.8462236","-77.3063733","51600"
"167913","","HighSchool","2004","67","Lydon Murtha","Hutchinson","Nebraska","OT","79","315","4","0.9739","Hutchinson","MN","USA","44.8877401","-94.3697057","27085"
"167914","","HighSchool","2004","67","Trey Covington","Eleanor Roosevelt","Maryland","WDE","75","230","4","0.9739","Greenbelt","MD","USA","39.0099993","-76.9125366","24033"
"167915","167354","HighSchool","2004","70","Drew Weatherford","Land O' Lakes","Florida State","PRO","75","205","4","0.9735","Land O Lakes","FL","USA","28.2188992","-82.4575938","12101"
"167916","","HighSchool","2004","71","Cornelius Ingram","Hawthorne","Florida","ATH","77","215","4","0.9729","Hawthorne","FL","USA","29.5918856","-82.0869578","12001"
"167917","","HighSchool","2004","72","Chase Patton","Rock Bridge","Missouri","DUAL","76","205","4","0.9727","Columbia","MO","USA","38.951883","-92.3337366","29019"
"167918","","HighSchool","2004","73","Josh Johnson","Stephenson","Georgia","ILB","74","225","4","0.9721","Stone Mountain","GA","USA","33.8080924","-84.1706273","13089"
"167919","","HighSchool","2004","73","Marque Hall","Forest Hills","South Carolina","DT","77","305","4","0.9721","Marshville","NC","USA","34.988486","-80.3670085","37179"
"167920","","HighSchool","2004","75","Chris Smith","Allen","Texas A&M","SDE","77","265","4","0.9719","Allen","TX","USA","33.1031744","-96.6705503","48085"
"167921","100774","HighSchool","2004","76","Andrew Johnson","North Hills","Miami","RB","72","205","4","0.9713","Pittsburgh","PA","USA","40.4416941","-79.9900861","42003"
"167922","","HighSchool","2004","77","Ryan Miller","Barbe","LSU","OC","78","310","4","0.9709","Lake Charles","LA","USA","30.2265949","-93.2173759","22019"
"167923","156310","HighSchool","2004","78","D.J. Wolfe","Eisenhower","Oklahoma","RB","71","180","4","0.9707","Lawton","OK","USA","34.6086854","-98.3903305","40031"
"167924","","HighSchool","2004","79","Rhyan  Anderson","Oak Creek","Miami","SDE","78","265","4","0.9705","Oak Creek","WI","USA","42.8858503","-87.8631362","55079"
"167925","","HighSchool","2004","80","Garry Pack","Oak Grove","Ole Miss","ILB","73","215","4","0.9699","Hattiesburg","MS","USA","31.3271189","-89.2903392","28035"
"167926","","HighSchool","2004","81","Lawrence Timmons","Wilson","Florida State","OLB","75","225","4","0.9695","Florence","SC","USA","34.1984435","-79.7671658","45041"
"167927","164336","HighSchool","2004","82","Michael Bumpus","Culver City","Washington State","WR","72","185","4","0.9693","Culver City","CA","USA","34.0278787","-118.3888493","06037"
"167928","158535","HighSchool","2004","83","Tony Temple","Rockhurst","Missouri","RB","70","195","4","0.9687","Kansas City","MO","USA","39.100105","-94.5781416","29095"
"167929","","HighSchool","2004","84","Alex Mitchell","Bay City Central","Michigan","OG","77","310","4","0.9683","Bay City","MI","USA","43.5944677","-83.8888648","26017"
"167930","","HighSchool","2004","85","Nick Hayden","Arrowhead","Wisconsin","DT","77","265","4","0.9679","Hartland","WI","USA","43.105008","-88.3420398","55133"
"167931","","HighSchool","2004","86","Doug Dutch","Gonzaga","Michigan","WR","72","200","4","0.9669","Washington","DC","USA","38.8949855","-77.0365708","11001"
"167932","","HighSchool","2004","87","Scott Ware","Santa Rosa","USC","S","74","220","4","0.9667","Santa Rosa","CA","USA","38.4404925","-122.7141049","06097"
"167933","","HighSchool","2004","87","Trevor Ford","Northwestern","Florida State","CB","73","185","4","0.9667","Miami","FL","USA","25.7742658","-80.1936589","12086"
"167934","","HighSchool","2004","89","Lavelle Hawkins","Edison","LSU","WR","71","194","4","0.9667","Stockton","CA","USA","37.9577016","-121.2907796","06077"
"167935","","HighSchool","2004","90","McIntosh Nicolas","Immokalee","Florida","CB","75","180","4","0.9663","Immokalee","FL","USA","26.4186898","-81.4172993","12021"
"167936","","HighSchool","2004","91","Eugene Germany","Pomona","Kansas State","SDE","76","250","4","0.9659","Pomona","CA","USA","34.0553813","-117.7517496","06037"
"167937","","HighSchool","2004","92","Brigham Harwell","Los Altos","UCLA","WDE","74","245","4","0.9651","Hacienda Heights","CA","USA","35.62928805","-120.6571031588404","06079"
"167938","","HighSchool","2004","93","Dale Thompson","Santiago","USC","TE","76","240","4","0.9647","Corona","CA","USA","33.8752945","-117.5664449","06065"
"167939","","HighSchool","2004","94","Matt Boss","Cherryvale Sr / Middle School","Kansas State","OG","77","314","4","0.9645","Cherryvale","KS","USA","37.270344","-95.5524788","20125"
"167940","","HighSchool","2004","94","Aaron Klovas","Bethel","Oregon","OT","78","300","4","0.9645","Spanaway","WA","USA","47.0979462","-122.4243422","53053"
"167941","","HighSchool","2004","96","Kyle Riggs","Festus","Missouri","OT","77","305","4","0.9639","Festus","MO","USA","38.2207112","-90.3959504","29099"
"167942","166666","HighSchool","2004","97","Jae Thaxton","Hart County","Florida State","ILB","75","225","4","0.9627","Hartwell","GA","USA","34.3528825","-82.932087","13147"
"167943","","HighSchool","2004","98","Webster Patrick","Westfield","","APB","68","200","4","0.9622","Oroville","CA","USA","39.5137752","-121.556359","06007"
"167944","","HighSchool","2004","99","Brett Gallimore","Park Hill South","Michigan","OT","77","290","4","0.9616","Riverside","MO","USA","39.1775032","-94.6130121","29165"
"167945","","HighSchool","2004","100","Nick Patton","Winfield","Kansas State","DUAL","75","205","4","0.9614","Winfield","KS","USA","37.2397486","-96.9955919","20035"
"167946","162404","HighSchool","2004","101","Myron Hardy","Round Rock","Texas","WR","75","195","4","0.9606","Round Rock","TX","USA","30.508235","-97.6788934","48491"
"167947","","HighSchool","2004","102","Dwayne Hendricks","Millville","Miami","DT","76","255","4","0.9529","Millville","NJ","USA","39.4020593","-75.0393368","34011"
"167948","","HighSchool","2004","103","Phillip Mbakogu","Hayward","California","SDE","75","260","4","0.9527","Hayward","CA","USA","37.6688205","-122.0807964","06001"
"167949","","HighSchool","2004","104","Andre Brown","J.H. Rose","NC State","RB","73","210","4","0.9507","Greenville","NC","USA","35.612661","-77.3663538","37147"
"167950","","HighSchool","2004","105","Will Johnson","Lake Orion Baptist School","Michigan","DT","76","280","4","0.9479","Lake Orion","MI","USA","42.7844752","-83.2396612","26125"
"167951","","HighSchool","2004","106","Robert Ayers","Marlboro County","Tennessee","ILB","75","230","4","0.9471","Bennettsville","SC","USA","34.6173803","-79.6847814","45069"
"167952","","HighSchool","2004","107","Alex Fletcher","St. Anthony's","Stanford","OC","76","275","4","0.9462","Long Island City","NY","USA","40.7415095","-73.9569751","36081"
"167953","","HighSchool","2004","108","Nick Walker","Hartselle","Alabama","WR","73","190","4","0.9444","Hartselle","AL","USA","34.4443243","-86.934547","01103"
"167954","","HighSchool","2004","108","Alonzo Bryant","Peach County","Georgia","ATH","74","185","4","0.9444","Fort Valley","GA","USA","32.5537585","-83.8874084","13225"
"167955","","HighSchool","2004","110","Kirby Freeman","Brownwood","Miami","DUAL","75","190","4","0.944","Brownwood","TX","USA","31.7070026","-98.9831022","48049"
"167956","162029","HighSchool","2004","111","Marcus Monk","East Poinsett Co.","Arkansas","WR","78","205","4","0.9434","Lepanto","AR","USA","35.613327","-90.3308612","05111"
"167957","","HighSchool","2004","112","Kenny O'Neal","Skyline","Florida State","WR","72","195","4","0.9408","Oakland","CA","USA","37.8044557","-122.2713563","06001"
"167958","","HighSchool","2004","113","Calais Campbell","North","Miami","SDE","79","230","4","0.9402","Denver","CO","USA","39.7392364","-104.9848623","08031"
"167959","","HighSchool","2004","114","Derrick Jones","Long Beach Poly","USC","WR","72","170","4","0.939","Long Beach","CA","USA","33.7690164","-118.1916048","06037"
"167960","160889","HighSchool","2004","115","Adrian Arrington","George Washington","Michigan","WR","76","180","4","0.9369","Cedar Rapids","IA","USA","41.9758872","-91.6704053","19113"
"167961","","HighSchool","2004","116","George  Bell","Jack Britt","Virginia Tech","RB","71","225","4","0.9365","Fayetteville","NC","USA","35.0525759","-78.878292","37051"
"167962","","HighSchool","2004","117","Lendy Holmes","South Oak Cliff","Oklahoma","WR","74","180","4","0.9357","Dallas","TX","USA","32.7762719","-96.7968559","48113"
"167963","156332","HighSchool","2004","118","Bobby Tatum","Dunbar","Texas","S","73","195","4","0.9347","Fort Worth","TX","USA","32.753177","-97.3327459","48439"
"167964","161982","HighSchool","2004","119","Peyton Hillis","Conway","Arkansas","FB","74","245","4","0.9343","Conway","AR","USA","35.0886963","-92.4421011","05045"
"167965","156862","HighSchool","2004","120","Rory Nicol","Beaver Area","Ohio State","TE","77","245","4","0.9339","Beaver","PA","USA","40.6953896","-80.3047887","42007"
"167966","","HighSchool","2004","121","Willie Glasper","De La Salle","Oregon","CB","72","185","4","0.9325","Concord","CA","USA","37.9768525","-122.0335624","06013"
"167967","","HighSchool","2004","122","Jordan Shipley","Burnet","Texas","WR","72","180","4","0.9323","Burnet","TX","USA","30.75726","-98.2269358","48053"
"167970","","HighSchool","2004","123","Anthony Vernaglia","Orange Lutheran","Notre Dame","ATH","76","218","4","0.9222","Orange","CA","USA","33.7872568","-117.8503088","06059"
"167979","","HighSchool","2004","123","Graham Harrell","Ennis","Texas Tech","PRO","74","183","4","0.9222","Ennis","TX","USA","32.3293111","-96.6252679","48139"
"167977","","HighSchool","2004","123","A.Q. Shipley","Cornell","Penn State","DT","74","275","4","0.9222","Coraopolis","PA","USA","40.5184013","-80.1667247","42003"
"167976","","HighSchool","2004","123","David Faaeteete","North Medford","Oregon","DT","74","280","4","0.9222","Medford","OR","USA","42.3264181","-122.8718605","41029"
"167975","","HighSchool","2004","123","Randy Estes","Los Alamitos","Washington State","S","74","200","4","0.9222","Los Alamitos","CA","USA","33.8038865","-118.0772433","06059"
"167974","","HighSchool","2004","123","Brandon Robinson","Breck School","Boston College","CB","72","185","4","0.9222","Minneapolis","MN","USA","44.9772995","-93.2654692","27053"
"167973","","HighSchool","2004","123","Dannell Ellerbe","Richmond","Georgia","OLB","74","185","4","0.9222","Rockingham","NC","USA","34.9393201","-79.7739457","37153"
"167972","","HighSchool","2004","123","Luke Sanders","West Monroe","LSU","ILB","76","228","4","0.9222","West Monroe","LA","USA","32.5184775","-92.1476353","22073"
"167971","","HighSchool","2004","123","Chilo Rachal","Compton Dominguez","USC","OT","78","310","4","0.9222","Compton","CA","USA","33.894927","-118.226624","06037"
"167969","","HighSchool","2004","123","Robbie Reid","North Shore","Oklahoma State","DUAL","75","224","4","0.9222","Houston","TX","USA","29.7589382","-95.3676974","48201"
"167968","","HighSchool","2004","123","Stephen McGee","Burnet","Texas A&M","PRO","75","205","4","0.9222","Burnet","TX","USA","30.75726","-98.2269358","48053"
"167984","","HighSchool","2004","123","Michael Massey","St. Ignatius","Michigan","SDE","77","225","4","0.9222","Cleveland","OH","USA","41.5051613","-81.6934446","39035"
"167982","","HighSchool","2004","123","Carlos Feliciano","Elizabeth","Maryland","OT","78","285","4","0.9222","Elizabeth","NJ","USA","40.6639916","-74.2107006","34039"
"167978","156725","HighSchool","2004","123","Eddie Royal","Herndon","Virginia Tech","WR","70","170","4","0.9222","Herndon","VA","USA","38.9695316","-77.3859479","51059"
"167987","155435","HighSchool","2004","123","Nathan Jones","Texas High","Texas","WR","73","180","4","0.9222","Texarkana","TX","USA","33.44628645","-94.07638067493534","48037"
"167981","","HighSchool","2004","123","Greg Hinds","Southaven","Memphis","ATH","74","220","4","0.9222","Southaven","MS","USA","34.9889818","-90.0125913","28033"
"167980","","HighSchool","2004","123","Mike McIntosh","First Coast","Florida","WR","74","180","4","0.9222","Jacksonville","FL","USA","30.3321838","-81.655651","12031"
"167983","","HighSchool","2004","123","Nathan Peterson","Union","Oklahoma State","WDE","75","240","4","0.9222","Tulsa","OK","USA","36.1556805","-95.9929113","40143"
"167988","","HighSchool","2004","123","Albert Dukes","Glades Day School","Ohio State","WR","74","185","4","0.9222","Belle Glade","FL","USA","26.6845104","-80.6675577","12099"
"167986","","HighSchool","2004","123","Tony Bell","Thompson","Auburn","S","74","210","4","0.9222","Alabaster","AL","USA","33.2442813","-86.8163773","01117"
"167985","116589","HighSchool","2004","123","Worrell Williams","Grant Union","California","OLB","72","240","4","0.9222","Sacramento","CA","USA","38.5815719","-121.4943996","06067"
"167989","","HighSchool","2004","144","Ja'Kouri Williams","Plaquemine","Tennessee","RB","71","180","4","0.9159","Plaquemine","LA","USA","30.2890833","-91.2342744","22047"
"167990","","HighSchool","2004","145","Derrick McPhearson","DeMatha Catholic","Florida","WR","71","180","4","0.9157","Hyattsville","MD","USA","38.9529442","-76.9408647","24033"
"167991","","HighSchool","2004","146","Fred Barnett","Arkansas","Arkansas","DT","73","285","4","0.9097","Texarkana","AR","USA","33.4254684","-94.0430977","48037"
"168024","","HighSchool","2004","147","Terrell Jackson","Centennial","","APB","69","190","4","0.9","Corona","CA","USA","33.8752945","-117.5664449","06065"
"168025","","HighSchool","2004","147","Hugh D'Imperio","Washington Township","","ILB","76","229","4","0.9","Sewell","NJ","USA","39.7665029","-75.1443435","34015"
"168026","","HighSchool","2004","147","Rodney Gallon","Lincoln","","OLB","72","210","4","0.9","Tallahassee","FL","USA","30.4380832","-84.2809332","12073"
"168027","","HighSchool","2004","147","Sekeli Faaeteete","San Leandro","","ATH","73","212","4","0.9","San Leandro","CA","USA","37.7249296","-122.1560768","06001"
"168028","","HighSchool","2004","147","Max Martin","Bob Jones","","RB","74","210","4","0.9","Madison","AL","USA","34.6928726","-86.7511427","01089"
"168029","","HighSchool","2004","147","Jerome Boyd","Dorsey","","S","74","195","4","0.9","Los Angeles","CA","USA","34.0536909","-118.2427666","06037"
"168004","","HighSchool","2004","147","Sean Glennon","Centreville","","PRO","75","185","4","0.9","Clifton","VA","USA","38.7802204","-77.3864722","51059"
"168003","","HighSchool","2004","147","Emmanuel Dunbar","Deerfield Beach","","SDE","77","265","4","0.9","Deerfield Beach","FL","USA","26.318342","-80.0996306","12011"
"168002","","HighSchool","2004","147","Terrance Kelly","De La Salle","","OLB","73","215","4","0.9","Concord","CA","USA","37.9768525","-122.0335624","06013"
"168001","","HighSchool","2004","147","Chris Graham","Warren Central","","ILB","71","210","4","0.9","Indianapolis","IN","USA","39.7683331","-86.1583502","18097"
"168000","","HighSchool","2004","147","Dumaka Atkins","Booker","","OG","76","280","4","0.9","Sarasota","FL","USA","27.3364347","-82.5306527","12115"
"167999","","HighSchool","2004","147","Morgan Trent","St. Mary's","","WR","73","180","4","0.9","Orchard Lake","MI","USA","42.5869558","-83.36895696372882","26125"
"167998","","HighSchool","2004","147","Dwayne Holmes","Ford","","ATH","72","244","4","0.9","Detroit","MI","USA","42.3315509","-83.0466403","26163"
"167997","","HighSchool","2004","147","Allen Smith","Corona del Sol","","OT","77","325","4","0.9","Tempe","AZ","USA","33.4255056","-111.9400125","04013"
"167996","","HighSchool","2004","147","Corey Lambert","Greenville","Clemson","OT","79","310","4","0.9","Greenville","SC","USA","34.851354","-82.3984882","45045"
"167995","","HighSchool","2004","147","Van Alexander","Rock Bridge","","OLB","73","210","4","0.9","Columbia","MO","USA","38.951883","-92.3337366","29019"
"168030","","HighSchool","2004","147","Jacky Claude","Edison","","OG","76","290","4","0.9","Miami","FL","USA","25.7742658","-80.1936589","12086"
"167994","","HighSchool","2004","147","Trimane Goddard","Roanoke","","CB","71","180","4","0.9","Robersonville","NC","USA","35.8251589","-77.2491298","37117"
"167993","","HighSchool","2004","147","Vernon Smith","Dillard","","ILB","71","234","4","0.9","Fort Lauderdale","FL","USA","26.1223084","-80.1433786","12011"
"167992","","HighSchool","2004","147","Craig Steltz","Archbishop Rummel","","S","74","200","4","0.9","Metairie","LA","USA","30.001852","-90.1767149159888","22051"
"168047","","HighSchool","2004","147","Michael Grant","Stephenson","","ATH","72","175","4","0.9","Stone Mountain","GA","USA","33.8080924","-84.1706273","13089"
"168049","","HighSchool","2004","147","Blake Barnes","Baldwyn","","PRO","75","218","4","0.9","Baldwyn","MS","USA","34.509544","-88.6353313","28117"
"168050","","HighSchool","2004","147","Demiko Goodman","Newnan","","WR","76","185","4","0.9","Newnan","GA","USA","33.3806716","-84.7996573","13077"
"168051","","HighSchool","2004","147","Michael Brown","Westlake","","DT","77","270","4","0.9","Atlanta","GA","USA","33.7490987","-84.3901849","13121"
"168052","","HighSchool","2004","147","Andy Roof","East Valley","","OG","76","305","4","0.9","Spokane","WA","USA","47.6579425","-117.4212265","53063"
"168053","","HighSchool","2004","147","D.J. Davis","Dunbar","","ATH","71","182","4","0.9","Fort Worth","TX","USA","32.753177","-97.3327459","48439"
"168054","","HighSchool","2004","147","Vernon Gholston","Cass Technical","","WDE","75","238","4","0.9","Detroit","MI","USA","42.3315509","-83.0466403","26163"
"168055","","HighSchool","2004","147","Cedric Logan","Fayetteville","","WR","71","160","4","0.9","Fayetteville","AR","USA","36.0625843","-94.1574328","05143"
"168056","","HighSchool","2004","147","Sam Carson","Downers Grove South","","ILB","74","225","4","0.9","Downers Grove","IL","USA","41.7938195","-88.010376","17043"
"168057","","HighSchool","2004","147","Devon Lyons","Woodland Hills","","S","74","210","4","0.9","Pittsburgh","PA","USA","40.4416941","-79.9900861","42003"
"168058","","HighSchool","2004","147","Brent Schaeffer","Deerfield Beach","","DUAL","74","190","4","0.9","Visalia","CA","USA","36.3302284","-119.2920585","06107"
"168005","","HighSchool","2004","147","Walter Thomas","Ball","","DT","75","330","4","0.9","Galveston","TX","USA","29.299328","-94.7945882","48167"
"168006","","HighSchool","2004","147","Nathan Longshore","Canyon","","PRO","77","226","4","0.9","Canyon Country","CA","USA","34.4233293","-118.4720281","06037"
"168007","","HighSchool","2004","147","Chris Long","Charlottesville","","SDE","76","262","4","0.9","Charlottesville","VA","USA","38.029306","-78.4766781","51540"
"168008","","HighSchool","2004","147","Keauntea Bankhead","Ballard","","S","72","200","4","0.9","Seattle","WA","USA","47.6038321","-122.3300624","53033"
"168009","","HighSchool","2004","147","SirDarean Adams","Bayshore","","ATH","72","209","4","0.9","Bradenton","FL","USA","27.4989278","-82.5748194","12081"
"168010","","HighSchool","2004","147","Bryan Payton","South Hills","","CB","74","185","4","0.9","Covina","CA","USA","34.1024","-117.85486499999999","06037"
"168011","","HighSchool","2004","147","David Holbert","Brentwood Academy","","FB","73","237","4","0.9","Brentwood","TN","USA","36.0325687","-86.7825235","47187"
"168012","","HighSchool","2004","147","Javier Estopinan","South Miami Senior","","ILB","75","230","4","0.9","Miami","FL","USA","25.7742658","-80.1936589","12086"
"168013","","HighSchool","2004","147","Kent Hicks","Culpeper County","","S","74","190","4","0.9","Culpeper","VA","USA","38.4733823","-77.9961275","51047"
"168014","","HighSchool","2004","147","Xavier Mitchell","Long Beach","","SDE","76","245","4","0.9","Long Beach","MS","USA","30.3504751","-89.1528176","28047"
"168015","","HighSchool","2004","147","Markus Manson","Hillcrest","","RB","72","190","4","0.9","Tuscaloosa","AL","USA","33.2095614","-87.5675258","01125"
"168016","","HighSchool","2004","147","Jimmy Miller","Westlake","","WDE","77","240","4","0.9","Westlake","LA","USA","30.2421496","-93.2507099","48121"
"168017","","HighSchool","2004","147","Rory Johnson","Vicksburg","","OLB","74","215","4","0.9","Vicksburg","MS","USA","32.3528418","-90.8777342","28149"
"168018","","HighSchool","2004","147","Garrett Collins","Columbine","","OG","76","260","4","0.9","Littleton","CO","USA","39.613321","-105.0166498","08005"
"168019","","HighSchool","2004","147","McCollins Umeh","Klein Forest","","WDE","75","240","4","0.9","Houston","TX","USA","29.7589382","-95.3676974","48201"
"168020","","HighSchool","2004","147","Seth Watts","Washington County","","OT","77","290","4","0.9","Sandersville","GA","USA","32.9832812","-82.8116031","13303"
"168021","","HighSchool","2004","147","Jerod Mayo","Kecoughtan","","OLB","74","214","4","0.9","Hampton","VA","USA","37.0520315","-76.2856365","51650"
"168022","","HighSchool","2004","147","Greg Carr","North Marion","","WR","77","200","4","0.9","Citra","FL","USA","29.4119166","-82.1098156","12083"
"168023","","HighSchool","2004","147","Dawayne Grace","Ed White","","CB","73","172","4","0.9","Jacksonville","FL","USA","30.3321838","-81.655651","12031"
"168045","","HighSchool","2004","147","Scott Burley","Woodlawn","","OG","77","328","4","0.9","Gwynn Oak","MD","USA","39.3265775","-76.7181764750945","24005"
"168046","","HighSchool","2004","147","Ryan Baker","Bishop Chatard","","SDE","78","225","4","0.9","Indianapolis","IN","USA","39.7683331","-86.1583502","18097"
"168048","","HighSchool","2004","147","Anthony Jenkins","Ennis","","ATH","72","180","4","0.9","Ennis","TX","USA","32.3293111","-96.6252679","48139"
"168031","","HighSchool","2004","147","Alan Davis","Colleyville Heritage","","WDE","74","237","4","0.9","Colleyville","TX","USA","32.8809603","-97.155012","48439"
"168032","","HighSchool","2004","147","Jerrill Humphrey","Highland Jr.-sr.","","WR","76","210","4","0.9","Lewistown","MO","USA","40.086154","-91.8132225","29111"
"168033","","HighSchool","2004","147","Virdell Larkins","Oakland Technical","","CB","70","177","4","0.9","Oakland","CA","USA","37.8044557","-122.2713563","06001"
"168034","","HighSchool","2004","147","Lovon Ponder","Monsignor Pace","","S","73","190","4","0.9","Opa Locka","FL","USA","25.896733849999997","-80.25949640850294","12086"
"168035","","HighSchool","2004","147","Rocky Hinds","St. Bernard","","DUAL","77","225","4","0.9","Playa Del Rey","CA","USA","33.9550828","-118.4367496","06037"
"168036","","HighSchool","2004","147","Chris Rogers","North Allegheny","","ILB","75","240","4","0.9","Wexford","PA","USA","40.6264561","-80.055891","42003"
"168037","","HighSchool","2004","147","Ramarcus Brown","Tri-Cities","","ATH","71","162","4","0.9","Atlanta","GA","USA","33.7490987","-84.3901849","13121"
"168038","","HighSchool","2004","147","Pat Sims","Dillard","","DT","75","295","4","0.9","Fort Lauderdale","FL","USA","26.1223084","-80.1433786","12011"
"168039","","HighSchool","2004","147","Erik Ainge","Glencoe","","PRO","78","200","4","0.9","Hillsboro","OR","USA","45.5228939","-122.989827","41067"
"168040","","HighSchool","2004","147","Jacob Hucko","Cerritos","","OT","80","285","4","0.9","Cerritos","CA","USA","33.8644291","-118.0539323","06037"
"168041","","HighSchool","2004","147","Tony Pittman","Buchtel","","RB","71","195","4","0.9","Akron","OH","USA","41.083064","-81.518485","39153"
"168042","","HighSchool","2004","147","Dorian Capers","Battery Creek","","DT","78","275","4","0.9","Beaufort","SC","USA","32.4315813","-80.6698286","45013"
"168043","","HighSchool","2004","147","J.J. Justice","Norwich Free Academy","","ATH","73","215","4","0.9","Norwich","CT","USA","41.5242649","-72.0759105","09011"
"168044","","HighSchool","2004","147","Charles Alexander","Breaux Bridge","","SDE","75","266","4","0.9","Breaux Bridge","LA","USA","30.2735323","-91.8992837","22099"
"168059","","HighSchool","2004","226","Mike  Mangold","Merritt Island","","SDE","75","250","4","0.898","Merritt Island","FL","USA","28.5391651","-80.6719958","12009"
"168061","","HighSchool","2004","227","Rodney Van","Long Beach Poly","","CB","73","175","3","0.8889","Long Beach","CA","USA","33.7690164","-118.1916048","06037"
"168060","","HighSchool","2004","227","George Covington","Eleanor Roosevelt","","WDE","75","230","3","0.8889","Greenbelt","MD","USA","39.0099993","-76.9125366","24033"
"168119","","HighSchool","2004","229","Eric Andino","Buffalo Grove","","SDE","76","212","3","0.8778","Buffalo Grove","IL","USA","42.1675825","-87.95564020833334","17097"
"168062","","HighSchool","2004","229","Randy McAdams","Leander","","OT","79","285","3","0.8778","Leander","TX","USA","30.5586046","-97.8444364","48491"
"168063","","HighSchool","2004","229","Pierre Brown","Duncanville","","ATH","74","180","3","0.8778","Duncanville","TX","USA","32.6518004","-96.9083366","48113"
"168064","","HighSchool","2004","229","Tyrone Byrd","Hightower","","OT","78","260","3","0.8778","Missouri City","TX","USA","29.6185669","-95.5377215","48157"
"168065","","HighSchool","2004","229","Gary Green II","Madison","","APB","69","170","3","0.8778","San Antonio","TX","USA","29.4246002","-98.4951405","48029"
"168066","","HighSchool","2004","229","Anthony Heygood","Cardinal O'Hara","","RB","74","210","3","0.8778","Springfield","PA","USA","39.9306677","-75.3201879","42045"
"168067","","HighSchool","2004","229","Desmond Tardy","Warren Central","","ATH","73","180","3","0.8778","Indianapolis","IN","USA","39.7683331","-86.1583502","18097"
"168068","","HighSchool","2004","229","Quentin Chaney","Booker T. Washington","","ATH","78","205","3","0.8778","Tulsa","OK","USA","36.1556805","-95.9929113","40143"
"168069","","HighSchool","2004","229","Martel Thatch","Dudley","","S","74","180","3","0.8778","Greensboro","NC","USA","36.0726355","-79.7919754","37081"
"168070","","HighSchool","2004","229","Corey Davis","Peabody","","ILB","73","302","3","0.8778","Pittsburgh","PA","USA","40.4416941","-79.9900861","42003"
"168071","","HighSchool","2004","229","Printiss Elliot","Tulsa Schl Of Arts & Sciences","","ATH","76","185","3","0.8778","Tulsa","OK","USA","36.1556805","-95.9929113","40143"
"168072","","HighSchool","2004","229","Brouce Mompremier","Edison","","OLB","72","210","3","0.8778","Miami","FL","USA","25.7742658","-80.1936589","12086"
"168073","","HighSchool","2004","229","Octavius Darby","Chaminade-Madonna","","TE","76","225","3","0.8778","Hollywood","FL","USA","26.0112014","-80.1494901","12011"
"168074","","HighSchool","2004","229","Shae Reagan","Idalou","","ATH","75","230","3","0.8778","Idalou","TX","USA","33.662271","-101.684114","48303"
"168075","","HighSchool","2004","229","Dajuan Morgan","Riviera Beach Maritime Academy","","WR","73","190","3","0.8778","Riviera Beach","FL","USA","26.7753405","-80.0580969","12099"
"168076","","HighSchool","2004","229","Brandon Gunn","Central","","RB","70","190","3","0.8778","Omaha","NE","USA","41.2587459","-95.9383758","31055"
"168077","","HighSchool","2004","229","Brad Allen","Venice","","TE","76","240","3","0.8778","Venice","FL","USA","27.0999188","-82.4543597","12115"
"168078","","HighSchool","2004","229","Ron Brace","Burncoat Senior","","OG","76","310","3","0.8778","Worcester","MA","USA","42.2625932","-71.8022934","25027"
"168079","","HighSchool","2004","229","Anthony Miller","J P Stevens","","ATH","72","165","3","0.8778","Edison","NJ","USA","40.5382375","-74.39451734508772","34023"
"168080","","HighSchool","2004","229","Danny Gorrer","Memorial","","CB","71","180","3","0.8778","Port Arthur","TX","USA","29.8988618","-93.9288723","48245"
"168081","","HighSchool","2004","229","Chris Ogbonnaya","Strake Jesuit","","WR","73","200","3","0.8778","Houston","TX","USA","29.7589382","-95.3676974","48201"
"168082","","HighSchool","2004","229","James McClinton","Lakeview Centennial","","DT","72","289","3","0.8778","Garland","TX","USA","32.912624","-96.6388833","48113"
"168083","","HighSchool","2004","229","Shaun Lane","Hubbard","","CB","71","175","3","0.8778","Hubbard","OH","USA","41.156446","-80.569239","39155"
"168084","","HighSchool","2004","229","Nate Lyles","Hubbard","","CB","72","195","3","0.8778","Chicago","IL","USA","41.8755616","-87.6244212","17031"
"168087","","HighSchool","2004","229","Derron Thomas","East St. John","","RB","69","190","3","0.8778","Reserve","LA","USA","30.0538131","-90.5517534","20013"
"168088","","HighSchool","2004","229","Jordan Steffy","Conestoga Valley","","DUAL","74","210","3","0.8778","Lancaster","PA","USA","40.03813","-76.3056686","42071"
"168089","","HighSchool","2004","229","Darius Walker","Buford","","RB","71","197","3","0.8778","Buford","GA","USA","34.1206564","-84.0043513","13135"
"168090","","HighSchool","2004","229","C.J. Barrows","McEachern","","ATH","75","205","3","0.8778","Powder Springs","GA","USA","33.8595492","-84.683824","13067"
"168091","","HighSchool","2004","229","Andrew Pettes","Moon Valley","","TE","77","245","3","0.8778","Phoenix","AZ","USA","33.4484367","-112.0741417","04013"
"168092","","HighSchool","2004","229","Greyson Gunheim","Analy","","ATH","78","240","3","0.8778","Sebastopol","CA","USA","38.3845125","-122.8332501583744","06097"
"168093","","HighSchool","2004","229","Myrio Davis","Hamilton","","WR","75","205","3","0.8778","Chandler","AZ","USA","33.3062223","-111.8413317","04013"
"168094","","HighSchool","2004","229","Sean Lewis","H L Richards","","PRO","79","220","3","0.8778","Oak Lawn","IL","USA","41.7108662","-87.7581081","17031"
"168095","","HighSchool","2004","229","Carl Howard","Matawan Regional","","DT","76","290","3","0.8778","Matawan","NJ","USA","40.41483","-74.2295891","34025"
"168096","","HighSchool","2004","229","Jamar Adams","Butler","","S","74","198","3","0.8778","Matthews","NC","USA","35.1170873","-80.723718","37119"
"168097","","HighSchool","2004","229","Brandon Jackson","Horn Lake","","RB","72","220","3","0.8778","Horn Lake","MS","USA","34.9553719","-90.0348139","28033"
"168098","","HighSchool","2004","229","Christian Varner","Randallstown","","CB","71","170","3","0.8778","Randallstown","MD","USA","39.3676844","-76.7954545","24005"
"168099","","HighSchool","2004","229","Miles Williams","Fitch","","WR","73","199","3","0.8778","Youngstown","OH","USA","41.1035786","-80.6520161","39099"
"168100","","HighSchool","2004","229","Adam Ulatoski","Southlake Carroll","","OT","78","270","3","0.8778","Southlake","TX","USA","32.9412363","-97.1341783","48439"
"168101","","HighSchool","2004","229","Kwame Agyeman","Lake Park","","S","72","195","3","0.8778","Roselle","IL","USA","41.9847505","-88.0797933","17043"
"168102","","HighSchool","2004","229","Charles Stewart","Harrison","","CB","73","188","3","0.8778","Farmington","MI","USA","42.4644795","-83.3763219","27037"
"168103","","HighSchool","2004","229","Walter Hudson","Wilmer-Hutchins","","CB","72","184","3","0.8778","Dallas","TX","USA","32.7762719","-96.7968559","48113"
"168104","","HighSchool","2004","229","Nate Kimbrough","Santa Fe","","WR","75","175","3","0.8778","Santa Fe Springs","CA","USA","33.9480787","-118.0691499","06037"
"168105","","HighSchool","2004","229","Justin Hoskins","Creston","","RB","71","190","3","0.8778","Grand Rapids","MI","USA","42.9632405","-85.6678639","26081"
"168106","","HighSchool","2004","229","Bradis McGriff","Vallejo","","OT","78","303","3","0.8778","Vallejo","CA","USA","38.1040864","-122.2566367","06095"
"168107","","HighSchool","2004","229","Uriah Marshall","Brophy College Preparatory","","CB","72","175","3","0.8778","Phoenix","AZ","USA","33.4484367","-112.0741417","04013"
"168108","","HighSchool","2004","229","Maurice Crum","Tampa Bay Tech","","OLB","73","215","3","0.8778","Tampa","FL","USA","27.9477595","-82.458444","12057"
"168109","","HighSchool","2004","229","Shannon Tevaga","La Mirada","","OG","75","300","3","0.8778","La Mirada","CA","USA","33.9060971","-118.0107092","06037"
"168110","","HighSchool","2004","229","Jamario Thomas","Spring Hill","","RB","71","190","3","0.8778","Longview","TX","USA","32.5007031","-94.74049","48183"
"168111","","HighSchool","2004","229","Mike Hart","Onondaga","","APB","70","175","3","0.8778","Nedrow","NY","USA","42.9771605","-76.14177812436992","36067"
"168112","","HighSchool","2004","229","Jeremy Perry","Kahuku","","OG","75","295","3","0.8778","Kahuku","HI","USA","21.679124","-157.94838","15003"
"168113","","HighSchool","2004","229","Parrish Fisher","Pearce","","RB","69","204","3","0.8778","Richardson","TX","USA","32.9481789","-96.7297206","48113"
"168114","","HighSchool","2004","229","Jackie Bates","De La Salle","","ATH","70","185","3","0.8778","Concord","CA","USA","37.9768525","-122.0335624","06013"
"168115","","HighSchool","2004","229","Jeray Chatham","Westfield","","OG","77","270","3","0.8778","Houston","TX","USA","29.7589382","-95.3676974","48201"
"168116","","HighSchool","2004","229","Terrail Lambert","St. Bonaventure","","S","72","185","3","0.8778","Ventura","CA","USA","34.3435092","-119.29560423163717","06111"
"168117","","HighSchool","2004","229","Michael Keenan","Oak Park","","OLB","74","220","3","0.8778","Kansas City","MO","USA","39.100105","-94.5781416","29095"
"168118","","HighSchool","2004","229","Cornelius Lewis","Raines","","OG","76","305","3","0.8778","Jacksonville","FL","USA","30.3321838","-81.655651","12031"
"168120","","HighSchool","2004","229","Kenny Ingram","Edgewater","","S","78","200","3","0.8778","Orlando","FL","USA","28.5421109","-81.3790304","12095"
"168121","","HighSchool","2004","229","Tyrell Sales","Butler Area","","SDE","76","235","3","0.8778","Butler","PA","USA","40.8610205","-79.8952251","42019"
"168122","","HighSchool","2004","229","Lance Louis","L.B. Landry","","TE","75","248","3","0.8778","New Orleans","LA","USA","29.9499323","-90.0701156","22071"
"168123","","HighSchool","2004","229","Casey Bulyca","Woodinville","","OG","79","290","3","0.8778","Woodinville","WA","USA","47.7545827","-122.1588902","53033"
"168124","","HighSchool","2004","229","Leo Talavou","Fountain Valley","","OG","76","320","3","0.8778","Fountain Valley","CA","USA","33.7038145","-117.9627349","06059"
"168125","","HighSchool","2004","229","Craig McGovern","Hun School","","TE","75","231","3","0.8778","Princeton","NJ","USA","40.3492744","-74.6592958","34021"
"168126","","HighSchool","2004","229","Alex Barrow","Dublin Coffman","","DT","76","260","3","0.8778","Dublin","OH","USA","40.0992294","-83.1140771","39049"
"168127","","HighSchool","2004","229","Brandon Underwood","Hamilton","","CB","73","170","3","0.8778","Hamilton","OH","USA","39.3995067","-84.5613428","39017"
"168128","","HighSchool","2004","229","Erik Haw","Independence","","RB","71","205","3","0.8778","Columbus","OH","USA","39.9622601","-83.0007065","39049"
"168129","","HighSchool","2004","229","Sirjo Welch","Beechcroft","","S","71","180","3","0.8778","Columbus","OH","USA","39.9622601","-83.0007065","39049"
"168130","","HighSchool","2004","229","Nader Abdallah","Archbishop Rummel","","DT","77","290","3","0.8778","Metairie","LA","USA","30.001852","-90.1767149159888","22051"
"168131","","HighSchool","2004","229","Corey Kizer","Melrose","","WR","75","190","3","0.8778","Memphis","TN","USA","35.1490215","-90.0516285","47157"
"168132","","HighSchool","2004","229","Tyson Jackson","West St. John","","SDE","78","265","3","0.8778","Edgard","LA","USA","30.0432578","-90.5600869","22095"
"168133","","HighSchool","2004","229","Brett Helms","Stuttgart","","OG","75","300","3","0.8778","Stuttgart","AR","USA","34.5003748","-91.5526281","05001"
"168134","","HighSchool","2004","229","Kevin Hamilton","Prattville","","DT","76","260","3","0.8778","Prattville","AL","USA","32.4640245","-86.4596966","01001"
"168135","","HighSchool","2004","229","Jeremy Jones","West Jefferson","","TE","77","285","3","0.8778","Harvey","LA","USA","29.9035387","-90.0772944","17031"
"168136","","HighSchool","2004","229","Marcus Carter","Fort Payne","","S","72","190","3","0.8778","Fort Payne","AL","USA","34.4442547","-85.7196893","01049"
"168137","","HighSchool","2004","229","Kenneth Harris","Cherryville Senior","","WR","76","198","3","0.8778","Cherryville","NC","USA","35.3787442","-81.3789739","37071"
"168138","","HighSchool","2004","229","Brandon Daniel","Blanche Ely","","SDE","76","250","3","0.8778","Pompano Beach","FL","USA","26.2378597","-80.1247667","12011"
"168139","","HighSchool","2004","229","Jason Watkins","Lake Gibson","","OT","81","300","3","0.8778","Lakeland","FL","USA","28.0394654","-81.9498042","12105"
"168140","","HighSchool","2004","229","Darrell Jackson","Webster Groves","","DUAL","74","215","3","0.8778","St. Louis","MO","USA","38.6268039","-90.1994097","29510"
"168141","","HighSchool","2004","229","Marquise Liverpool","Don Bosco Prep","","CB","61","180","3","0.8778","Ramsey","NJ","USA","41.0573188","-74.1409771","34003"
"168142","","HighSchool","2004","229","Ernest Mitchell, Jr.","Newnan","","DT","73","280","3","0.8778","Newnan","GA","USA","33.3806716","-84.7996573","13077"
"168143","","HighSchool","2004","229","B.J. Stabler","Clarke County","","OG","76","293","3","0.8778","Grove Hill","AL","USA","31.7087681","-87.7772218","01025"
"168144","","HighSchool","2004","229","Simeon Castille","Briarwood Christian","","S","73","185","3","0.8778","Birmingham","AL","USA","33.5206824","-86.8024326","01073"
"168145","","HighSchool","2004","229","Trent Davidson","T.R. Miller","","TE","76","258","3","0.8778","Brewton","AL","USA","31.1051779","-87.0721918","01053"
"168086","167442","HighSchool","2004","229","Matt Hahn","St. Anthony's","Penn State","FB","73","210","3","0.8778","Long Island City","NY","USA","40.7415095","-73.9569751","36081"
"168085","160477","HighSchool","2004","229","Marcus Randle El","Thornton Township","Wisconsin","ATH","70","175","3","0.8778","Harvey","IL","USA","41.6100344","-87.6467132","17031"
"168146","","HighSchool","2004","322","Jonathan Hefney","Rock Hill","","CB","70","172","3","0.8667","Rock Hill","SC","USA","34.9248667","-81.0250784","45091"
"168147","","HighSchool","2004","322","Jaimie Thomas","Bishop McDevitt","","OG","76","320","3","0.8667","Harrisburg","PA","USA","40.2663107","-76.8861122","42043"
"168148","","HighSchool","2004","322","Tremaine Johnson","Galena Park","","SDE","74","255","3","0.8667","Galena Park","TX","USA","29.7335616","-95.2302123","48201"
"168149","","HighSchool","2004","322","John Peyton","Pasco","","WR","77","195","3","0.8667","Dade City","FL","USA","28.3647248","-82.1959178","12101"
"168150","","HighSchool","2004","326","Brandon Lang","Tucker","","SDE","77","225","3","0.8556","Tucker","GA","USA","33.8532701","-84.2200729","13089"
"168151","","HighSchool","2004","326","Kellen Freeman-Davis","Adrian","","TE","78","229","3","0.8556","Adrian","MI","USA","41.8975152","-84.0373054","26091"
"168152","","HighSchool","2004","326","Craig Bokor","Hopewell","","DT","75","270","3","0.8556","Aliquippa","PA","USA","40.6102386","-80.267726","42007"
"168174","","HighSchool","2004","329","Steve Gandy","Wayne County","","OLB","72","190","3","0.8556","Waynesboro","MS","USA","31.6747364","-88.645955","28153"
"168175","","HighSchool","2004","329","Dane Guthrie","Killian","","TE","75","240","3","0.8556","Miami","FL","USA","25.7742658","-80.1936589","12086"
"168176","","HighSchool","2004","329","Tristan Davis","Tri-Cities","","ATH","71","188","3","0.8556","Atlanta","GA","USA","33.7490987","-84.3901849","13121"
"168177","","HighSchool","2004","329","Adam Gunn","Kiski Area","","S","73","200","3","0.8556","Vandergrift","PA","USA","40.6028434","-79.5647667","42129"
"168178","","HighSchool","2004","329","Gary Rogers","Kamiak","","PRO","77","215","3","0.8556","Mukilteo","WA","USA","47.9474034","-122.3036992","53061"
"168179","","HighSchool","2004","329","Darrell Robertson","Jonesboro","","WDE","77","215","3","0.8556","Jonesboro","GA","USA","33.5215013","-84.3538128","13063"
"168180","","HighSchool","2004","329","Anthony Reddick","St. Thomas Aquinas","","S","73","190","3","0.8556","Fort Lauderdale","FL","USA","26.1223084","-80.1433786","12011"
"168181","","HighSchool","2004","329","Torri Williams","Leander","","WR","73","175","3","0.8556","Leander","TX","USA","30.5586046","-97.8444364","48491"
"168182","","HighSchool","2004","329","Jordan Grimes","Plainfield","","OG","75","290","3","0.8556","Plainfield","IN","USA","39.7042123","-86.3994387","18063"
"168183","","HighSchool","2004","329","Mike Rivera","Shawnee Mission Northwest","","ILB","75","230","3","0.8556","Shawnee","KS","USA","39.0416718","-94.7202376","20091"
"168184","","HighSchool","2004","329","Josh Gaines","Northrop","","SDE","76","245","3","0.8556","Fort Wayne","IN","USA","41.0799898","-85.1386015","18003"
"168185","","HighSchool","2004","329","Tyease Thompson","George W. Jenkins Senior","","RB","70","180","3","0.8556","Lakeland","FL","USA","28.0394654","-81.9498042","12105"
"168186","","HighSchool","2004","329","Ryan Graves","Venice","","WR","73","170","3","0.8556","Los Angeles","CA","USA","34.0536909","-118.2427666","06037"
"168187","","HighSchool","2004","329","Greg Coleman","Iowa City West","","RB","72","212","3","0.8556","Iowa City","IA","USA","41.6612561","-91.5299106","19103"
"168188","","HighSchool","2004","329","Chase Bullock","Northern","","OLB","75","215","3","0.8556","Durham","NC","USA","35.996653","-78.9018053","37063"
"168189","","HighSchool","2004","329","Darius Reynaud","Hahnville","","WR","70","185","3","0.8556","Boutte","LA","USA","29.8951685","-90.38943007298417","22089"
"168190","","HighSchool","2004","329","Dan Lawlor","Cumberland Valley","","FB","75","235","3","0.8556","Mechanicsburg","PA","USA","40.2101972","-77.0047276","42041"
"168191","","HighSchool","2004","329","Darryl Richard","Destrehan","","DT","76","285","3","0.8556","Destrehan","LA","USA","29.960933","-90.3705407077716","22089"
"168192","","HighSchool","2004","329","Vincent Chase","Irving","","TE","77","243","3","0.8556","Irving","TX","USA","32.8295183","-96.9442177","48113"
"168193","","HighSchool","2004","329","Chris Bowers","Evangel Christian Academy","","WDE","75","240","3","0.8556","Shreveport","LA","USA","32.5221828","-93.7651944","22017"
"168194","","HighSchool","2004","329","Gerald Cadogan","Portsmouth","","OT","79","308","3","0.8556","Portsmouth","OH","USA","38.7316375","-82.9965441","39145"
"168195","","HighSchool","2004","329","Chenry Lewis","Paterson Catholic","","OLB","75","205","3","0.8556","Paterson","NJ","USA","40.9167654","-74.171811","34031"
"168196","","HighSchool","2004","329","Fred Strong","Austin","","WR","75","188","3","0.8556","Austin","TX","USA","30.2711286","-97.7436995","48453"
"168197","","HighSchool","2004","329","Chris Gorham","Pottsgrove","","CB","72","175","3","0.8556","Pottstown","PA","USA","40.2452976","-75.6496424","42091"
"168198","","HighSchool","2004","329","Jeremy Payton","South Hills","","CB","74","180","3","0.8556","Covina","CA","USA","34.1024","-117.85486499999999","06037"
"168199","","HighSchool","2004","329","Mark Bonds","Warren Central","","RB","71","205","3","0.8556","Indianapolis","IN","USA","39.7683331","-86.1583502","18097"
"168200","","HighSchool","2004","329","J.T. Diederichs","Ballard","","RB","74","215","3","0.8556","Seattle","WA","USA","47.6038321","-122.3300624","53033"
"168201","","HighSchool","2004","329","Brian Abraham","Rancho Cucamonga","","OT","78","260","3","0.8556","Rancho Cucamonga","CA","USA","34.1033192","-117.5751735","06071"
"168202","","HighSchool","2004","329","John Kadous","Salpointe Catholic","","OG","79","310","3","0.8556","Tucson","AZ","USA","32.2228765","-110.9748477","04019"
"168203","","HighSchool","2004","329","Isaac Price","Southfield","","WR","75","195","3","0.8556","Southfield","MI","USA","42.4733689","-83.2218731","26125"
"168204","","HighSchool","2004","329","Travis Robinson","Hillcrest","","CB","70","180","3","0.8556","Tuscaloosa","AL","USA","33.2095614","-87.5675258","01125"
"168205","","HighSchool","2004","329","D'Nerian Wrighter","Marlin","","S","73","205","3","0.8556","Marlin","TX","USA","31.3076024","-96.8923535","48145"
"168206","","HighSchool","2004","329","Dennis Marsh","Northeast Guilford","","DT","76","266","3","0.8556","McLeansville","NC","USA","36.1073575","-79.6586383","37081"
"168207","","HighSchool","2004","329","Dane Randolph","Wilde Lake","","SDE","77","245","3","0.8556","Columbia","MD","USA","39.193919550000004","-76.87477229012376","24027"
"168208","","HighSchool","2004","329","Frank Morton","Southwest DeKalb","","DT","76","280","3","0.8556","Decatur","GA","USA","33.7737582","-84.296069","13089"
"168209","","HighSchool","2004","329","Chauncey Incarnato","Dover","","OT","78","280","3","0.8556","Dover","OH","USA","40.5213381","-81.4741475","39157"
"168210","","HighSchool","2004","329","Lawrence Miles","La Quinta","","SDE","75","260","3","0.8556","La Quinta","CA","USA","33.66365425","-116.27770251129584","06065"
"168211","","HighSchool","2004","329","Andrew Schantz","Canyon","San Diego State","ILB","73","215","3","0.8556","Canyon Country","CA","USA","34.4233293","-118.4720281","06037"
"168213","","HighSchool","2004","329","Trenton Tuiasosopo","Mariner","","WDE","75","220","3","0.8556","Everett","WA","USA","47.9673056","-122.2013998","53061"
"168214","","HighSchool","2004","329","Jordan Dizon","Waimea","","FB","73","210","3","0.8556","Waimea","HI","USA","20.020452","-155.66391","15001"
"168215","","HighSchool","2004","329","Matt Raysor","Bamberg-Ehrhardt","","DT","77","275","3","0.8556","Bamberg","SC","USA","33.2971012","-81.0348202","45009"
"168216","","HighSchool","2004","329","Mit Cole","Picayune Memorial","","TE","76","245","3","0.8556","Picayune","MS","USA","30.5254692","-89.6795084","28109"
"168217","","HighSchool","2004","329","Leland Jones","Douglass","","OLB","74","215","3","0.8556","Atlanta","GA","USA","33.7490987","-84.3901849","13121"
"168218","","HighSchool","2004","329","Andrew Pearman","Providence Day School","","APB","69","163","3","0.8556","Charlotte","NC","USA","35.2272","-80.843083","37119"
"168219","","HighSchool","2004","329","Ryan Purvis","Lancaster Catholic","","TE","77","235","3","0.8556","Lancaster","PA","USA","40.03813","-76.3056686","42071"
"168220","","HighSchool","2004","329","Tate Casey","Longview","","TE","79","225","3","0.8556","Longview","TX","USA","32.5007031","-94.74049","48183"
"168221","","HighSchool","2004","329","Marlin Simmons","Lynwood","","OLB","73","210","3","0.8556","Lynwood","CA","USA","33.924831","-118.2024154","06037"
"168222","","HighSchool","2004","329","Bryon Bishop","Union","","DT","76","285","3","0.8556","Union","SC","USA","34.7151939","-81.6237462","45087"
"168223","","HighSchool","2004","329","Sinclair Cannon","Greer","","ATH","75","190","3","0.8556","Greer","SC","USA","34.9381361","-82.2272119","45045"
"168224","","HighSchool","2004","329","Corey Mills","Christian Brothers","","DT","77","260","3","0.8556","Memphis","TN","USA","35.1490215","-90.0516285","47157"
"168225","","HighSchool","2004","329","Terrell Jackson","Puckett Attendance Center","","CB","71","185","3","0.8556","Pulaski","MS","USA","32.2720914","-89.6022933","28123"
"168226","","HighSchool","2004","329","Darcel McBath","Gainesville","","CB","74","180","3","0.8556","Gainesville","TX","USA","33.6259414","-97.1333453","48097"
"168227","","HighSchool","2004","329","Lance Brandenburgh","St. Thomas Aquinas","","ILB","73","215","3","0.8556","Overland Park","KS","USA","38.9742502","-94.6851702","20091"
"168228","","HighSchool","2004","329","Kerry Franks","West Orange-Stark","","ATH","70","185","3","0.8556","Orange","TX","USA","30.0929879","-93.7365549","48361"
"168229","","HighSchool","2004","329","C.J. Bacher","Jesuit","","DUAL","74","180","3","0.8556","Carmichael","CA","USA","38.62709845","-121.32224222755409","06067"
"168230","","HighSchool","2004","329","Ryan Palmer","Bowie","","CB","69","165","3","0.8556","Arlington","TX","USA","32.701938999999996","-97.10562379033699","48439"
"168231","","HighSchool","2004","329","Will Price","Western","","ILB","75","240","3","0.8556","Anaheim","CA","USA","33.8347516","-117.911732","06059"
"168232","","HighSchool","2004","329","Chester Adams","Luverne","","OT","78","325","3","0.8556","Luverne","AL","USA","31.7165455","-86.2638492","01041"
"168233","","HighSchool","2004","329","Roderick Johnson","Ball","","OLB","74","230","3","0.8556","Galveston","TX","USA","29.299328","-94.7945882","48167"
"168234","","HighSchool","2004","329","Ray Jones","Columbus Academy","","RB","73","205","3","0.8556","Columbus","OH","USA","39.9622601","-83.0007065","39049"
"168235","","HighSchool","2004","329","Jerod Arlich","Mahtomedi Senior","","FB","76","240","3","0.8556","Saint Paul","MN","USA","44.9504037","-93.1015026","27123"
"168236","","HighSchool","2004","329","Jerald Watson","Central Catholic","","APB","71","205","3","0.8556","Morgan City","LA","USA","29.6993748","-91.20677","22101"
"168237","","HighSchool","2004","329","Nathan Swift","Hutchinson","","WR","75","190","3","0.8556","Hutchinson","MN","USA","44.8877401","-94.3697057","27085"
"168238","","HighSchool","2004","329","Hilee Taylor","Scotland County","","WDE","75","200","3","0.8556","Laurinburg","NC","USA","34.7740495","-79.4628248","37165"
"168239","","HighSchool","2004","329","Mike Jones","Jesuit","","FB","73","225","3","0.8556","Portland","OR","USA","45.5202471","-122.6741949","41051"
"168240","","HighSchool","2004","329","Fred Bledsoe","Arkansas","","DT","73","283","3","0.8556","Texarkana","AR","USA","33.4254684","-94.0430977","48037"
"168241","","HighSchool","2004","329","Damahco Ousley","Booker T. Washington","","WR","74","200","3","0.8556","Tulsa","OK","USA","36.1556805","-95.9929113","40143"
"168242","","HighSchool","2004","329","Keith Dickerson","La Marque","","WR","74","185","3","0.8556","La Marque","TX","USA","29.3685674","-94.9713134","48167"
"168243","","HighSchool","2004","329","Cedric Wilson","John Carroll","","ATH","73","175","3","0.8556","Fort Pierce","FL","USA","27.4467056","-80.3256056","12111"
"168244","","HighSchool","2004","329","William Bell","Belton","","WDE","76","225","3","0.8556","Belton","TX","USA","31.0560132","-97.464453","48027"
"168245","","HighSchool","2004","329","Otis McDaniel","Taft","","WR","73","175","3","0.8556","San Antonio","TX","USA","29.4246002","-98.4951405","48029"
"168246","","HighSchool","2004","329","Phil Trautwein","Eastern","","OT","79","310","3","0.8556","Voorhees","NJ","USA","39.8512162","-74.9619779","34007"
"168247","","HighSchool","2004","329","Jordan Chambless","Calallen","","DUAL","74","200","3","0.8556","Corpus Christi","TX","USA","27.7477253","-97.4014129","48355"
"168248","","HighSchool","2004","329","Kendrick Lynch","Dorman","","ATH","69","175","3","0.8556","Roebuck","SC","USA","34.8826085","-81.96547100908059","45083"
"168249","","HighSchool","2004","329","Jamar Bryant","Richmond","","ATH","75","193","3","0.8556","Rockingham","NC","USA","34.9393201","-79.7739457","37153"
"168250","","HighSchool","2004","329","Josh Winchell","Southaven","","OG","77","310","3","0.8556","Southaven","MS","USA","34.9889818","-90.0125913","28033"
"168251","","HighSchool","2004","329","Ahmad Bradshaw","Graham","","CB","70","185","3","0.8556","Bluefield","VA","USA","37.2526133","-81.2713436","51185"
"168252","","HighSchool","2004","329","Chris Crane","Trinity","","PRO","77","220","3","0.8556","Camp Hill","PA","USA","40.2398118","-76.9199742","42041"
"168253","","HighSchool","2004","329","Yaniv Barnett","Samuel Clemens","","DT","75","295","3","0.8556","Schertz","TX","USA","29.5641617","-98.2695702","48187"
"168254","","HighSchool","2004","329","Nick Patterson","Hazelwood Central","","ATH","74","200","3","0.8556","Florissant","MO","USA","38.7919683","-90.3227803","29189"
"168255","","HighSchool","2004","329","Steve Rehring","Lakota West","","OT","80","314","3","0.8556","West Chester","OH","USA","39.3303357","-84.408275","39017"
"168159","","HighSchool","2004","329","Samson Taylor","The Woodlands","","ATH","72","212","3","0.8556","The Woodlands","TX","USA","30.1734194","-95.504686","48339"
"168168","","HighSchool","2004","329","Tribble Reese","Mountain Brook","","DUAL","75","190","3","0.8556","Birmingham","AL","USA","33.5206824","-86.8024326","01073"
"168169","","HighSchool","2004","329","Tyler Benoit","Comeaux","","APB","73","194","3","0.8556","Lafayette","LA","USA","30.2240897","-92.0198427","22055"
"168170","","HighSchool","2004","329","Ryan Phipps","Centennial","","OLB","72","210","3","0.8556","Corona","CA","USA","33.8752945","-117.5664449","06065"
"168171","","HighSchool","2004","329","Roger Allison","Lake Orion Community","","FB","74","230","3","0.8556","Lake Orion","MI","USA","42.7844752","-83.2396612","26125"
"168172","","HighSchool","2004","329","Jamil Walker","William Fremd","","RB","74","205","3","0.8556","Palatine","IL","USA","42.1105779","-88.0336888","17031"
"168173","","HighSchool","2004","329","Cole Linehan","Banks","","SDE","76","270","3","0.8556","Banks","OR","USA","45.6185986","-123.1143011","41067"
"168167","","HighSchool","2004","329","Keston Cheathem","Pomona","","WR","75","195","3","0.8556","Pomona","CA","USA","34.0553813","-117.7517496","06037"
"168158","","HighSchool","2004","329","Scott Elliott","Bay City","","PRO","73","172","3","0.8556","Bay City","TX","USA","28.9827565","-95.969402","48321"
"168157","","HighSchool","2004","329","Joseph Doss","Melrose","","APB","69","175","3","0.8556","Memphis","TN","USA","35.1490215","-90.0516285","47157"
"168156","","HighSchool","2004","329","Brian Hoyer","St. Ignatius","","PRO","74","189","3","0.8556","Cleveland","OH","USA","41.5051613","-81.6934446","39035"
"168155","","HighSchool","2004","329","Jeremy Ciulla","Kennesaw Mountain","","OT","78","275","3","0.8556","Acworth","GA","USA","34.0659329","-84.6768796","13067"
"168212","156619","HighSchool","2004","329","Chancellor Young","O'Dea","Duke","WR","74","210","3","0.8556","Seattle","WA","USA","47.6038321","-122.3300624","53033"
"168154","","HighSchool","2004","329","Max Holmes","Parkview Baptist School","","OG","76","286","3","0.8556","Baton Rouge","LA","USA","30.4459596","-91.18738","22033"
"168153","","HighSchool","2004","329","Ryan Walters","Grandview","","DUAL","72","195","3","0.8556","Aurora","CO","USA","39.729432","-104.8319196","08005"
"168166","","HighSchool","2004","329","Jeremy Lomax","Lovejoy","","WDE","77","220","3","0.8556","Hampton","GA","USA","33.3870578","-84.2829784","13151"
"168165","","HighSchool","2004","329","D.T. McDowell","Tucker","","DUAL","73","190","3","0.8556","Tucker","GA","USA","33.8532701","-84.2200729","13089"
"168164","","HighSchool","2004","329","Geoff Schwartz","Palisades","","OT","79","308","3","0.8556","Pacific Palisades","CA","USA","34.0480643","-118.5264706","06037"
"168163","","HighSchool","2004","329","Antone Saulsberry","Bellflower","","OLB","72","200","3","0.8556","Bellflower","CA","USA","33.8825705","-118.1167679","06037"
"168162","","HighSchool","2004","329","Amos Gbunblee","Cy Springs","","TE","76","237","3","0.8556","Cypress","TX","USA","29.9691116","-95.6971686","48201"
"168161","","HighSchool","2004","329","James Houston","Starmount","","CB","75","180","3","0.8556","Boonville","NC","USA","36.2326362","-80.7081209","37197"
"168160","","HighSchool","2004","329","Kraig Urbik","Hudson","","OT","78","280","3","0.8556","Hudson","WI","USA","44.9746896","-92.7568703","55109"
"168257","","HighSchool","2004","452","John Thompson","Crockett","","ILB","74","230","3","0.8444","Detroit","MI","USA","42.3315509","-83.0466403","26163"
"168256","","HighSchool","2004","452","Tory Degrate","Waco","","WR","71","177","3","0.8444","Waco","TX","USA","31.549333","-97.1466695","48309"
"168262","","HighSchool","2004","452","Jeffrey Jack","Madison","","CB","71","180","3","0.8444","Houston","TX","USA","29.7589382","-95.3676974","48201"
"168261","","HighSchool","2004","452","J.D. Quinn","Garland","","OG","75","269","3","0.8444","Garland","TX","USA","32.912624","-96.6388833","48113"
"168260","","HighSchool","2004","452","Antonio Dixon","Booker T. Washington","","DT","76","338","3","0.8444","Miami","FL","USA","25.7742658","-80.1936589","12086"
"168259","","HighSchool","2004","452","Martel Van Zant","Tyler Lee","","S","74","190","3","0.8444","Tyler","TX","USA","32.3512601","-95.3010624","48423"
"168258","","HighSchool","2004","452","Jariette Buie","Armwood","","WDE","75","230","3","0.8444","Seffner","FL","USA","27.998541000000003","-82.27488400114905","12057"
"168263","","HighSchool","2004","459","Kevin Stanley","Victor Valley","","CB","73","175","3","0.8333","Victorville","CA","USA","34.5361067","-117.2911565","06071"
"168351","","HighSchool","2004","460","Ezekiel Knight","Randolph County","","ATH","75","215","3","0.8333","Wedowee","AL","USA","33.3090047","-85.484675","01111"
"168264","","HighSchool","2004","460","Matt Eichelberger","Sehome","","DT","77","325","3","0.8333","Bellingham","WA","USA","48.7544012","-122.4788361","53073"
"168265","","HighSchool","2004","460","Ian Bell","Taft","","APB","70","190","3","0.8333","Woodland Hills","CA","USA","34.1684364","-118.6058382","06037"
"168266","","HighSchool","2004","460","Jean Beljour","Hackensack","","RB","72","200","3","0.8333","Hackensack","NJ","USA","40.8871438","-74.0410865","34003"
"168267","","HighSchool","2004","460","Bobby Hutchinson","Greenville Hills Academy","","OG","77","290","3","0.8333","Greenville","FL","USA","30.4694812","-83.6299688","12079"
"168268","","HighSchool","2004","460","Marc Winston","Parkview Magnet","","TE","79","235","3","0.8333","Little Rock","AR","USA","34.7464809","-92.2895948","05119"
"168269","","HighSchool","2004","460","Kory Sheets","Bloomfield","","APB","71","192","3","0.8333","Bloomfield","CT","USA","41.826488","-72.7300945","09003"
"168270","","HighSchool","2004","460","Terrence Nunn","Cy Falls","","WR","72","185","3","0.8333","Houston","TX","USA","29.7589382","-95.3676974","48201"
"168271","","HighSchool","2004","460","Adam Blankenship","Union","","WDE","76","230","3","0.8333","Tulsa","OK","USA","36.1556805","-95.9929113","40143"
"168272","","HighSchool","2004","460","Cullen Harper","Sequoyah","","PRO","75","200","3","0.8333","Canton","GA","USA","34.2367621","-84.4907621","13057"
"168273","","HighSchool","2004","460","Antoine Caldwell","Percy L. Julian","","OG","75","265","3","0.8333","Montgomery","AL","USA","32.3669656","-86.3006485","01101"
"168274","","HighSchool","2004","460","Jed Collins","Mission Viejo","","ILB","75","240","3","0.8333","Mission Viejo","CA","USA","33.5965685","-117.659405","06059"
"168275","","HighSchool","2004","460","Cameron Mayo","Dalton","","OG","77","258","3","0.8333","Dalton","GA","USA","34.7691867","-84.9702475","13313"
"168276","","HighSchool","2004","460","Albert Ashcraft","Monroe","","RB","75","195","3","0.8333","Monroe","NC","USA","34.9854275","-80.5495112","37179"
"168277","","HighSchool","2004","460","Colin Donovan","Superior","","SDE","79","260","3","0.8333","Superior","MT","USA","47.1915937","-114.8917978","30061"
"168278","","HighSchool","2004","460","Quinn Johnson","West St. John","","ILB","75","225","3","0.8333","Edgard","LA","USA","30.0432578","-90.5600869","22095"
"168279","","HighSchool","2004","460","Nate Johns","Redlands","","ATH","73","180","3","0.8333","Redlands","CA","USA","34.055735","-117.1888961","06071"
"168280","","HighSchool","2004","460","Cedric Peerman","William Campbell","","APB","70","185","3","0.8333","Nathalie","VA","USA","36.9348619","-78.9472347","51083"
"168281","","HighSchool","2004","460","Jon Kirchner","Rockbridge County","","DT","77","260","3","0.8333","Lexington","VA","USA","37.7840208","-79.4428157","51678"
"168282","","HighSchool","2004","460","Marcel Stamps","Brantley","","OLB","74","200","3","0.8333","Brantley","AL","USA","31.5823832","-86.2571786","01041"
"168283","","HighSchool","2004","460","Erick Lobos","Venice","","SDE","75","273","3","0.8333","Los Angeles","CA","USA","34.0536909","-118.2427666","06037"
"168284","","HighSchool","2004","460","Marcus Herford","Cedar Hill","","DUAL","75","205","3","0.8333","Cedar Hill","TX","USA","32.5888072","-96.9553675","48113"
"168285","","HighSchool","2004","460","J.J. Bedle","Keyport","","WR","70","170","3","0.8333","Keyport","NJ","USA","40.4331631","-74.1995883","34025"
"168286","","HighSchool","2004","460","Jeremy Campbell","Lake Highlands","","OLB","74","215","3","0.8333","Dallas","TX","USA","32.7762719","-96.7968559","48113"
"168287","","HighSchool","2004","460","Dominique Barber","Wayzata","","RB","72","187","3","0.8333","Minneapolis","MN","USA","44.9772995","-93.2654692","27053"
"168288","","HighSchool","2004","460","Korey Sutton","Texas High","","APB","70","195","3","0.8333","Texarkana","TX","USA","33.44628645","-94.07638067493534","48037"
"168289","","HighSchool","2004","460","Cameron Schacht","Coppell","","OT","77","260","3","0.8333","Coppell","TX","USA","32.9552598","-97.0155703","48113"
"168290","","HighSchool","2004","460","Dontey Brown","McKeesport","","ILB","75","245","3","0.8333","McKeesport","PA","USA","40.3478472","-79.864215","42003"
"168291","","HighSchool","2004","460","Danny Muy","Lincoln","","OG","76","270","3","0.8333","Tallahassee","FL","USA","30.4380832","-84.2809332","12073"
"168292","","HighSchool","2004","460","Chris Clemons","DeSoto County","","RB","73","180","3","0.8333","Arcadia","FL","USA","27.2158826","-81.8584164","12027"
"168293","","HighSchool","2004","460","Ronald Talley","Renaissance","","SDE","75","233","3","0.8333","Detroit","MI","USA","42.3315509","-83.0466403","26163"
"168294","","HighSchool","2004","460","Todd Haselhorst","East","","OG","76","284","3","0.8333","Wichita","KS","USA","37.6922361","-97.3375448","20173"
"168295","","HighSchool","2004","460","Garrett Hartley","Southlake Carroll","","K","69","175","3","0.8333","Southlake","TX","USA","32.9412363","-97.1341783","48439"
"168296","","HighSchool","2004","460","Obi Egekeze","Westside","","K","75","190","3","0.8333","Augusta","GA","USA","33.4709714","-81.9748429","13245"
"168297","","HighSchool","2004","460","Michael Hamlin","Lamar Hi","","S","74","190","3","0.8333","Lamar","SC","USA","37.4950527","-94.2768736","29011"
"168298","","HighSchool","2004","460","Clayton Sievers","Elkhorn","","OLB","76","220","3","0.8333","Elkhorn","NE","USA","41.2860699","-96.2346121","31055"
"168299","","HighSchool","2004","460","Jordan White-Frisbee","Inglemoor","","DT","79","285","3","0.8333","Kenmore","WA","USA","47.7573202","-122.2440148","53033"
"168300","","HighSchool","2004","460","Tyvenskie Page","Adamson","","S","74","210","3","0.8333","Dallas","TX","USA","32.7762719","-96.7968559","48113"
"168301","","HighSchool","2004","460","Pernell Williams","Jefferson","","RB","70","196","3","0.8333","Dayton","OH","USA","39.7589478","-84.1916069","39113"
"168302","","HighSchool","2004","460","Clint Sintim","Gar-Field","","SDE","75","254","3","0.8333","Woodbridge","VA","USA","38.6581723","-77.2497049","51153"
"168303","","HighSchool","2004","460","Jerami Holifield","Hoover","","SDE","77","248","3","0.8333","Hoover","AL","USA","33.3848933","-86.8070484","01073"
"168304","","HighSchool","2004","460","Walter Winter","Juanita","","ILB","77","230","3","0.8333","Kirkland","WA","USA","47.6859573","-122.1920249","53033"
"168305","","HighSchool","2004","460","Mike Hamilton","Melbourne","","RB","73","210","3","0.8333","Melbourne","FL","USA","28.0836269","-80.6081089","12009"
"168306","","HighSchool","2004","460","Ell Ash","Willingboro","","OG","77","273","3","0.8333","Willingboro","NJ","USA","40.0278894","-74.8690542","34005"
"168307","","HighSchool","2004","460","Scott McKillop","Kiski Area","","OLB","74","230","3","0.8333","Vandergrift","PA","USA","40.6028434","-79.5647667","42129"
"168308","","HighSchool","2004","460","Thomas Nyaoga","Mansfield Summit","","OG","77","290","3","0.8333","Arlington","TX","USA","32.701938999999996","-97.10562379033699","48439"
"168309","","HighSchool","2004","460","B.J. Dennard","Brophy College Preparatory","","ATH","73","180","3","0.8333","Phoenix","AZ","USA","33.4484367","-112.0741417","04013"
"168310","","HighSchool","2004","460","Gino Cruse","Desert Vista","","DT","77","315","3","0.8333","Phoenix","AZ","USA","33.4484367","-112.0741417","04013"
"168311","","HighSchool","2004","460","Bryan Savage","The Haverford School","","PRO","76","210","3","0.8333","Haverford","PA","USA","40.0131672","-75.2943516","42091"
"168312","","HighSchool","2004","460","John Bacon","Lakewood","","ILB","75","230","3","0.8333","Denver","CO","USA","39.7392364","-104.9848623","08031"
"168313","","HighSchool","2004","460","Dillon Hansen","Las Cruces","","OT","77","280","3","0.8333","Las Cruces","NM","USA","32.3140354","-106.7798078","35013"
"168314","","HighSchool","2004","460","Benjamin Muth","Pinnacle","","OT","78","280","3","0.8333","Phoenix","AZ","USA","33.4484367","-112.0741417","04013"
"168315","","HighSchool","2004","460","Danny Ware","Hargrave Military Academy (HS)","","FB","73","210","3","0.8333","Chatham","VA","USA","36.8256943","-79.3980806","51143"
"168316","","HighSchool","2004","460","Taylor Mehlhaff","Central - 01","","K","71","180","3","0.8333","Aberdeen","SD","USA","45.4649805","-98.487813","46013"
"168317","","HighSchool","2004","460","Josh Pinkard","Hueneme","","S","74","200","3","0.8333","Oxnard","CA","USA","34.1976308","-119.1803818","06111"
"168318","","HighSchool","2004","460","Brooks Foster","Boiling Springs","","WR","75","180","3","0.8333","Boiling Springs","SC","USA","35.04136","-81.97882024148419","45083"
"168319","","HighSchool","2004","460","Antoine Cason","Los Alamitos","","CB","73","180","3","0.8333","Los Alamitos","CA","USA","33.8038865","-118.0772433","06059"
"168320","","HighSchool","2004","460","Kevin Barnes","Old Mill Senior","","S","73","180","3","0.8333","Millersville","MD","USA","39.0595542","-76.6480219","24003"
"168321","","HighSchool","2004","460","Chris Lore","Trinity-Pawling School","","TE","76","245","3","0.8333","Pawling","NY","USA","41.5620381","-73.6026271","36027"
"168322","","HighSchool","2004","460","Brad Lester","Parkview","","RB","71","188","3","0.8333","Lilburn","GA","USA","33.8901036","-84.1429719","13135"
"168323","","HighSchool","2004","460","Ramon Foster","Ripley","","OT","79","285","3","0.8333","Ripley","TN","USA","35.7453551","-89.5297973","47097"
"168324","","HighSchool","2004","460","Michael Stuart","Westlake","","ATH","76","220","3","0.8333","Thousand Oaks","CA","USA","34.17142715","-118.91058772974445","06111"
"168325","","HighSchool","2004","460","John Carlson","Hopkins","","DUAL","74","200","3","0.8333","Hopkins","MN","USA","44.9271194","-93.4074945","27053"
"168326","","HighSchool","2004","460","Kentwan Balmer","Weldon","","SDE","76","260","3","0.8333","Weldon","NC","USA","36.4214765","-77.61842090482153","37083"
"168327","","HighSchool","2004","460","John Gibson","St. Mary's","","OG","76","280","3","0.8333","Stockton","CA","USA","37.9577016","-121.2907796","06077"
"168328","","HighSchool","2004","460","Andy Crooks","East","","ILB","75","230","3","0.8333","Wausau","WI","USA","44.9596017","-89.6298239","55073"
"168329","","HighSchool","2004","460","Chet Sanders","Carson","","S","73","180","3","0.8333","Carson","CA","USA","33.8322043","-118.2517547","06037"
"168330","","HighSchool","2004","460","James Alford","East Jefferson","","OLB","75","220","3","0.8333","Metairie","LA","USA","30.001852","-90.1767149159888","22051"
"168331","","HighSchool","2004","460","Tyjuan Jones","Trotwood-Madison","","CB","75","205","3","0.8333","Dayton","OH","USA","39.7589478","-84.1916069","39113"
"168332","","HighSchool","2004","460","Patrick Williams","DeSoto","","ATH","74","194","3","0.8333","DeSoto","TX","USA","32.6061241","-96.865612653687","48113"
"168333","","HighSchool","2004","460","Jack Simmons","Carmel Catholic","","TE","77","205","3","0.8333","Mundelein","IL","USA","42.263079","-88.0039653","17097"
"168334","","HighSchool","2004","460","Pernell Booth","Billings West","","DT","75","284","3","0.8333","Billings","MT","USA","45.7874957","-108.49607","30111"
"168335","","HighSchool","2004","460","David Veikune","James Campbell","","DT","74","255","3","0.8333","Ewa Beach","HI","USA","21.315603","-158.008804","15003"
"168336","","HighSchool","2004","460","Darrelle Revis","Aliquippa","","CB","72","180","3","0.8333","Aliquippa","PA","USA","40.6102386","-80.267726","42007"
"168337","","HighSchool","2004","460","Grant DeBenedictis","St Andrew's School","","OG","77","270","3","0.8333","Boca Raton","FL","USA","26.3586885","-80.0830984","12099"
"168338","","HighSchool","2004","460","Ryan Johnson","Carter","","SDE","77","240","3","0.8333","Dallas","TX","USA","32.7762719","-96.7968559","48113"
"168339","","HighSchool","2004","460","Octavious Balkcom","Early County","","ILB","76","225","3","0.8333","Blakely","GA","USA","31.3776754","-84.934092","13099"
"168340","","HighSchool","2004","460","Jarvis Minton","Mansfield Summit","","WR","73","190","3","0.8333","Arlington","TX","USA","32.701938999999996","-97.10562379033699","48439"
"168341","","HighSchool","2004","460","Nhemie Theodore","Irvington","","DT","75","285","3","0.8333","Irvington","NJ","USA","40.7323235","-74.2348684","34013"
"168342","","HighSchool","2004","460","Izzy Bauta","Poly Prep","","OG","76","270","3","0.8333","Brooklyn","NY","USA","40.6501038","-73.9495823","36047"
"168343","","HighSchool","2004","460","Ty Steinkuhler","Lincoln","","SDE","75","235","3","0.8333","Lincoln","NE","USA","40.8088861","-96.7077751","31109"
"168344","","HighSchool","2004","460","Donte Woodyard","Forestville","","OLB","76","200","3","0.8333","District Heights","MD","USA","38.8576128","-76.8894171","24033"
"168345","","HighSchool","2004","460","Max Hall","Mountain View","","PRO","74","185","3","0.8333","Mesa","AZ","USA","33.4151117","-111.8314773","04013"
"168346","","HighSchool","2004","460","Arian Foster","Mission Bay","","APB","73","208","3","0.8333","San Diego","CA","USA","32.7174209","-117.1627714","06073"
"168347","","HighSchool","2004","460","Stephen Green","Pulaski Academy","","S","71","180","3","0.8333","Little Rock","AR","USA","34.7464809","-92.2895948","05119"
"168348","","HighSchool","2004","460","Anthony Turner","Chaminade Julienne","","PRO","75","195","3","0.8333","Dayton","OH","USA","39.7589478","-84.1916069","39113"
"168349","","HighSchool","2004","460","Curtis Taylor","Franklinton","","S","75","180","3","0.8333","Franklinton","LA","USA","30.8471283","-90.153141","22117"
"168350","","HighSchool","2004","460","Del Roberts","Amos P. Godby","","WR","69","165","3","0.8333","Tallahassee","FL","USA","30.4380832","-84.2809332","12073"
"168352","","HighSchool","2004","460","John Bradshaw","Stafford","","OG","77","295","3","0.8333","Fredericksburg","VA","USA","38.3031837","-77.4605399","51630"
"168353","","HighSchool","2004","460","Ray Feinga","Hunter","","OG","77","280","3","0.8333","Salt Lake City","UT","USA","40.7596198","-111.8867975","49035"
"168354","","HighSchool","2004","460","Anthony Heard","J. P. Taravella","","RB","73","215","3","0.8333","Pompano Beach","FL","USA","26.2378597","-80.1247667","12011"
"168355","","HighSchool","2004","460","Jim Tartt","Wakulla","","OG","76","310","3","0.8333","Crawfordville","FL","USA","30.1760358","-84.3751778","12129"
"168356","","HighSchool","2004","460","Jermaine Filer","Countryside","","WR","76","210","3","0.8333","Clearwater","FL","USA","27.9658533","-82.8001026","12103"
"168357","","HighSchool","2004","460","Darin Harris","Decatur","","ATH","72","200","3","0.8333","Federal Way","WA","USA","47.313494","-122.3393103","53033"
"168358","","HighSchool","2004","460","Deon Curry","Detroit Country Day","","WR","73","191","3","0.8333","Franklin","MI","USA","42.5222567","-83.3060432","26125"
"168359","","HighSchool","2004","460","Lamar Lewis","Trinity Christian Academy","","APB","69","188","3","0.8333","Jacksonville","FL","USA","30.3321838","-81.655651","12031"
"168360","","HighSchool","2004","460","Cliff Avril","Clay","","OLB","75","225","3","0.8333","Green Cove Springs","FL","USA","29.9919085","-81.6781467","12019"
"168361","","HighSchool","2004","460","Thor Pili","Timpanogos","","SDE","77","240","3","0.8333","Orem","UT","USA","40.2971825","-111.694943","49049"
"168362","","HighSchool","2004","460","Jamaal Floyd","Claremont","","APB","71","185","3","0.8333","Claremont","CA","USA","34.0966764","-117.7197785","06037"
"168363","","HighSchool","2004","460","Carlos Armour","Melrose","","S","75","200","3","0.8333","Memphis","TN","USA","35.1490215","-90.0516285","47157"
"168364","","HighSchool","2004","460","Travis Clark","Lincoln County","","PRO","74","215","3","0.8333","Lincolnton","GA","USA","33.7923477","-82.479018","13181"
"168365","","HighSchool","2004","460","Dave Brytus","West Allegheny","","K","76","225","3","0.8333","Imperial","PA","USA","40.4495127","-80.2445041","42003"
"168366","","HighSchool","2004","460","Gerard Miller","West Craven","","WDE","76","265","3","0.8333","Vanceboro","NC","USA","35.3084953","-77.1541195","37049"
"168367","","HighSchool","2004","460","Russell Allen","Vista","","OLB","75","215","3","0.8333","Vista","CA","USA","33.2000368","-117.2425355","06073"
"168368","","HighSchool","2004","460","Chris Zellner","Booker","","ATH","74","230","3","0.8333","Sarasota","FL","USA","27.3364347","-82.5306527","12115"
"168369","","HighSchool","2004","460","Jacob Bower","Meridian","","PRO","76","220","3","0.8333","Meridian","ID","USA","43.6086295","-116.392326","16001"
"168370","","HighSchool","2004","460","Terrance Jones","Booker","","ATH","70","180","3","0.8333","Sarasota","FL","USA","27.3364347","-82.5306527","12115"
"168371","","HighSchool","2004","460","Mario Urrutia","Fern Creek Traditional","","WR","77","195","3","0.8333","Louisville","KY","USA","38.2542376","-85.759407","21111"
"168372","","HighSchool","2004","460","Austin Collie","Oak Ridge","","WR","74","190","3","0.8333","El Dorado Hills","CA","USA","38.6561185","-121.0743265","06017"
"168373","","HighSchool","2004","460","James Thompson","Sumter","","OT","77","310","3","0.8333","Sumter","SC","USA","33.9204354","-80.3414693","45085"
"168374","","HighSchool","2004","460","Richard Abney","Forestville","","WR","71","187","3","0.8333","District Heights","MD","USA","38.8576128","-76.8894171","24033"
"168375","","HighSchool","2004","460","Jeff Brown","Narbonne","","CB","74","187","3","0.8333","Harbor City","CA","USA","33.7972822","-118.3004717","06037"
"168376","","HighSchool","2004","460","Terrance Aptid","Samoana","","OT","79","295","3","0.8333","Pago Pago","AS","USA","-14.2754786","-170.7048298","60010"
"168377","","HighSchool","2004","460","James Lewis","Venice","","WR","73","205","3","0.8333","Los Angeles","CA","USA","34.0536909","-118.2427666","06037"
"168378","","HighSchool","2004","460","Wyatt Bowman","Cumberland Valley","","OT","78","310","3","0.8333","Mechanicsburg","PA","USA","40.2101972","-77.0047276","42041"
"168379","","HighSchool","2004","460","Chris Rutledge","Dr. Michael M. Krop","","OT","78","270","3","0.8333","Miami","FL","USA","25.7742658","-80.1936589","12086"
"168380","","HighSchool","2004","460","Aaron Perez","Charter Oak","","K","76","210","3","0.8333","Covina","CA","USA","34.1024","-117.85486499999999","06037"
"168381","","HighSchool","2004","460","Pat White","Daphne","","ATH","73","180","3","0.8333","Daphne","AL","USA","30.6035255","-87.9036047","01003"
"168382","","HighSchool","2004","460","Neil Brown","Buford","","DT","74","255","3","0.8333","Buford","GA","USA","34.1206564","-84.0043513","13135"
"168383","","HighSchool","2004","460","John Dunlap","Chaminade-Madonna","","WR","75","215","3","0.8333","Hollywood","FL","USA","26.0112014","-80.1494901","12011"
"168384","","HighSchool","2004","460","Jeremy Burgess","Loris Hi","","OG","77","265","3","0.8333","Loris","SC","USA","34.0562812","-78.8903044","45051"
"168385","","HighSchool","2004","460","James Bailey","Denby","","WR","76","185","3","0.8333","Detroit","MI","USA","42.3315509","-83.0466403","26163"
"168386","","HighSchool","2004","460","Austin Hinton","Secaucus","Penn State","OG","76","279","3","0.8333","Secaucus","NJ","USA","40.7899291","-74.0566735","34017"
"168387","","HighSchool","2004","460","Tony Burks","Harrison Central","","WR","76","200","3","0.8333","Gulfport","MS","USA","30.3674198","-89.0928155","28047"
"168388","","HighSchool","2004","460","Mike Lucian","Linganore","","TE","75","245","3","0.8333","Frederick","MD","USA","39.4142186","-77.4109269","24021"
"168389","","HighSchool","2004","460","Harry Coleman","West St. Mary","","OLB","74","205","3","0.8333","Baldwin","LA","USA","29.838","-91.5443","26085"
"168390","","HighSchool","2004","460","Darren Mougey","Chaparral","","DUAL","76","215","3","0.8333","Scottsdale","AZ","USA","33.4942189","-111.9260184","04013"
"168391","","HighSchool","2004","460","Mark Rubin","Amherst Central","","WR","76","205","3","0.8333","Buffalo","NY","USA","42.8867166","-78.8783922","36029"
"168392","","HighSchool","2004","460","Calvin Booker","Mays","","PRO","76","205","3","0.8333","Atlanta","GA","USA","33.7490987","-84.3901849","13121"
"168393","","HighSchool","2004","460","Ryan Keeling","Thurston","","TE","77","230","3","0.8333","Springfield","OR","USA","44.0462362","-123.0220289","41039"
"168394","","HighSchool","2004","460","Spencer Ridenhour","White Plains Senior","","S","72","215","3","0.8333","White Plains","NY","USA","41.0339862","-73.7629097","36119"
"168395","","HighSchool","2004","460","Sidney Rice","Gaffney","","WR","76","185","3","0.8333","Gaffney","SC","USA","35.0717945","-81.6498195","45021"
"168396","","HighSchool","2004","460","Jeremy Thompson","Charlotte Catholic","","SDE","77","235","3","0.8333","Charlotte","NC","USA","35.2272","-80.843083","37119"
"168397","","HighSchool","2004","460","Walter Mendenhall","Niles West","","RB","72","195","3","0.8333","Skokie","IL","USA","42.0333694","-87.7333972","17031"
"168398","","HighSchool","2004","460","Alphonso Smith","Pahokee","","CB","70","176","3","0.8333","Pahokee","FL","USA","26.8200607","-80.6653351","12099"
"168399","","HighSchool","2004","460","Daniel Bailey","Centreville","","RB","67","170","3","0.8333","Clifton","VA","USA","38.7802204","-77.3864722","51059"
"168400","","HighSchool","2004","460","Tommie Hill","Arapahoe","","WDE","79","215","3","0.8333","Littleton","CO","USA","39.613321","-105.0166498","08005"
"168401","","HighSchool","2004","460","Tony Davis","Howland","","CB","71","180","3","0.8333","Warren","OH","USA","41.237557","-80.818417","39155"
"168402","","HighSchool","2004","460","Shedrick Johnson","Sweeny","","CB","71","178","3","0.8333","Brownsville","TX","USA","25.9140256","-97.4890856","48061"
"168403","","HighSchool","2004","460","Elijah Robinson","Eastside","","DT","75","300","3","0.8333","Camden","NJ","USA","39.9448402","-75.1198911","34007"
"168404","","HighSchool","2004","460","Patrick Gates","Marian Catholic","","APB","70","175","3","0.8333","Chicago Heights","IL","USA","41.5062834","-87.6357079","17031"
"168405","","HighSchool","2004","460","Eddie Vickers","Columbia River","","OG","76","308","3","0.8333","Vancouver","WA","USA","45.6306954","-122.6744557","53011"
"168406","","HighSchool","2004","460","Russ Weil","Minooka","","ILB","73","230","3","0.8333","Minooka","IL","USA","41.4553084","-88.2617305","17063"
"168407","","HighSchool","2004","460","Gabe O'Neal","Columbus","","ATH","74","210","3","0.8333","Columbus","MS","USA","33.4956744","-88.4272627","28087"
"168408","","HighSchool","2004","460","Daryll Clark","Ursuline","","DUAL","75","190","3","0.8333","Youngstown","OH","USA","41.1035786","-80.6520161","39099"
"168409","","HighSchool","2004","460","Jon Skinner","Mount Carmel","","OG","77","285","3","0.8333","Mount Carmel","PA","USA","40.7968393","-76.4131097","42097"
"168410","","HighSchool","2004","460","Anthony Parker","Lovejoy","","OG","76","290","3","0.8333","Hampton","GA","USA","33.3870578","-84.2829784","13151"
"168411","","HighSchool","2004","460","Justin Harper","Lincoln Catawba Christian Academy","","WR","76","205","3","0.8333","Maiden","NC","USA","35.5766048","-81.2139216","37035"
"168412","","HighSchool","2004","460","Aaron Darks","Lufkin","","ILB","73","205","3","0.8333","Lufkin","TX","USA","31.3386242","-94.7288558","48005"
"168413","","HighSchool","2004","460","Gerard Spexarth","Andale","","OT","78","301","3","0.8333","Andale","KS","USA","37.790567","-97.629492","20173"
"168414","","HighSchool","2004","460","Kevin Akins","North Penn","","S","74","185","3","0.8333","Lansdale","PA","USA","40.2414952","-75.2837862","42091"
"168415","","HighSchool","2004","460","Richard Clebert","Edison","","DT","73","275","3","0.8333","Miami","FL","USA","25.7742658","-80.1936589","12086"
"168416","","HighSchool","2004","460","Andre Copeland","Columbia","","RB","69","190","3","0.8333","Lake City","FL","USA","30.1896756","-82.6392899","12023"
"168417","","HighSchool","2004","460","Tom Walls","West Deptford","","ILB","74","239","3","0.8333","Westville","NJ","USA","39.8700552","-75.1265177","34015"
"168418","","HighSchool","2004","460","A.J. Brooks","Bishop Moore Catholic","","RB","72","192","3","0.8333","Orlando","FL","USA","28.5421109","-81.3790304","12095"
"168419","","HighSchool","2004","460","Maurice Reevey","Highland Springs","","ATH","75","225","3","0.8333","Highland Springs","VA","USA","37.5460121","-77.3278441","51087"
"168420","","HighSchool","2004","460","Allan Evridge","Papillion-La Vista","","DUAL","73","205","3","0.8333","Papillion","NE","USA","41.1544433","-96.0422378","31153"
"168421","","HighSchool","2004","460","Edgar Givens","New Madrid","","S","76","205","3","0.8333","New Madrid","MO","USA","36.5864488","-89.5278547","29143"
"168422","","HighSchool","2004","460","Chevis Jackson","St. Paul's Episcopal","","WR","73","180","3","0.8333","Mobile","AL","USA","30.6943566","-88.0430541","01097"
"168423","","HighSchool","2004","460","Marty Tadman","Mission Viejo","","ATH","72","180","3","0.8333","Mission Viejo","CA","USA","33.5965685","-117.659405","06059"
"168424","","HighSchool","2004","460","Cory Holt","Davidson Early College","","DUAL","77","210","3","0.8333","Lexington","NC","USA","35.8240265","-80.2533838","37057"
"168425","","HighSchool","2004","460","Michael Bell","Shaker Heights","","ATH","71","173","3","0.8333","Cleveland","OH","USA","41.5051613","-81.6934446","39035"
"168426","","HighSchool","2004","460","Caleb Handy","Conway Springs","","OG","74","300","3","0.8333","Conway Springs","KS","USA","37.3902975","-97.6422723","20191"
"168427","","HighSchool","2004","460","John Hafferty","Chattahoochee","","OG","75","305","3","0.8333","Alpharetta","GA","USA","34.0709576","-84.2747329","13121"
"168428","","HighSchool","2004","460","Lamarte McGhee","Person","","SDE","78","260","3","0.8333","Roxboro","NC","USA","36.3937519","-78.9827881","37145"
"168429","","HighSchool","2004","460","Donald Massey","Hillsboro","","WR","72","165","3","0.8333","Hillsboro","TX","USA","32.0108506","-97.1303744","48217"
"168430","","HighSchool","2004","460","Darius McClure","Minor","","CB","71","188","3","0.8333","Adamsville","AL","USA","33.6009389","-86.9561059","01073"
"168431","","HighSchool","2004","460","Cyril Obiozor","Pearland","","SDE","76","236","3","0.8333","Pearland","TX","USA","29.5639758","-95.2864299","48039"
"168432","","HighSchool","2004","460","Britt Davis","Riverside Brookfield","","DUAL","75","185","3","0.8333","Riverside","IL","USA","41.8323474","-87.8153195","06065"
"168433","","HighSchool","2004","460","Lavarus Giles","Ray Brooks School","","RB","73","205","3","0.8333","Benoit","MS","USA","33.6515013","-91.0095508","28011"
"168434","","HighSchool","2004","460","Keith Willis","Xaverian Brothers","","FB","74","240","3","0.8333","Westwood","MA","USA","42.2139873","-71.2244987","25021"
"168454","","HighSchool","2004","679","Robert Jordan","Hayward","","CB","72","165","3","0.8111","Hayward","CA","USA","37.6688205","-122.0807964","06001"
"168457","","HighSchool","2004","679","Justin Guadagni","South Allegheny","","ILB","73","228","3","0.8111","Mckeesport","PA","USA","40.3478472","-79.864215","42003"
"168461","","HighSchool","2004","679","Kenneth Fontenette","Pflugerville Connally","","CB","71","165","3","0.8111","Austin","TX","USA","30.2711286","-97.7436995","48453"
"168438","","HighSchool","2004","679","John Peel","Chaparral","","WR","74","185","3","0.8111","Scottsdale","AZ","USA","33.4942189","-111.9260184","04013"
"168439","","HighSchool","2004","679","Dion Morton","John W. North","","ATH","71","170","3","0.8111","Riverside","CA","USA","33.9533546","-117.3961623","06065"
"168441","","HighSchool","2004","679","James Hardy","Elmhurst","","WR","78","185","3","0.8111","Fort Wayne","IN","USA","41.0799898","-85.1386015","18003"
"168435","","HighSchool","2004","679","Keala Watson","Nanakuli & Intermediate School","","DT","76","310","3","0.8111","Waianae","HI","USA","21.446678","-158.185272","15003"
"168440","","HighSchool","2004","679","Damon Morton","John W. North","","WR","71","175","3","0.8111","Riverside","CA","USA","33.9533546","-117.3961623","06065"
"168448","","HighSchool","2004","679","Steve Redmond","Rockhurst","","S","72","200","3","0.8111","Kansas City","MO","USA","39.100105","-94.5781416","29095"
"168447","","HighSchool","2004","679","Keenan Jones","Narbonne","","WR","72","185","3","0.8111","Harbor City","CA","USA","33.7972822","-118.3004717","06037"
"168446","","HighSchool","2004","679","Aaron Saunders","Jay","","OT","79","282","3","0.8111","San Antonio","TX","USA","29.4246002","-98.4951405","48029"
"168456","","HighSchool","2004","679","Bobby Dockter","Kamiak","","OG","77","275","3","0.8111","Mukilteo","WA","USA","47.9474034","-122.3036992","53061"
"168455","","HighSchool","2004","679","David Washington","Guthrie","","OG","75","280","3","0.8111","Guthrie","OK","USA","35.8789231","-97.4252772","40083"
"168452","","HighSchool","2004","679","Byron Ellis","Venice","","APB","73","195","3","0.8111","Los Angeles","CA","USA","34.0536909","-118.2427666","06037"
"168451","","HighSchool","2004","679","Eric Rouser","St. Bonaventure","","OT","80","270","3","0.8111","Ventura","CA","USA","34.3435092","-119.29560423163717","06111"
"168450","","HighSchool","2004","679","Josh Hunt","Lumen Christi","","SDE","76","245","3","0.8111","Jackson","MI","USA","42.2465036","-84.4016963","28049"
"168436","","HighSchool","2004","679","A.J. Brown","Liberty","","S","73","195","3","0.8111","Bedford","VA","USA","37.3344561","-79.5235083","51515"
"168445","","HighSchool","2004","679","Maurice Cantrell","George Washington","","OLB","73","220","3","0.8111","Cedar Rapids","IA","USA","41.9758872","-91.6704053","19113"
"168449","","HighSchool","2004","679","Earl Goldsmith","Ryan","","APB","70","182","3","0.8111","Denton","TX","USA","33.2150386","-97.1330516","48121"
"168437","","HighSchool","2004","679","Jeff Browning","William Henry Harrison","","DT","77","280","3","0.8111","Harrison","OH","USA","41.349364","-83.129921","39143"
"168444","","HighSchool","2004","679","Johnny Sampy","Galena Park","","WR","74","220","3","0.8111","Galena Park","TX","USA","29.7335616","-95.2302123","48201"
"168443","","HighSchool","2004","679","Tramell McGill","Hamilton","","APB","72","190","3","0.8111","Chandler","AZ","USA","33.3062223","-111.8413317","04013"
"168442","","HighSchool","2004","679","Stephen James","North Shore","","CB","71","175","3","0.8111","Houston","TX","USA","29.7589382","-95.3676974","48201"
"168453","","HighSchool","2004","679","Micah Howeth","W.T. White","","SDE","74","250","3","0.8111","Dallas","TX","USA","32.7762719","-96.7968559","48113"
"168458","","HighSchool","2004","679","Mike Maciejowski","Upper Arlington","","PRO","74","200","3","0.8111","Columbus","OH","USA","39.9622601","-83.0007065","39049"
"168459","","HighSchool","2004","679","Jared Parker","Ankeny","","K","72","185","3","0.8111","Ankeny","IA","USA","41.7318715","-93.6003837","19153"
"168460","","HighSchool","2004","679","Blake Field","North Florida Christian","","PRO","75","195","3","0.8111","Tallahassee","FL","USA","30.4380832","-84.2809332","12073"
"168498","","HighSchool","2004","679","Nathan Flowers","Chula Vista Senior","","OT","77","280","3","0.8111","Chula Vista","CA","USA","32.6400541","-117.0841955","06073"
"168530","","HighSchool","2004","679","Brad Jones","East Lansing","Colorado","OLB","75","210","3","0.8111","East Lansing","MI","USA","42.7355416","-84.4852469","26065"
"168529","","HighSchool","2004","679","Chase Rice","A.C. Reynolds","North Carolina","S","75","210","3","0.8111","Asheville","NC","USA","35.6009498","-82.5540161","37021"
"168527","","HighSchool","2004","679","Patrick Fuller","Charter Oak","Oregon State","RB","73","200","3","0.8111","Covina","CA","USA","34.1024","-117.85486499999999","06037"
"168526","","HighSchool","2004","679","Dan Davis","Plainfield","UConn","SDE","75","247","3","0.8111","Plainfield","NJ","USA","40.6337136","-74.4073737","34039"
"168525","","HighSchool","2004","679","Ellix Wilson","Melrose","Tennessee","S","72","205","3","0.8111","Memphis","TN","USA","35.1490215","-90.0516285","47157"
