"Id","AthleteId","RecruitType","Year","Ranking","Name","School","CommittedTo","Position","Height","Weight","Stars","Rating","City","StateProvince","Country","HometownInfo Latitude","HometownInfo Longitude","HometownInfo FipsCode"
"159460","","HighSchool","2008","1","Da'Quan Bowers","Bamberg-Ehrhardt","Clemson","SDE","76","265","5","0.9997","Bamberg","SC","USA","33.2971012","-81.0348202","45009"
"159461","379070","HighSchool","2008","2","Terrelle Pryor","Jeannette","Ohio State","DUAL","78","233","5","0.9997","Jeannette","PA","USA","40.3281247","-79.6153198","42129"
"159462","379062","HighSchool","2008","3","Julio Jones","Foley","Alabama","WR","76","220","5","0.9992","Foley","AL","USA","30.4065868","-87.6835974","01003"
"159463","379060","HighSchool","2008","4","Darrell Scott","St. Bonaventure","Colorado","RB","72","204","5","0.998","Ventura","CA","USA","34.3435092","-119.29560423163717","06111"
"159464","381281","HighSchool","2008","5","Will Hill","St. Peter's Prep","Florida","S","73","207","5","0.9979","Jersey City","NJ","USA","40.7281575","-74.0776417","34017"
"159465","382702","HighSchool","2008","6","Patrick Peterson","Blanche Ely","LSU","CB","73","195","5","0.9977","Pompano Beach","FL","USA","26.2378597","-80.1247667","12011"
"159466","379205","HighSchool","2008","7","A.J. Green","Summerville","Georgia","WR","76","184","5","0.9973","Summerville","SC","USA","33.0206179","-80.1747537","45035"
"159467","","HighSchool","2008","8","Arthur Brown","East","Miami","ILB","73","210","5","0.996","Wichita","KS","USA","37.6922361","-97.3375448","20173"
"159468","","HighSchool","2008","9","Jermie Calhoun","Van Horn","Oklahoma","RB","72","210","5","0.9945","Van Horn","TX","USA","31.0380062","-104.8303694","48109"
"159469","","HighSchool","2008","10","R.J. Washington","Fossil Ridge","Oklahoma","SDE","75","248","5","0.9941","Keller","TX","USA","32.9299655","-97.2271249","48439"
"159470","","HighSchool","2008","11","Marcus Forston","Northwestern","Miami","DT","75","286","5","0.994","Miami","FL","USA","25.7742658","-80.1936589","12086"
"159471","379059","HighSchool","2008","12","DeAndre Brown","Ocean Springs","Southern Miss","WR","78","205","5","0.9931","Pascagoula","MS","USA","30.3646795","-88.5585995","28059"
"159472","379066","HighSchool","2008","13","Jonathan Baldwin","Aliquippa","Pittsburgh","WR","78","233","5","0.9914","Aliquippa","PA","USA","40.6102386","-80.267726","42007"
"159473","379067","HighSchool","2008","14","Michael Floyd","Cretin Derham Hall","Notre Dame","WR","75","195","5","0.9914","Saint Paul","MN","USA","44.9504037","-93.1015026","27123"
"159474","","HighSchool","2008","15","Michael Brewster","Edgewater","Ohio State","OC","77","293","5","0.9911","Orlando","FL","USA","28.5421109","-81.3790304","12095"
"159475","379063","HighSchool","2008","16","Blake Ayles","Orange Lutheran","USC","TE","76","245","5","0.9911","Orange","CA","USA","33.7872568","-117.8503088","06059"
"159476","","HighSchool","2008","17","Omar Hunter","Buford","Florida","DT","73","300","5","0.9904","Buford","GA","USA","34.1206564","-84.0043513","13135"
"159477","378229","HighSchool","2008","18","Richard Samuel","Cass","Georgia","RB","72","197","5","0.9901","Cartersville","GA","USA","34.1650972","-84.7999383","13015"
"159478","377665","HighSchool","2008","19","Nigel Bradham","Wakulla","Florida State","OLB","74","230","5","0.9893","Crawfordville","FL","USA","30.1760358","-84.3751778","12129"
"159479","","HighSchool","2008","20","Matt Kalil","Servite","USC","OT","79","281","5","0.9892","Anaheim","CA","USA","33.8347516","-117.911732","06059"
"159480","","HighSchool","2008","21","Mike Adams","Dublin Coffman","Ohio State","OT","80","300","5","0.9887","Dublin","OH","USA","40.0992294","-83.1140771","39049"
"159481","","HighSchool","2008","22","Dayne Crist","Notre Dame","Notre Dame","PRO","77","228","5","0.9886","Sherman Oaks","CA","USA","34.1508718","-118.4489865","06037"
"159482","","HighSchool","2008","23","Tyler Love","Mountain Brook","Alabama","OT","78","307","5","0.9884","Birmingham","AL","USA","33.5206824","-86.8024326","01073"
"159483","377882","HighSchool","2008","24","Etienne Sabino","Dr. Michael M. Krop","Ohio State","OLB","75","240","5","0.987","Miami","FL","USA","25.7742658","-80.1936589","12086"
"159484","382061","HighSchool","2008","25","Brandon Harris","Booker T. Washington","Miami","CB","71","174","5","0.9864","Miami","FL","USA","25.7742658","-80.1936589","12086"
"159485","","HighSchool","2008","26","EJ Manuel","Bayside","Florida State","DUAL","77","220","5","0.9849","Virginia Beach","VA","USA","36.8529841","-75.9774183","51810"
"159486","388042","HighSchool","2008","27","B.J. Scott","Vigor","Alabama","CB","71","193","5","0.9846","Mobile","AL","USA","30.6943566","-88.0430541","01097"
"159487","","HighSchool","2008","28","DeAngelo Tyson","Statesboro","Georgia","DT","74","276","5","0.9834","Statesboro","GA","USA","32.4490141","-81.7832912","13031"
"159488","385438","HighSchool","2008","29","Kyle Rudolph","Elder","Notre Dame","TE","78","229","4","0.9832","Cincinnati","OH","USA","39.1014537","-84.5124602","39061"
"159489","","HighSchool","2008","30","Tyron Smith","Rancho Verde","USC","OT","77","260","4","0.983","Moreno Valley","CA","USA","33.937517","-117.2305944","06065"
"159490","","HighSchool","2008","31","Matt Patchan","Armwood","Florida","OT","78","295","4","0.9826","Seffner","FL","USA","27.998541000000003","-82.27488400114905","12057"
"159491","377698","HighSchool","2008","32","Aldarius Johnson","Northwestern","Miami","WR","74","200","4","0.9821","Miami","FL","USA","25.7742658","-80.1936589","12086"
"159492","379419","HighSchool","2008","33","Kavario Middleton","Lakes","Washington","TE","78","255","4","0.982","Lakewood","WA","USA","47.1714085","-122.5164","53053"
"159493","","HighSchool","2008","34","Baker Steinkuhler","Southwest","Nebraska","OT","78","290","4","0.9812","Lincoln","NE","USA","40.8088861","-96.7077751","31109"
"159494","381364","HighSchool","2008","35","Blaine Gabbert","Parkway West","Missouri","PRO","76","266","4","0.9806","Ballwin","MO","USA","38.5936028","-90.5385549","29189"
"159495","","HighSchool","2008","36","Ethan Johnson","Lincoln","Notre Dame","SDE","76","285","4","0.9805","Portland","OR","USA","45.5202471","-122.6741949","41051"
"159496","","HighSchool","2008","37","Stephen Good","Paris","Oklahoma","OT","77","297","4","0.9798","Paris","TX","USA","33.6617962","-95.555513","48277"
"159497","377926","HighSchool","2008","38","Dan Buckner","Allen","Texas","WR","76","209","4","0.9791","Allen","TX","USA","33.1031744","-96.6705503","48085"
"159498","379337","HighSchool","2008","39","T.J. Bryant","Lincoln","USC","CB","73","175","4","0.9788","Tallahassee","FL","USA","30.4380832","-84.2809332","12073"
"159499","","HighSchool","2008","40","Ryan Williams","Unity Reed","Virginia Tech","RB","70","195","4","0.9787","Manassas","VA","USA","38.7509488","-77.4752667","51683"
"159500","381451","HighSchool","2008","41","Jamie Harper","Trinity Christian Academy","Clemson","RB","72","235","4","0.9784","Jacksonville","FL","USA","30.3321838","-81.655651","12031"
"159501","","HighSchool","2008","42","Andrew Luck","Stratford","Stanford","PRO","76","215","4","0.9782","Houston","TX","USA","29.7589382","-95.3676974","48201"
"159502","","HighSchool","2008","43","Joshua Jarboe","Cedar Grove","Oklahoma","WR","75","195","4","0.9782","Ellenwood","GA","USA","33.6101096","-84.287978","13063"
"159503","","HighSchool","2008","44","J.B. Shugarts","Klein","Ohio State","OT","79","297","4","0.9779","Spring","TX","USA","30.0798826","-95.4172549","48201"
"159504","","HighSchool","2008","45","Ramon Buchanan","Palm Bay Senior","Miami","OLB","73","181","4","0.9777","Melbourne","FL","USA","28.0836269","-80.6081089","12009"
"159505","","HighSchool","2008","46","Lucas Nix","Thomas Jefferson","Pittsburgh","OT","78","295","4","0.9776","Jefferson","PA","USA","39.817332","-76.8417166","42133"
"159506","","HighSchool","2008","47","Mike Glennon","Westfield","NC State","PRO","78","195","4","0.9773","Chantilly","VA","USA","38.8941543","-77.4311513","51059"
"159507","378001","HighSchool","2008","48","Darryl Stonum","Dulles","Michigan","WR","74","180","4","0.9772","Sugar Land","TX","USA","29.6196787","-95.6349463","48157"
"159508","381982","HighSchool","2008","49","DeVier Posey","LaSalle","Ohio State","WR","74","213","4","0.9769","Cincinnati","OH","USA","39.1014537","-84.5124602","39061"
"159509","","HighSchool","2008","50","Brice Butler","Norcross","USC","WR","74","178","4","0.9769","Norcross","GA","USA","33.9412127","-84.2135309","13135"
"159510","","HighSchool","2008","51","Devoe Torrence","Washington","","ATH","74","210","4","0.9764","Massillon","OH","USA","40.7967244","-81.5215093","39151"
"159511","","HighSchool","2008","52","Jerrell Harris","Gadsden City","Alabama","OLB","75","242","4","0.9758","Gadsden","AL","USA","34.010929","-85.9989596","01055"
"159512","","HighSchool","2008","53","DeSean Hales","Klein Oak","Texas","WR","70","165","4","0.9756","Spring","TX","USA","30.0798826","-95.4172549","48201"
"159513","","HighSchool","2008","54","D.J.  Shoemate","Servite","USC","WR","72","219","4","0.9755","Anaheim","CA","USA","33.8347516","-117.911732","06059"
"159514","378601","HighSchool","2008","55","Janoris Jenkins","Pahokee","Florida","CB","71","180","4","0.9744","Pahokee","FL","USA","26.8200607","-80.6653351","12099"
"159515","377852","HighSchool","2008","56","Jameel Owens","Muskogee","Oklahoma","WR","75","210","4","0.9744","Muskogee","OK","USA","35.7478769","-95.3696909","40101"
"159516","","HighSchool","2008","57","Jordan Futch","Chaminade-Madonna","Miami","OLB","75","240","4","0.974","Hollywood","FL","USA","26.0112014","-80.1494901","12011"
"159517","","HighSchool","2008","58","Chancey Aghayere","Garland","LSU","SDE","77","244","4","0.9735","Garland","TX","USA","32.912624","-96.6388833","48113"
"159518","","HighSchool","2008","59","Dee Finley","Auburn","Florida","S","74","222","4","0.9724","Auburn","AL","USA","32.6550905","-85.50364346309962","01081"
"159519","","HighSchool","2008","60","Nick Perry","Martin Luther King","USC","WDE","76","235","4","0.9713","Detroit","MI","USA","42.3315509","-83.0466403","26163"
"159520","","HighSchool","2008","61","Brandon Thompson","Thomasville","Clemson","DT","74","290","4","0.9713","Thomasville","GA","USA","30.8365815","-83.9787808","13275"
"159521","","HighSchool","2008","62","Jarvis Humphrey","Cedar Hill","Texas","DT","74","290","4","0.9711","Chatfield","TX","USA","32.2415365","-96.4074824","48349"
"159522","","HighSchool","2008","63","Darius Fleming","St. Rita","Notre Dame","OLB","75","230","4","0.9705","Chicago","IL","USA","41.8755616","-87.6244212","17031"
"159523","","HighSchool","2008","64","Lynn Katoa","Cottonwood","Colorado","ILB","74","220","4","0.97","Salt Lake City","UT","USA","40.7596198","-111.8867975","49035"
"159524","377711","HighSchool","2008","65","Sean Spence","Northwestern","Miami","OLB","72","186","4","0.9694","Miami","FL","USA","25.7742658","-80.1936589","12086"
"159525","381279","HighSchool","2008","66","William Green","Spain Park","Florida","SDE","76","255","4","0.9684","Birmingham","AL","USA","33.5206824","-86.8024326","01073"
"159526","","HighSchool","2008","67","Shayne Hale","Gateway","Pittsburgh","WDE","75","235","4","0.9683","Monroeville","PA","USA","40.4211798","-79.7881025","42003"
"159527","","HighSchool","2008","68","Nigel Carr","First Coast","Florida State","ILB","75","220","4","0.9675","Jacksonville","FL","USA","30.3321838","-81.655651","12031"
"159528","377844","HighSchool","2008","69","Justin Johnson","Gilmer","Oklahoma","RB","73","210","4","0.9673","Gilmer","TX","USA","32.7312256","-94.9469309","48459"
"159529","378051","HighSchool","2008","70","Cyrus Gray","DeSoto","Texas A&M","RB","71","190","4","0.9668","DeSoto","TX","USA","32.6061241","-96.865612653687","48113"
"159530","382590","HighSchool","2008","71","Mark Barron","St. Paul's Episcopal","Alabama","S","74","218","4","0.9665","Mobile","AL","USA","30.6943566","-88.0430541","01097"
"159531","","HighSchool","2008","72","Dann O'Neill","Grand Haven","Michigan","OT","80","290","4","0.9664","Grand Haven","MI","USA","43.0630734","-86.2283864","26139"
"159532","380388","HighSchool","2008","73","Gerell Robinson","Hamilton","Arizona State","ATH","76","210","4","0.9663","Chandler","AZ","USA","33.3062223","-111.8413317","04013"
"159533","382157","HighSchool","2008","74","Davon Johnson","Booker T. Washington","Miami","WR","71","163","4","0.9659","Miami","FL","USA","25.7742658","-80.1936589","12086"
"159534","","HighSchool","2008","75","Marcus Robinson","Homestead","Miami","WDE","74","210","4","0.9646","Homestead","FL","USA","25.4718946","-80.4759905","12086"
"159535","","HighSchool","2008","76","C.C. Whitlock","Chester","South Carolina","CB","70","170","4","0.9645","Chester","SC","USA","34.7048613","-81.2142561","45023"
"159536","380720","HighSchool","2008","77","Aundre Dean","Katy","UCLA","RB","73","200","4","0.9638","Katy","TX","USA","29.7857853","-95.8243956","48157"
"159537","","HighSchool","2008","78","Jake Stoneburner","Dublin Coffman","Ohio State","TE","77","245","4","0.9637","Dublin","OH","USA","40.0992294","-83.1140771","39049"
"159538","","HighSchool","2008","79","A.J. Harmon","Jefferson County","Georgia","OT","76","308","4","0.9634","Louisville","GA","USA","33.0015407","-82.4112377","13163"
"159539","","HighSchool","2008","80","Garrett Goebel","Montini Catholic","Ohio State","DT","75","281","4","0.9626","Lombard","IL","USA","41.8864687","-88.0201536","17043"
"159540","","HighSchool","2008","81","Toby Jackson","Griffin","Georgia","SDE","76","244","4","0.9622","Griffin","GA","USA","33.2467807","-84.2640904","13255"
"159541","","HighSchool","2008","82","Antoine McClain","Anniston","Clemson","OT","78","315","4","0.9622","Anniston","AL","USA","33.695381","-85.83984227882328","01015"
"159542","","HighSchool","2008","83","Brendan Beal","Liberty","Florida","ILB","76","235","4","0.962","Bethlehem","PA","USA","40.6178915","-75.3786521","42095"
"159543","","HighSchool","2008","84","Jon Major","Ponderosa","Colorado","ILB","74","220","4","0.9612","Parker","CO","USA","39.5184514","-104.7612638","08035"
"159544","","HighSchool","2008","85","Trevor Robinson","Elkhorn","Notre Dame","OG","78","304","4","0.96","Elkhorn","NE","USA","41.2860699","-96.2346121","31055"
"159545","","HighSchool","2008","86","T.J. Lawrence","Kathleen","Florida","WR","73","185","4","0.959","Lakeland","FL","USA","28.0394654","-81.9498042","12105"
"159546","","HighSchool","2008","87","Matt Meyer","Lincoln","USC","OT","79","290","4","0.9587","Stockton","CA","USA","37.9577016","-121.2907796","06077"
"159547","","HighSchool","2008","88","Steve Filer","Mount Carmel","Notre Dame","OLB","75","220","4","0.9587","Chicago","IL","USA","41.8755616","-87.6244212","17031"
"159548","","HighSchool","2008","89","Uona Kaveinga","Leuzinger","USC","ILB","73","226","4","0.9584","Lawndale","CA","USA","33.8885217","-118.3531991","06037"
"159549","","HighSchool","2008","90","Deion Walker","Christchurch School","Notre Dame","WR","76","186","4","0.9572","Church View","VA","USA","37.6776411","-76.6782906","51119"
"159550","382623","HighSchool","2008","91","De'Anthony Curtis","Camden Fairview","Arkansas","CB","69","211","4","0.9568","Camden","AR","USA","33.5845582","-92.8343294","05103"
"159551","385332","HighSchool","2008","92","Jonas Gray","Detroit Country Day","Notre Dame","RB","70","213","4","0.9565","Franklin","MI","USA","42.5222567","-83.3060432","26125"
"159552","380121","HighSchool","2008","93","Aaron Williams","McNeil","Texas","CB","73","175","4","0.9557","Austin","TX","USA","30.2711286","-97.7436995","48453"
"159553","382671","HighSchool","2008","94","Neiko Thorpe","Tucker","Auburn","S","74","185","4","0.9548","Tucker","GA","USA","33.8532701","-84.2200729","13089"
"159554","","HighSchool","2008","95","David Snow","Gilmer","Texas","OG","76","300","4","0.9546","Gilmer","TX","USA","32.7312256","-94.9469309","48459"
"159555","378226","HighSchool","2008","96","Tavarres King","Habersham Central","Georgia","WR","73","169","4","0.9544","Mount Airy","GA","USA","34.5187106","-83.5007265","13137"
"159556","","HighSchool","2008","97","Derrick Hall","Beaumont Central","Texas A&M","ATH","70","200","4","0.9538","Corsicana","TX","USA","32.091299","-96.4646821","48349"
"159557","","HighSchool","2008","98","E.J. Woods","Crespi","UCLA","S","72","195","4","0.952","Encino","CA","USA","34.1591324","-118.5016166","06037"
"159558","382049","HighSchool","2008","99","Kenny Tate","DeMatha Catholic","Maryland","ILB","76","220","4","0.9516","Hyattsville","MD","USA","38.9529442","-76.9408647","24033"
"159559","","HighSchool","2008","100","Lerentee McCray","Dunnellon","Florida","OLB","74","252","4","0.9516","Dunnellon","FL","USA","29.0491426","-82.4609331","12083"
"159560","380710","HighSchool","2008","101","Rahim Moore","Dorsey","UCLA","S","73","196","4","0.9508","Los Angeles","CA","USA","34.0536909","-118.2427666","06037"
"159561","","HighSchool","2008","102","Courtney Upshaw","Eufaula","Alabama","OLB","74","265","4","0.95","Eufaula","AL","USA","31.905459999999998","-85.15893958513422","01005"
"159562","","HighSchool","2008","103","Landry Jones","Artesia","Oklahoma","PRO","76","229","4","0.9497","Artesia","NM","USA","32.8423345","-104.4032963","35015"
"159563","","HighSchool","2008","104","Andrew Sweat","Trinity","Ohio State","OLB","74","238","4","0.9484","Washington","PA","USA","40.17396","-80.2461714","42125"
"159564","","HighSchool","2008","105","Alonzo Lawrence","George County","Alabama","CB","73","185","4","0.9482","Lucedale","MS","USA","30.9251869","-88.5900235","28039"
"159565","381988","HighSchool","2008","105","Lamaar Thomas","Friendly","Ohio State","ATH","71","180","4","0.9482","Fort Washington","MD","USA","38.7125305","-77.0124598","24033"
"159566","","HighSchool","2008","107","C.J. Holton","Wakulla","Miami","S","74","195","4","0.9476","Crawfordville","FL","USA","30.1760358","-84.3751778","12129"
"159567","","HighSchool","2008","108","D.J. Grant","Lyndon B Johnson","Texas","WR","75","205","4","0.9475","Waco","TX","USA","31.549333","-97.1466695","48309"
"159568","","HighSchool","2008","109","Spencer Adams","Butler","Clemson","S","74","180","4","0.9473","Matthews","NC","USA","35.1170873","-80.723718","37119"
"159569","","HighSchool","2008","110","Andre Ellington","Berkeley","Clemson","APB","70","175","4","0.9471","Moncks Corner","SC","USA","33.1960027","-80.0131374","45015"
"159570","","HighSchool","2008","111","Khaled Holmes","Mater Dei","USC","OG","76","301","4","0.9457","Santa Ana","CA","USA","33.7494951","-117.8732213","06059"
"159571","","HighSchool","2008","112","J.B. Fitzgerald","West Windsor-Plainsboro South","Michigan","OLB","76","225","4","0.9449","Princeton Junction","NJ","USA","40.3159898","-74.6241189","34021"
"159572","","HighSchool","2008","113","Nolan Brewster","Mullen","Texas","S","73","195","4","0.9446","Denver","CO","USA","39.7392364","-104.9848623","08031"
"159573","379061","HighSchool","2008","114","Mark Ingram","Southwestern Commencement Academy","Alabama","RB","70","215","4","0.9444","Flint","MI","USA","43.0161693","-83.6900211","26049"
"159574","","HighSchool","2008","115","Jamoris Slaughter","Tucker","Notre Dame","S","73","185","4","0.9439","Tucker","GA","USA","33.8532701","-84.2200729","13089"
"159575","","HighSchool","2008","116","Brandon Moore","Trotwood-Madison","Michigan","TE","78","243","4","0.9436","Dayton","OH","USA","39.7589478","-84.1916069","39113"
"159576","","HighSchool","2008","117","Robert Golden","Edison","Arizona","CB","71","200","4","0.9433","Fresno","CA","USA","36.7295295","-119.70886126075588","06019"
"159577","378013","HighSchool","2008","118","Jeff Fuller","Boyd","Texas A&M","WR","76","205","4","0.9428","McKinney","TX","USA","33.1976496","-96.6154471","48085"
"159578","","HighSchool","2008","119","Corey Liuget","Hialeah","Illinois","DT","75","300","4","0.9422","Hialeah","FL","USA","25.8575963","-80.2781057","12086"
"159579","","HighSchool","2008","120","Braxston Cave","Penn","Notre Dame","OC","76","295","4","0.9419","Mishawaka","IN","USA","41.6619927","-86.1586156","18141"
"159580","236712","HighSchool","2008","121","Dravannti Johnson","Nederland","Texas","OLB","74","230","4","0.9416","Nederland","TX","USA","29.9743803","-93.9923965","48245"
"159581","","HighSchool","2008","122","Darius Barksdale","South Panola","Ole Miss","RB","72","195","4","0.9397","Batesville","MS","USA","34.3114982","-89.9442567","28107"
"159582","","HighSchool","2008","123","Tyler Westphal","Menasha","Wisconsin","WDE","78","230","4","0.9393","Menasha","WI","USA","44.2022293","-88.4465361","55139"
"159583","","HighSchool","2008","124","Tony Dye","Santiago","UCLA","CB","71","180","4","0.9387","Corona","CA","USA","33.8752945","-117.5664449","06065"
"159584","","HighSchool","2008","125","Ryan Baker","Blountstown","LSU","OLB","72","210","4","0.9382","Blountstown","FL","USA","30.4435293","-85.0451953","12013"
"159585","","HighSchool","2008","126","Dwayne Allen","Terry Sanford","Clemson","TE","76","245","4","0.9381","Fayetteville","NC","USA","35.0525759","-78.878292","37051"
"159586","381510","HighSchool","2008","127","Christian Wilson","Montour","North Carolina","ATH","74","228","4","0.9379","Mckees Rocks","PA","USA","40.4656244","-80.0656106","42003"
"159587","","HighSchool","2008","128","Boubacar Cissoko","Cass Technical","Michigan","CB","68","171","4","0.9374","Detroit","MI","USA","42.3315509","-83.0466403","26163"
"159588","","HighSchool","2008","129","Vinston Painter","Maury","Virginia Tech","OT","78","310","4","0.9371","Norfolk","VA","USA","36.8462923","-76.2929252","51710"
"159589","","HighSchool","2008","130","Benjamin Jones","Northwestern","Miami","OT","78","270","4","0.9369","Miami","FL","USA","25.7742658","-80.1936589","12086"
"159590","382642","HighSchool","2008","131","Tyler Wilson","Greenwood","Arkansas","PRO","75","220","4","0.9366","Greenwood","AR","USA","35.2156489","-94.2557663","05131"
"159591","","HighSchool","2008","132","Chris Burns","Wilmington","Pittsburgh","RB","70","185","4","0.9366","New Wilmington","PA","USA","41.1222812","-80.3328428","42073"
"159592","378491","HighSchool","2008","133","Chris Harper","Northwest","Oregon","RB","74","231","4","0.9366","Wichita","KS","USA","37.6922361","-97.3375448","20173"
"159593","","HighSchool","2008","134","Kye Staley","Guthrie","Oklahoma State","ATH","72","215","4","0.9365","Guthrie","OK","USA","35.8789231","-97.4252772","40083"
"159594","","HighSchool","2008","135","Rod Davis","Aldine Eisenhower","Texas A&M","DT","72","300","4","0.9362","Fort Scott","KS","USA","37.8399791","-94.7082882","20011"
"159595","","HighSchool","2008","136","Wes Horton","Notre Dame","USC","WDE","77","260","4","0.9355","Sherman Oaks","CA","USA","34.1508718","-118.4489865","06037"
"159596","","HighSchool","2008","137","Tommy Streeter","Northwestern","Miami","WR","77","200","4","0.9352","Miami","FL","USA","25.7742658","-80.1936589","12086"
"159597","","HighSchool","2008","138","Charles Mitchell","Clarksdale","Mississippi State","S","71","205","4","0.9349","Clarksdale","MS","USA","34.2006479","-90.5702071","28027"
"159598","382617","HighSchool","2008","139","Joe Adams","Central Arkansas Christian","Arkansas","WR","71","190","4","0.9348","Maumelle","AR","USA","34.8667565","-92.4043219","05119"
"159599","","HighSchool","2008","140","Michael Zordich","Cardinal Mooney","Penn State","OLB","74","225","4","0.9347","Youngstown","OH","USA","41.1035786","-80.6520161","39099"
"159600","","HighSchool","2008","141","Carlton Thomas","Frostproof","Georgia","RB","67","159","4","0.9341","Frostproof","FL","USA","27.7458626","-81.5306313","12105"
"159601","","HighSchool","2008","142","Michael Yancich","Trinity","Penn State","OLB","73","220","4","0.9341","Washington","PA","USA","40.17396","-80.2461714","42125"
"159602","","HighSchool","2008","143","Josh Jenkins","Parkersburg","West Virginia","OG","75","285","4","0.934","Parkersburg","WV","USA","39.2699565","-81.5506916","54107"
"159603","","HighSchool","2008","144","Stacy McGee","Muskogee","Oklahoma","DT","76","289","4","0.9338","Muskogee","OK","USA","35.7478769","-95.3696909","40101"
"159604","","HighSchool","2008","145","Terrell Manning","Scotland County","NC State","OLB","74","205","4","0.9337","Laurinburg","NC","USA","34.7740495","-79.4628248","37165"
"159605","","HighSchool","2008","146","Xavier Brewer","Bartram Trail","Clemson","CB","71","170","4","0.9337","Jacksonville","FL","USA","30.3321838","-81.655651","12031"
"159606","","HighSchool","2008","147","E.J. Abrams-Ward","Thomasville","Tennessee","ATH","77","210","4","0.9335","Thomasville","NC","USA","35.8831786","-80.081817","37057"
"159607","186000","HighSchool","2008","148","Michael Mauti","Mandeville","Penn State","OLB","73","225","4","0.9334","Mandeville","LA","USA","30.3582305","-90.0657477","22103"
"159608","","HighSchool","2008","149","Apaiata Tuihalamaka","Junipero Serra","Arizona","SDE","75","258","4","0.933","Gardena","CA","USA","33.8963593","-118.3053037","06037"
"159609","","HighSchool","2008","150","Joseph Ibiloye","South Garland","Oklahoma","OLB","75","195","4","0.9325","Garland","TX","USA","32.912624","-96.6388833","48113"
"159610","","HighSchool","2008","151","Chase Clement","E D White Catholic","LSU","SDE","77","241","4","0.9321","Thibodaux","LA","USA","29.7957633","-90.822871","22057"
"159611","","HighSchool","2008","152","Bobby Massie","Liberty Christian Academy","","OT","80","335","4","0.932","Lynchburg","VA","USA","37.4137536","-79.1422464","51680"
"159612","","HighSchool","2008","153","Bryce Givens","Mullen","Colorado","OT","78","257","4","0.9318","Denver","CO","USA","39.7392364","-104.9848623","08031"
"159613","","HighSchool","2008","154","Brandon Barnes","Bunn","NC State","ATH","72","185","4","0.9315","Bunn","NC","USA","35.959537","-78.2543185","37069"
"159614","380912","HighSchool","2008","155","Jarmon Fortson","Carver","Florida State","ATH","75","220","4","0.9314","Columbus","GA","USA","32.4609764","-84.9877094","13215"
"159615","","HighSchool","2008","156","Chris Tolliver","Rayville","LSU","WR","73","180","4","0.9312","Rayville","LA","USA","32.4773643","-91.7548473","22083"
"159616","","HighSchool","2008","157","Burton Scott","Vigor","Alabama","ATH","71","194","4","0.9311","Mobile","AL","USA","30.6943566","-88.0430541","01097"
"159617","","HighSchool","2008","158","Marcus Dowtin","Fork Union Military (HS)","Georgia","OLB","74","215","4","0.9311","Fork Union","VA","USA","37.7632986","-78.2626198","51065"
"159618","","HighSchool","2008","159","Barrett Jones","Evangelical Christian","Alabama","OG","77","311","4","0.9308","Ridgely","TN","USA","36.263401","-89.4878528","47095"
"159619","379206","HighSchool","2008","160","Chris Polk","Redlands East Valley","Washington","RB","71","205","4","0.9306","Redlands","CA","USA","34.055735","-117.1888961","06071"
"159620","","HighSchool","2008","161","Kyle Parker","Bartram Trail","Clemson","PRO","72","200","4","0.9305","Jacksonville","FL","USA","30.3321838","-81.655651","12031"
"159621","","HighSchool","2008","162","Nick Crissman","Edison","UCLA","PRO","75","210","4","0.9303","Huntington Beach","CA","USA","33.6783336","-118.0000166","06059"
"159623","","HighSchool","2008","163","Solomon Koehler","Castle","Arizona","DT","74","305","4","0.929","Kaneohe","HI","USA","21.4055","-157.7960716072044","15003"
"159622","","HighSchool","2008","163","Brandon Taylor","Franklinton","LSU","S","72","176","4","0.929","Franklinton","LA","USA","30.8471283","-90.153141","22117"
"159624","","HighSchool","2008","165","Lawrence Guy","Western","Arizona State","DT","77","265","4","0.9286","Las Vegas","NV","USA","36.1672559","-115.1485163","32003"
"159625","","HighSchool","2008","166","Cornelius Washington","Burke County","Georgia","OLB","76","220","4","0.9285","Waynesboro","GA","USA","33.0898731","-82.0156736","13033"
"159626","","HighSchool","2008","167","Vaughn Telemaque","Long Beach Poly","Miami","S","74","180","4","0.9284","Long Beach","CA","USA","33.7690164","-118.1916048","06037"
"159627","","HighSchool","2008","168","Dontavius Jackson","Heard County","Georgia","RB","71","195","4","0.9281","Franklin","GA","USA","33.2776182","-85.0979973","13149"
"159628","","HighSchool","2008","169","Travis Howard","Dr. Michael M. Krop","Ohio State","CB","72","190","4","0.9276","Miami","FL","USA","25.7742658","-80.1936589","12086"
"159629","","HighSchool","2008","170","Antoine Hicks","Mansfield Timberview","Texas","ATH","74","193","4","0.9265","Arlington","TX","USA","32.701938999999996","-97.10562379033699","48439"
"159630","240401","HighSchool","2008","171","Jeremy Brown","Boone","Florida","CB","70","185","4","0.9264","Orlando","FL","USA","28.5421109","-81.3790304","12095"
"159631","","HighSchool","2008","172","Dan McCarthy","Cardinal Mooney","Notre Dame","S","74","190","4","0.9262","Youngstown","OH","USA","41.1035786","-80.6520161","39099"
"159632","382156","HighSchool","2008","173","Travis Benjamin","Glades Central","Miami","WR","71","141","4","0.9259","Belle Glade","FL","USA","26.6845104","-80.6675577","12099"
"159633","","HighSchool","2008","174","Karnell Hatcher","Atlantic","LSU","S","74","186","4","0.9258","Delray Beach","FL","USA","26.4614625","-80.0728201","12099"
"159634","","HighSchool","2008","175","Aaron Hester","Compton Dominguez","UCLA","CB","72","180","4","0.9258","Compton","CA","USA","33.894927","-118.226624","06037"
"159635","377849","HighSchool","2008","176","Dejuan Miller","Metuchen","Oklahoma","WR","77","200","4","0.9257","Metuchen","NJ","USA","40.5431598","-74.3632049","34023"
"159636","","HighSchool","2008","177","Brandon Smith","New Brunswick","Michigan","S","75","210","4","0.9253","New Brunswick","NJ","USA","40.4862174","-74.4518173","34023"
"159637","380687","HighSchool","2008","178","Marvin Jones","Etiwanda","California","WR","74","177","4","0.9244","Rancho Cucamonga","CA","USA","34.1033192","-117.5751735","06071"
"159638","","HighSchool","2008","179","Daniel Franklin","Habersham Central","Oklahoma","ILB","74","233","4","0.9237","Mount Airy","GA","USA","34.5187106","-83.5007265","13137"
"159639","","HighSchool","2008","180","DeAngelo Peterson","Desire Street Academy","LSU","ATH","75","195","4","0.9233","Baton Rouge","LA","USA","30.4459596","-91.18738","22033"
"159640","381774","HighSchool","2008","181","Sam McGuffie","Cy-Fair","Michigan","RB","73","188","4","0.9228","Cypress","TX","USA","29.9691116","-95.6971686","48201"
"159641","","HighSchool","2008","182","Damien Holmes","Colton","UCLA","SDE","75","265","4","0.9227","Colton","CA","USA","34.0739016","-117.3136547","06071"
"159642","","HighSchool","2008","183","D.J. Monroe","Angleton","Texas","CB","69","165","4","0.9226","Angleton","TX","USA","29.16941","-95.4318847","48039"
"159643","","HighSchool","2008","184","Emmanuel Acho","St. Mark's","Texas","OLB","74","210","4","0.9223","Dallas","TX","USA","32.7762719","-96.7968559","48113"
"159644","","HighSchool","2008","185","Terrance Parks","Creekside","Florida State","S","73","200","4","0.922","Fairburn","GA","USA","33.5670562","-84.5810418","13121"
"159645","","HighSchool","2008","186","R.J. Mattes","Jay M. Robinson","NC State","OT","79","270","4","0.9213","Concord","NC","USA","35.4093772","-80.5797416","37025"
"159646","","HighSchool","2008","187","Jordan Fields","Paris","","CB","72","185","4","0.9213","Paris","TX","USA","33.6617962","-95.555513","48277"
"159647","","HighSchool","2008","188","Ryan Bass","Centennial","Arizona State","RB","70","186","4","0.9213","Corona","CA","USA","33.8752945","-117.5664449","06065"
"159648","","HighSchool","2008","189","Armond Armstead","Pleasant Grove","USC","DT","77","287","4","0.9212","Elk Grove","CA","USA","38.4087993","-121.3716178","06067"
"159649","","HighSchool","2008","190","Kevin Dorsey","Forestville Military Academy","Maryland","WR","74","210","4","0.9209","District Heights","MD","USA","38.8576128","-76.8894171","24033"
"159650","","HighSchool","2008","191","Kemonte Bateman","Crenshaw","Arizona State","WR","72","180","4","0.9206","Pasadena","CA","USA","34.1476452","-118.1444779","06037"
"159651","","HighSchool","2008","192","Cameron Saddler","Gateway","Pittsburgh","APB","66","157","4","0.9205","Monroeville","PA","USA","40.4211798","-79.7881025","42003"
"159652","","HighSchool","2008","193","Everrette Tompson","Kennedy Catholic","Washington","SDE","77","255","4","0.9204","Burien","WA","USA","47.469918","-122.3485274","53033"
"159653","381793","HighSchool","2008","194","Michael Shaw","Trotwood-Madison","Michigan","RB","72","185","4","0.9195","Dayton","OH","USA","39.7589478","-84.1916069","39113"
"159654","","HighSchool","2008","195","Max Tuioti-Mariner","Corona","Colorado","OG","76","300","4","0.9191","Corona","CA","USA","33.8752945","-117.5664449","06065"
"159655","","HighSchool","2008","196","Star Jackson","Lake Worth","Alabama","PRO","75","185","4","0.9188","Lake Worth","FL","USA","26.615891","-80.0691435","12099"
"159656","","HighSchool","2008","197","Melvin Ray","North Florida Christian","Alabama","WR","75","217","4","0.9186","Tallahassee","FL","USA","30.4380832","-84.2809332","12073"
"159657","","HighSchool","2008","198","Jarrell Barbour","Centennial","Arizona State","S","75","190","4","0.9186","Peoria","AZ","USA","33.5806115","-112.2372942","04013"
"159658","","HighSchool","2008","199","MarQueis Gray","Ben Davis","Minnesota","PRO","76","205","4","0.9185","Indianapolis","IN","USA","39.7683331","-86.1583502","18097"
"159659","381901","HighSchool","2008","200","Fred Smith","Southwestern","Michigan State","WR","74","207","4","0.9181","Detroit","MI","USA","42.3315509","-83.0466403","26163"
"159660","377892","HighSchool","2008","201","Brandon Beachum","Cardinal Mooney","Penn State","RB","73","220","4","0.918","Youngstown","OH","USA","41.1035786","-80.6520161","39099"
"159661","","HighSchool","2008","202","Patrick Nixon-Youman","Middleburg","Illinois","CB","70","180","4","0.9177","Jacksonville","FL","USA","30.3321838","-81.655651","12031"
"159662","","HighSchool","2008","203","Kerry Murphy","Hargrave Military Academy","Alabama","DT","77","325","4","0.917","Hoover","AL","USA","33.3848933","-86.8070484","01073"
"159663","","HighSchool","2008","204","Quinton Coples","Hargrave Military Academy (HS)","North Carolina","SDE","79","235","4","0.917","Chatham","VA","USA","36.8256943","-79.3980806","51143"
"159664","377862","HighSchool","2008","205","Josh Haden","Friendly","Boston College","RB","68","195","4","0.9169","Upper Marlboro","MD","USA","38.8165274","-76.7519753","24033"
"159665","382012","HighSchool","2008","206","Kevin Koger","Whitmer","Michigan","TE","76","235","4","0.9167","Toledo","OH","USA","41.6786754","-83.5127283","39095"
"159666","","HighSchool","2008","207","Michael Williams","Pickens County","Alabama","TE","78","269","4","0.9164","Reform","AL","USA","33.378451","-88.0153008","01107"
"159667","","HighSchool","2008","208","Daniel Campbell","Aldine","USC","OG","77","320","4","0.9161","Houston","TX","USA","29.7589382","-95.3676974","48201"
"159668","","HighSchool","2008","209","Datone Jones","Compton","UCLA","SDE","76","272","4","0.9159","Compton","CA","USA","33.894927","-118.226624","06037"
"159669","","HighSchool","2008","210","Ben Jones","Bibb County","Georgia","OC","74","306","4","0.9156","Centreville","AL","USA","32.9445682","-87.1386067","01007"
"159670","","HighSchool","2008","211","Sean Cwynar","Marian Central Catholic","Notre Dame","DT","76","284","4","0.9156","Woodstock","IL","USA","42.3147529","-88.4474302","17111"
"159671","","HighSchool","2008","212","Adrian  Bushell","DeSoto","Florida","CB","71","184","4","0.9153","DeSoto","TX","USA","32.6061241","-96.865612653687","48113"
"159672","","HighSchool","2008","213","Joseph Fauria","Crespi","Notre Dame","TE","80","250","4","0.915","Encino","CA","USA","34.1591324","-118.5016166","06037"
"159673","","HighSchool","2008","214","Mike Martin","Catholic Central","Michigan","DT","74","278","4","0.9149","Novi","MI","USA","42.48059","-83.4754913","26125"
"159674","","HighSchool","2008","215","Willie Mobley","Eden Prairie","Ohio State","DT","74","277","4","0.9145","Eden Prairie","MN","USA","44.8546856","-93.470786","27053"
"159675","382668","HighSchool","2008","216","Eric Smith","Armwood","Auburn","FB","70","239","4","0.9145","Seffner","FL","USA","27.998541000000003","-82.27488400114905","12057"
"159676","","HighSchool","2008","217","Anthony McDonald","Notre Dame","Notre Dame","ILB","75","220","4","0.9142","Sherman Oaks","CA","USA","34.1508718","-118.4489865","06037"
"159677","","HighSchool","2008","218","Cordy Glenn","Riverdale","Georgia","OT","78","315","4","0.9141","Riverdale","GA","USA","33.5726113","-84.4132594","13063"
"159679","","HighSchool","2008","218","Averin Collier","Churchville-chili Senior","Syracuse","ATH","71","195","4","0.9141","Churchville","NY","USA","43.104228","-77.884454","36055"
"159678","","HighSchool","2008","218","Zebrie Sanders","Northmont","Florida State","OT","77","275","4","0.9141","Dayton","OH","USA","39.7589478","-84.1916069","39113"
"159680","389232","HighSchool","2008","221","A.J. Alexander","Altoona","Florida State","ATH","72","180","4","0.9135","Altoona","PA","USA","40.518681","-78.394736","42013"
"159681","382708","HighSchool","2008","222","Enrique Davis","Hargrave Military Academy","Ole Miss","RB","71","220","4","0.9133","Lynn Haven","FL","USA","30.2454776","-85.648261","12005"
"159682","","HighSchool","2008","223","Austin Holt","Bingham","BYU","TE","78","230","4","0.9133","South Jordan","UT","USA","40.5621704","-111.929658","49035"
"159683","382884","HighSchool","2008","224","Aaron Boyd","Henry Clay","Kentucky","WR","76","195","4","0.9122","Lexington","KY","USA","38.0464066","-84.4970393","21067"
"159684","","HighSchool","2008","225","Matt Branch","Sterlington","LSU","OT","79","240","4","0.9121","Monroe","LA","USA","32.5093109","-92.1193012","22073"
"159686","","HighSchool","2008","226","Terrence Robinson","Klein Oak","Michigan","WR","69","170","4","0.912","Spring","TX","USA","30.0798826","-95.4172549","48201"
"159685","","HighSchool","2008","226","Mark Buchanan","Austin","Texas","OT","78","275","4","0.912","Austin","TX","USA","30.2711286","-97.7436995","48453"
"159687","","HighSchool","2008","228","Jurrell Casey","Long Beach Poly","USC","DT","73","280","4","0.9118","Long Beach","CA","USA","33.7690164","-118.1916048","06037"
"159688","377934","HighSchool","2008","229","Jeremy Hills","Alief Elsik","Texas","RB","71","181","4","0.9117","Houston","TX","USA","29.7589382","-95.3676974","48201"
"159689","","HighSchool","2008","230","Omarius Hines","Corsicana","Florida","WR","72","220","4","0.9116","Corsicana","TX","USA","32.091299","-96.4646821","48349"
"159690","","HighSchool","2008","231","Jamal Womble","Buena","North Carolina","RB","71","216","4","0.9114","Hutchinson","KS","USA","38.0608444","-97.9297743","20155"
"159692","","HighSchool","2008","232","Nathan Williams","Miami Trace","Ohio State","SDE","75","260","4","0.9113","Washington Court House","OH","USA","39.5364511","-83.4390843","39047"
"159691","","HighSchool","2008","232","Aaron Douglas","Maryville","Tennessee","TE","78","245","4","0.9113","Maryville","TN","USA","35.7564719","-83.9704593","47009"
"159693","379065","HighSchool","2008","234","Andrew Jones","Smithville","Missouri","TE","77","228","4","0.9113","Smithville","MO","USA","39.3868396","-94.5815937","29047"
"159694","","HighSchool","2008","235","Kerry Boykins","Oscar Smith","Maryland","WR","73","200","4","0.9112","Chesapeake","VA","USA","36.7183708","-76.2466798","51550"
"159695","","HighSchool","2008","236","Hamani Stevens","Hemet","Oregon","OG","76","290","4","0.9106","Hemet","CA","USA","33.7475203","-116.9719684","06065"
"159696","","HighSchool","2008","237","Devonta Bolton","Norcross","Alabama","ATH","76","220","4","0.9104","Norcross","GA","USA","33.9412127","-84.2135309","13135"
"159697","","HighSchool","2008","238","Lane Clelland","McDonogh School","Notre Dame","OT","77","270","4","0.9103","Owings Mills","MD","USA","39.4010753","-76.796299","24005"
"159698","","HighSchool","2008","239","Christian Robinson","Greater Atlanta Christian School","Georgia","ILB","74","204","4","0.9102","Norcross","GA","USA","33.9412127","-84.2135309","13135"
"159699","","HighSchool","2008","240","Marcell Dareus","Huffman","Alabama","SDE","76","306","4","0.9102","Birmingham","AL","USA","33.5206824","-86.8024326","01073"
"159700","","HighSchool","2008","241","Graham Pocic","Lemont","Illinois","OT","79","305","4","0.9099","Lemont","IL","USA","41.6737149","-88.0016263","17031"
"159701","","HighSchool","2008","242","Torrey Mack","Stratford","Virginia","RB","72","190","4","0.9097","Stratford","CT","USA","41.1845415","-73.1331651","09001"
"159702","","HighSchool","2008","243","Art Forst","Manasquan","Rutgers","OT","80","288","4","0.9097","Manasquan","NJ","USA","40.126226","-74.049304","34025"
"159703","","HighSchool","2008","244","Kenneth Page","A.C. Flora","Clemson","OG","76","295","4","0.9096","Columbia","SC","USA","34.0007493","-81.0343313","45079"
"159704","","HighSchool","2008","245","Marcus Witherspoon","Holy Spirit","Michigan","OLB","74","215","4","0.9092","Absecon","NJ","USA","39.4284503","-74.4957076","34001"
"159705","","HighSchool","2008","246","Ben Habern","Liberty Christian","Oklahoma","OC","76","292","4","0.9086","Argyle","TX","USA","33.110156","-97.17940980147037","48121"
"159706","378564","HighSchool","2008","247","Jordan Jefferson","Destrehan","LSU","PRO","77","200","4","0.9084","Destrehan","LA","USA","29.960933","-90.3705407077716","22089"
"159707","","HighSchool","2008","248","Dion Jordan","Chandler","Oregon","WDE","78","215","4","0.9083","Chandler","AZ","USA","33.3062223","-111.8413317","04013"
"159708","379430","HighSchool","2008","249","Kendall Wright","Pittsburg","Baylor","ATH","71","170","4","0.9082","Pittsburg","TX","USA","32.9954021","-94.9657688","48063"
"159709","","HighSchool","2008","250","Frankie Hammond Jr.","Hallandale","Florida","WR","71","178","4","0.9076","Hallandale","FL","USA","25.985600599999998","-80.13999671464335","12011"
"159710","","HighSchool","2008","251","Alameda Ta'amu","Rainier Beach","Washington","OG","76","330","4","0.9072","Seattle","WA","USA","47.6038321","-122.3300624","53033"
"159711","","HighSchool","2008","252","Markelle Martin","Rider","Oklahoma State","S","73","180","4","0.9065","Wichita Falls","TX","USA","33.9137085","-98.4933873","48485"
"159712","","HighSchool","2008","253","Chris Jordan","Brentwood Academy","Alabama","ILB","75","240","4","0.9062","Brentwood","TN","USA","36.0325687","-86.7825235","47187"
"159713","381895","HighSchool","2008","254","Hubie Graham","West Scranton","Illinois","TE","76","225","4","0.9061","Scranton","PA","USA","41.4086874","-75.6621294","42069"
"159714","","HighSchool","2008","255","John Goodman","Bishop Dwenger","Notre Dame","WR","76","192","4","0.906","Fort Wayne","IN","USA","41.0799898","-85.1386015","18003"
"159715","","HighSchool","2008","256","Ken Plue","Milford Academy","Purdue","OT","80","340","4","0.9059","New Berlin","NY","USA","42.6239023","-75.3321363","36017"
"159716","","HighSchool","2008","257","Brandon Boykin","Fayette County","Georgia","CB","70","162","4","0.9058","Fayetteville","GA","USA","33.4487257","-84.4549262","13113"
"159717","381277","HighSchool","2008","258","Jeff Demps","South Lake","Florida","RB","68","188","4","0.9056","Groveland","FL","USA","28.5580546","-81.8511889","12069"
"159718","377700","HighSchool","2008","259","Jacory Harris","Northwestern","Miami","PRO","76","169","4","0.9055","Miami","FL","USA","25.7742658","-80.1936589","12086"
"159719","","HighSchool","2008","260","John Michael Boswell","Tuscaloosa County","Alabama","OT","78","290","4","0.9053","Northport","AL","USA","33.2449315","-87.6728397782913","01125"
"159720","","HighSchool","2008","261","Milton Knox","Birmingham","UCLA","RB","68","195","4","0.9052","Van Nuys","CA","USA","34.1866193","-118.4486669","06037"
"159721","","HighSchool","2008","262","Zach Brown","Hargrave Military Academy","North Carolina","OLB","73","210","4","0.9052","Chatham","VA","USA","36.8256943","-79.3980806","51143"
"159722","","HighSchool","2008","263","Damion Square","Yates","Alabama","SDE","75","285","4","0.9047","Houston","TX","USA","29.7589382","-95.3676974","48201"
"159723","","HighSchool","2008","264","David King","Strake Jesuit","Oklahoma","SDE","77","273","4","0.9043","Houston","TX","USA","29.7589382","-95.3676974","48201"
"159724","","HighSchool","2008","265","Vince Williams","Ridge Community","Florida State","ILB","73","210","4","0.904","Davenport","FL","USA","28.1614046","-81.6017417","12105"
"159725","382643","HighSchool","2008","266","Jarius Wright","Warren","Arkansas","WR","70","180","4","0.9035","Warren","AR","USA","33.6126086","-92.0645831","05011"
"159726","","HighSchool","2008","267","Robert Quinn","Fort Dorchester","North Carolina","WDE","76","245","4","0.9035","North Charleston","SC","USA","32.9131295","-80.0629981965219","45019"
"159727","","HighSchool","2008","268","Winston Guy","Lexington Catholic","Kentucky","S","73","215","4","0.9033","Lexington","KY","USA","38.0464066","-84.4970393","21067"
"159728","","HighSchool","2008","269","Keanon Cooper","Skyline","Minnesota","S","72","190","4","0.9033","Dallas","TX","USA","32.7762719","-96.7968559","48113"
"159729","","HighSchool","2008","270","Antonio Jeremiah","Hilliard Darby","Michigan State","DT","77","300","4","0.903","Hilliard","OH","USA","40.033814","-83.1596108","39049"
"159730","","HighSchool","2008","271","Chris Jackson","Henry County","Alabama","RB","73","205","4","0.9026","McDonough","GA","USA","33.4473361","-84.1468616","13151"
"159731","380731","HighSchool","2008","272","Antwon Moutra","Culver City","UCLA","WR","70","185","4","0.9025","Culver City","CA","USA","34.0278787","-118.3888493","06037"
"159732","","HighSchool","2008","273","British Footman","Amos P. Godby","","RB","73","185","4","0.9025","Tallahassee","FL","USA","30.4380832","-84.2809332","12073"
"159733","377869","HighSchool","2008","274","Marquan Jones","Blythewood","Clemson","WR","72","175","4","0.9024","Columbia","SC","USA","34.0007493","-81.0343313","45079"
"159734","","HighSchool","2008","275","Anthony Dye","Santiago","UCLA","CB","71","179","4","0.9022","Corona","CA","USA","33.8752945","-117.5664449","06065"
"159735","","HighSchool","2008","276","Spencer Ladner","The Pembroke Hill School","California","TE","78","230","4","0.9018","Kansas City","MO","USA","39.100105","-94.5781416","29095"
"159736","","HighSchool","2008","277","Dan Hoch","Harlan","Missouri","OT","79","310","4","0.9017","Harlan","IA","USA","41.6532994","-95.3250603","19165"
"159737","385320","HighSchool","2008","278","Robert Blanton","Butler","Notre Dame","CB","73","177","4","0.9016","Matthews","NC","USA","35.1170873","-80.723718","37119"
"159738","","HighSchool","2008","279","Cordale Scott","Glenville","Illinois","WR","75","200","4","0.9014","Cleveland","OH","USA","41.5051613","-81.6934446","39035"
"159739","","HighSchool","2008","280","Chaz Sutton","Jenkins","South Carolina","WDE","75","230","4","0.9014","Fork Union","VA","USA","37.7632986","-78.2626198","51065"
"159740","","HighSchool","2008","281","Nick Moody","Roman Catholic","Florida State","S","73","215","4","0.9011","Wyncote","PA","USA","40.0945549","-75.1487863","42091"
"159741","","HighSchool","2008","282","Tyler Rigsbee","Pleasant Valley","California","OT","77","250","4","0.901","Chico","CA","USA","39.7284945","-121.8374777","06007"
"159742","244300","HighSchool","2008","283","Eric Baker","Fork Union Military Academy","South Carolina","RB","71","190","4","0.9007","Fork Union","VA","USA","37.7632986","-78.2626198","51065"
"159743","","HighSchool","2008","284","Jeremy Lewis","Palm Beach Lakes","Miami","OG","75","271","4","0.9005","West Palm Beach","FL","USA","26.715364","-80.0532942","12099"
"159744","377838","HighSchool","2008","285","James Hanna","Flower Mound","Oklahoma","TE","77","220","4","0.9004","Flower Mound","TX","USA","33.0283854","-97.0867203","48121"
"159745","","HighSchool","2008","286","Destin Hood","St. Paul's Episcopal","Alabama","WR","75","190","4","0.9002","Mobile","AL","USA","30.6943566","-88.0430541","01097"
"159746","","HighSchool","2008","287","Okechuckwu Okoroha","Eleanor Roosevelt","Boston College","S","72","183","4","0.9001","Greenbelt","MD","USA","39.0099993","-76.9125366","24033"
"159747","","HighSchool","2008","288","Ray Polk","Brophy College Preparatory","Colorado","RB","72","195","4","0.9","Phoenix","AZ","USA","33.4484367","-112.0741417","04013"
"159748","378126","HighSchool","2008","289","Matt Scott","Centennial","Arizona","DUAL","75","195","4","0.9","Corona","CA","USA","33.8752945","-117.5664449","06065"
"159753","","HighSchool","2008","289","Allen Carroll","McClymonds","Washington","OG","76","286","4","0.9","Oakland","CA","USA","37.8044557","-122.2713563","06001"
"159754","","HighSchool","2008","289","Jerico Nelson","Destrehan","Arkansas","OLB","70","211","4","0.9","Destrehan","LA","USA","29.960933","-90.3705407077716","22089"
"159755","","HighSchool","2008","289","Andrew Wolridge","Lexington","Texas A&M","SDE","73","275","4","0.9","Lexington","TX","USA","30.415222","-97.0097922","48287"
"159756","","HighSchool","2008","289","Lamar Harris","Gilmer","Oklahoma","S","74","180","4","0.9","Gilmer","TX","USA","32.7312256","-94.9469309","48459"
"159749","378502","HighSchool","2008","289","Darron Thomas","Aldine","Oregon","DUAL","76","195","4","0.9","Houston","TX","USA","29.7589382","-95.3676974","48201"
"159750","","HighSchool","2008","289","Robby Green","John Curtis","Alabama","CB","72","181","4","0.9","New Orleans","LA","USA","29.9499323","-90.0701156","22071"
"159751","","HighSchool","2008","289","Templeton Hardy","North Panola","Mississippi State","OG","76","305","4","0.9","Sardis","MS","USA","34.4370511","-89.9159227","28107"
"159752","","HighSchool","2008","289","Ricky Barnum","Lake Gibson","Michigan","OT","74","246","4","0.9","Lakeland","FL","USA","28.0394654","-81.9498042","12105"
"159757","380361","HighSchool","2008","298","Ryan Deehan","Poway","Colorado","TE","77","228","4","0.9","Poway","CA","USA","32.9628234","-117.0358646","06073"
"159758","","HighSchool","2008","299","Tommy Dorman","Birdville","Texas A&M","DUAL","75","205","4","0.8998","North Richland Hills","TX","USA","32.8342952","-97.2289029","48439"
"159759","382585","HighSchool","2008","300","Marcus Sales","Christian Brothers Academy","Syracuse","WR","74","185","4","0.8997","Albany","NY","USA","42.6511674","-73.754968","36001"
"159760","","HighSchool","2008","301","Johnathan Franklin","Dorsey","UCLA","RB","70","198","4","0.8997","Los Angeles","CA","USA","34.0536909","-118.2427666","06037"
"159761","380977","HighSchool","2008","302","Sedrick Johnson","Arp","Iowa State","WR","76","200","4","0.8997","Arp","TX","USA","32.2254831","-95.059035","48423"
"159762","","HighSchool","2008","303","Greg Shaw","Monsignor Pace","LSU","OT","77","267","4","0.8995","Opa Locka","FL","USA","25.896733849999997","-80.25949640850294","12086"
"159763","380905","HighSchool","2008","304","Jermaine Thomas","First Coast","Florida State","RB","71","190","4","0.8989","Jacksonville","FL","USA","30.3321838","-81.655651","12031"
"159764","","HighSchool","2008","305","Bruce Taylor","Myrtle Beach","Virginia Tech","ILB","74","235","4","0.8986","Myrtle Beach","SC","USA","33.6956461","-78.8900409","45051"
"159765","380727","HighSchool","2008","306","Nelson Rosario","El Camino","UCLA","WR","77","205","4","0.8984","Oceanside","CA","USA","33.1958696","-117.3794834","06073"
"159766","","HighSchool","2008","307","Tyler Edwards","Ouachita Parish","LSU","TE","75","222","4","0.8983","Monroe","LA","USA","32.5093109","-92.1193012","22073"
"159767","","HighSchool","2008","308","Brandon Newman","Pleasure Ridge Park","Notre Dame","DT","73","300","4","0.8983","Louisville","KY","USA","38.2542376","-85.759407","21111"
"159768","","HighSchool","2008","309","Elliott Mealer","Wauseon","Michigan","OG","78","280","4","0.8983","Wauseon","OH","USA","41.546069","-84.1362047","39051"
"159769","","HighSchool","2008","310","Everett Dawkins","Byrnes","Florida State","DT","75","281","4","0.8983","Duncan","SC","USA","34.9378962","-82.1451096","45083"
"159770","378497","HighSchool","2008","311","Robert Griffin III","Copperas Cove","Baylor","DUAL","74","220","4","0.8979","Copperas Cove","TX","USA","31.124062","-97.9030785","48099"
"159774","381927","HighSchool","2008","312","Brandon Green","Robeson","Minnesota","WR","72","170","4","0.8978","Chicago","IL","USA","41.8755616","-87.6244212","17031"
"159773","","HighSchool","2008","312","Onterrio McCalebb","Fort Meade","Auburn","APB","70","154","4","0.8978","Fort Meade","FL","USA","27.7522526","-81.8017491","12105"
"159772","","HighSchool","2008","312","Onterio McCalebb","Fort Meade","Auburn","APB","70","175","4","0.8978","Fort Meade","FL","USA","27.7522526","-81.8017491","12105"
"159771","","HighSchool","2008","312","Dont'a Hightower","Marshall County","Alabama","OLB","76","260","4","0.8978","Lewisburg","TN","USA","35.4492404","-86.7888887","47117"
"159775","","HighSchool","2008","316","Ryan Roberson","Brenham","Texas","FB","70","210","4","0.8977","Brenham","TX","USA","30.1668828","-96.3977442","48477"
"159776","","HighSchool","2008","317","Kheeston Randall","Monsignor Kelly Catholic","Texas","DT","77","267","4","0.8976","Beaumont","TX","USA","30.0860459","-94.1018461","48245"
"159777","","HighSchool","2008","318","Moses McCray","Hillsborough","Florida State","DT","74","280","4","0.8972","Tampa","FL","USA","27.9477595","-82.458444","12057"
"159778","","HighSchool","2008","319","Sean Renfree","Notre Dame Preparatory","Duke","PRO","75","205","4","0.897","Scottsdale","AZ","USA","33.4942189","-111.9260184","04013"
"159779","","HighSchool","2008","320","Zach Schlink","Centennial","Arizona State","OG","76","295","4","0.8968","Peoria","AZ","USA","33.5806115","-112.2372942","04013"
"159781","","HighSchool","2008","321","Masengo Kabongo","Fairfield College Preparatory","Maryland","DT","75","279","4","0.8967","Fairfield","CT","USA","41.1412078","-73.2637258","09001"
"159782","","HighSchool","2008","321","Xavier Avery","Cedar Grove","Georgia","ATH","71","185","4","0.8967","Ellenwood","GA","USA","33.6101096","-84.287978","13063"
"159783","","HighSchool","2008","321","Kapron Lewis-Moore","Weatherford","Notre Dame","SDE","76","225","4","0.8967","Weatherford","TX","USA","32.7589648","-97.7970748","48367"
"159785","","HighSchool","2008","321","Cameron Henderson","Shades Valley","Auburn","WDE","77","240","4","0.8967","Birmingham","AL","USA","33.5206824","-86.8024326","01073"
"159784","","HighSchool","2008","321","Curt Phillips","Sullivan South","Wisconsin","PRO","75","212","4","0.8967","Nashville","TN","USA","36.1622296","-86.7743531","47037"
"159780","","HighSchool","2008","321","Brandon Lewis","Pleasant Grove","Alabama","SDE","75","275","4","0.8967","Pleasant Grove","AL","USA","33.4909405","-86.9702714","01073"
"159786","","HighSchool","2008","327","D.J. Coles","Goochland","Virginia Tech","WR","75","210","4","0.8965","Goochland","VA","USA","37.6824439","-77.884925","51075"
"159787","","HighSchool","2008","328","Kyle Prater","Tivy","LSU","OLB","74","215","4","0.8962","Kerrville","TX","USA","30.0474688","-99.1400207","48265"
"159788","381685","HighSchool","2008","329","A.J. Jenkins","Terry Parker","Illinois","WR","73","170","4","0.8958","Jacksonville","FL","USA","30.3321838","-81.655651","12031"
"159790","","HighSchool","2008","330","Dalton Freeman","Pelion","Clemson","OG","76","260","4","0.8956","Pelion","SC","USA","33.7625708","-81.2445502","45063"
"159789","","HighSchool","2008","330","Will Compton","North Co. Sr.","Nebraska","ATH","74","214","4","0.8956","Bonne Terre","MO","USA","37.9247678","-90.5510587","29187"
"159792","","HighSchool","2008","330","Earl Okine","Gainesville","Florida","SDE","79","290","4","0.8956","Gainesville","FL","USA","29.6519684","-82.3249846","12001"
"159791","","HighSchool","2008","330","Omoregie Uzzi","Chamblee Charter","Georgia Tech","OG","76","298","4","0.8956","Atlanta","GA","USA","33.7490987","-84.3901849","13121"
"159793","","HighSchool","2008","334","Nick Cody","Hockinson","Oregon","OT","77","289","4","0.8954","Brush Prairie","WA","USA","45.7328835","-122.54325434095071","53011"
"159794","380479","HighSchool","2008","335","Chris Owusu","Oaks Christian","Stanford","WR","73","177","4","0.8953","Thousand Oaks","CA","USA","34.17142715","-118.91058772974445","06111"
"159795","","HighSchool","2008","336","Matt Stankiewitch","Blue Mountain","Penn State","OG","75","293","4","0.8951","Schuylkill Haven","PA","USA","40.6306464","-76.171054","42107"
"159796","","HighSchool","2008","337","Mike Goodman","Columbus","Boston College","OT","77","270","4","0.8949","Miami","FL","USA","25.7742658","-80.1936589","12086"
"159797","","HighSchool","2008","338","Quillie Odom","Hargrave Military Academy","Virginia Tech","OLB","74","220","4","0.8948","Chatham","VA","USA","36.8256943","-79.3980806","51143"
"159798","","HighSchool","2008","339","Josh Williams","Ryan","Nebraska","WDE","77","220","4","0.8947","Denton","TX","USA","33.2150386","-97.1330516","48121"
"159799","","HighSchool","2008","340","Sam Maresh","Champlin Park","Minnesota","ILB","74","240","4","0.8945","Council Bluffs","IA","USA","41.2621283","-95.8613912","19155"
"159800","","HighSchool","2008","341","Rod Wilks","Smyrna","Tennessee","S","72","214","4","0.8941","Smyrna","TN","USA","35.9828413","-86.5186045","47149"
"159801","","HighSchool","2008","342","Mark Wedderburn","Cardinal O'Hara","Penn State","TE","77","235","4","0.894","Springfield","PA","USA","39.9306677","-75.3201879","42045"
"159802","","HighSchool","2008","343","Senio Kelemete","Evergreen","Washington","OT","77","265","4","0.8936","Burien","WA","USA","47.469918","-122.3485274","53033"
"159803","","HighSchool","2008","344","David Whitmore","Memorial","Nebraska","CB","74","190","4","0.8933","Port Arthur","TX","USA","29.8988618","-93.9288723","48245"
"159809","","HighSchool","2008","344","Kenny Demens","Detroit Country Day","","ILB","73","224","4","0.8933","Franklin","MI","USA","42.5222567","-83.3060432","26125"
"159808","","HighSchool","2008","344","DeRon Furr","Carver","Auburn","ATH","75","212","4","0.8933","Columbus","GA","USA","32.4609764","-84.9877094","13215"
"159807","","HighSchool","2008","344","Malik Jackson","Birmingham","USC","DT","77","265","4","0.8933","Van Nuys","CA","USA","34.1866193","-118.4486669","06037"
"159806","","HighSchool","2008","344","Cameron Chism","Bishop McNamara","Maryland","CB","73","175","4","0.8933","District Heights","MD","USA","38.8576128","-76.8894171","24033"
"159805","","HighSchool","2008","344","Harrison Jeffers","Eisenhower","Texas Tech","RB","67","208","4","0.8933","Lawton","OK","USA","34.6086854","-98.3903305","40031"
"159804","","HighSchool","2008","344","Keith Stroud","Fork Union Military Academy","","WR","76","205","4","0.8933","Fork Union","VA","USA","37.7632986","-78.2626198","51065"
"159810","","HighSchool","2008","352","Jerry Johnson","Venice","","WR","75","190","4","0.8932","Venice","CA","USA","33.995044","-118.4668875","06037"
"159811","","HighSchool","2008","353","Keith Wells","Gainesville","","WDE","77","215","4","0.8928","Gainesville","GA","USA","34.2978794","-83.8240663","13139"
"159812","","HighSchool","2008","354","Dewitt  Stuckey","Lincoln","","OLB","72","212","4","0.8922","Stockton","CA","USA","37.9577016","-121.2907796","06077"
"159813","","HighSchool","2008","355","Luke Poehlmann","Brenham","","OT","78","260","4","0.892","Brenham","TX","USA","30.1668828","-96.3977442","48477"
"159814","","HighSchool","2008","356","Delano Howell","Hart","","APB","72","180","4","0.891","Newhall","CA","USA","37.3485422","-121.9203988069216","06085"
"159815","","HighSchool","2008","356","D'Anton Lynn","Celina","","S","73","180","4","0.891","Celina","TX","USA","33.3238976","-96.785342","48085"
"159816","","HighSchool","2008","358","Marc Anthony","Chandler","","CB","72","182","4","0.8907","Chandler","AZ","USA","33.3062223","-111.8413317","04013"
"159817","","HighSchool","2008","359","Curtis McNeal","Venice","","RB","66","180","4","0.8904","Los Angeles","CA","USA","34.0536909","-118.2427666","06037"
"159818","","HighSchool","2008","359","Harry Adams","Dillard","","WR","72","175","4","0.8904","Fort Lauderdale","FL","USA","26.1223084","-80.1433786","12011"
"159819","","HighSchool","2008","361","Maurice Simmons","Compton Dominguez","","OLB","74","203","4","0.8901","Compton","CA","USA","33.894927","-118.226624","06037"
"159825","","HighSchool","2008","362","Bo Tillman","Franklin","","OT","78","285","3","0.89","Meadville","MS","USA","31.4723928","-90.8967682","28037"
"159820","","HighSchool","2008","362","Robert Lester","Foley","","S","74","210","3","0.89","Foley","AL","USA","30.4065868","-87.6835974","01003"
"159821","","HighSchool","2008","362","Matt Hall","Russellville","","OT","82","320","3","0.89","Russellville","AR","USA","35.2784173","-93.1337856","05115"
"159822","","HighSchool","2008","362","Glenn Harbin","McGill Toolen","","WDE","77","260","3","0.89","Mobile","AL","USA","30.6943566","-88.0430541","01097"
"159824","","HighSchool","2008","362","Reggie Ellis","Dunbar","","DT","74","278","3","0.89","Washington","DC","USA","38.8949855","-77.0365708","11001"
"159823","","HighSchool","2008","362","Marlon Walls","Olive Branch","","OLB","74","225","3","0.89","Chatham","VA","USA","36.8256943","-79.3980806","51143"
"159826","","HighSchool","2008","368","Sam Jones","Hargrave Military Academy","","OT","78","275","3","0.8896","Chatham","VA","USA","36.8256943","-79.3980806","51143"
"159827","","HighSchool","2008","369","David Grant","Killeen","","OT","78","278","3","0.8894","Killeen","TX","USA","31.1171441","-97.727796","48027"
"159828","","HighSchool","2008","370","Vincent Hill","Milford Academy","","WR","72","190","3","0.8889","New Berlin","NY","USA","42.6239023","-75.3321363","36017"
"159838","","HighSchool","2008","371","Tony Gillespie","Jenks","","DT","73","298","3","0.8889","Jenks","OK","USA","36.0228734","-95.9683278","40143"
"159837","","HighSchool","2008","371","Tauren Poole","Stephens County","","RB","71","213","3","0.8889","Toccoa","GA","USA","34.5774368","-83.332881","13257"
"159836","","HighSchool","2008","371","Shaq Wilson","First Coast","","ILB","71","229","3","0.8889","Jacksonville","FL","USA","30.3321838","-81.655651","12031"
"159835","","HighSchool","2008","371","Malcolm Munroe","Coral Reef","","OLB","75","195","3","0.8889","Miami","FL","USA","25.7742658","-80.1936589","12086"
"159834","","HighSchool","2008","371","Drew McAllister","Monte Vista","","S","74","195","3","0.8889","Danville","CA","USA","37.8215929","-121.9999606","06013"
"159833","","HighSchool","2008","371","John Wienke","Tuscola","","PRO","77","220","3","0.8889","Tuscola","IL","USA","39.7991986","-88.2831038","17041"
"159832","","HighSchool","2008","371","Martin Ward","Mount Zion","","RB","70","182","3","0.8889","Jonesboro","GA","USA","33.5215013","-84.3538128","13063"
"159831","","HighSchool","2008","371","Reggie Hunt","Daphne","","APB","70","180","3","0.8889","Daphne","AL","USA","30.6035255","-87.9036047","01003"
"159830","","HighSchool","2008","371","Jamaar Jarrett","Mission Hills","","SDE","78","238","3","0.8889","San Marcos","CA","USA","33.1433723","-117.1661449","06073"
"159829","","HighSchool","2008","371","Craig Noble","Taft","","DT","75","285","3","0.8889","Woodland Hills","CA","USA","34.1684364","-118.6058382","06037"
"159839","","HighSchool","2008","381","Jermaine Kearse","Lakes","","WR","72","170","3","0.8886","Lakewood","WA","USA","47.1714085","-122.5164","53053"
"159840","","HighSchool","2008","382","David DeCastro","Bellevue","","OC","77","285","3","0.8885","Bellevue","WA","USA","47.6144219","-122.1923372","53033"
"159842","","HighSchool","2008","383","Martavious Odoms","Pahokee","","WR","68","164","3","0.8881","Pahokee","FL","USA","26.8200607","-80.6653351","12099"
"159841","","HighSchool","2008","383","Kevin Reddick","New Bern","","OLB","74","208","3","0.8881","Chatham","VA","USA","36.8256943","-79.3980806","51143"
"159843","","HighSchool","2008","385","Taylor Cook","Rice","","PRO","79","210","3","0.8877","Rice","TX","USA","32.2437586","-96.4985967","48349"
"159844","","HighSchool","2008","386","Tarik  Rollins","Chaminade-Madonna","","OLB","74","190","3","0.8872","Hollywood","FL","USA","26.0112014","-80.1494901","12011"
"159845","","HighSchool","2008","387","Roy Roundtree","Trotwood-Madison","","WR","73","154","3","0.8867","Dayton","OH","USA","39.7589478","-84.1916069","39113"
"159848","","HighSchool","2008","387","Clay Spencer","Parkview Baptist School","","OG","77","285","3","0.8867","Baton Rouge","LA","USA","30.4459596","-91.18738","22033"
"159847","","HighSchool","2008","387","Victor Johnson","Waco","","S","72","170","3","0.8867","Waco","TX","USA","31.549333","-97.1466695","48309"
"159846","","HighSchool","2008","387","Dyrell Roberts","Smithfield","","ATH","74","190","3","0.8867","Smithfield","VA","USA","36.9823313","-76.6310242","51093"
"159850","","HighSchool","2008","391","Avis Commack","First Coast","","WR","76","182","3","0.8859","Jacksonville","FL","USA","30.3321838","-81.655651","12031"
"159849","","HighSchool","2008","391","Michael Cox","Avon Old Farms","","RB","73","203","3","0.8859","Avon","CT","USA","41.8098209","-72.8306541","09003"
"159851","","HighSchool","2008","391","Tanner Hawkinson","McPherson","","TE","78","230","3","0.8859","McPherson","KS","USA","38.3708415","-97.6642087","20113"
"159858","","HighSchool","2008","394","Dwight Tucker","Oviedo","","DT","74","280","3","0.8856","Oviedo","FL","USA","28.6702526","-81.2084941","12117"
"159863","","HighSchool","2008","394","Riley Dodge","Southlake Carroll","","ATH","72","183","3","0.8856","Southlake","TX","USA","32.9412363","-97.1341783","48439"
"159862","","HighSchool","2008","394","Cruz Williams","Pulaski Academy","","WR","76","206","3","0.8856","Little Rock","AR","USA","34.7464809","-92.2895948","05119"
"159861","","HighSchool","2008","394","LaRon Byrd","Hahnville","","WR","76","205","3","0.8856","Boutte","LA","USA","29.8951685","-90.38943007298417","22089"
"159860","","HighSchool","2008","394","Mike Golic Jr.","Northwest Catholic","","OC","77","260","3","0.8856","West Hartford","CT","USA","41.7629122","-72.75664456297505","09003"
"159859","","HighSchool","2008","394","Nick Becton","New Hanover","","OT","78","290","3","0.8856","Wilmington","NC","USA","34.2257282","-77.9447107","37129"
"159857","","HighSchool","2008","394","David Posluszny","Hopewell","","ILB","72","206","3","0.8856","Aliquippa","PA","USA","40.6102386","-80.267726","42007"
"159856","","HighSchool","2008","394","Bacarri Rambo","Seminole County","","S","72","211","3","0.8856","Donalsonville","GA","USA","31.0404625","-84.8790911","13253"
"159855","","HighSchool","2008","394","Hafis Williams","Elizabeth","","DT","75","285","3","0.8856","Elizabeth","NJ","USA","40.6639916","-74.2107006","34039"
"159854","","HighSchool","2008","394","D.C. Jefferson","Winter Haven","","PRO","78","230","3","0.8856","Winter Haven","FL","USA","28.0222435","-81.7328568","12105"
"159853","","HighSchool","2008","394","Chase Thomas","Walton","","OLB","76","210","3","0.8856","Marietta","GA","USA","33.9528472","-84.5496148","13067"
"159852","","HighSchool","2008","394","Lorenzo Williams","Westover","","S","74","190","3","0.8856","Fayetteville","NC","USA","35.0525759","-78.878292","37051"
"159864","","HighSchool","2008","394","Collins Okafor","Westside","","RB","73","210","3","0.8856","Omaha","NE","USA","41.2587459","-95.9383758","31055"
"159865","","HighSchool","2008","411","Covaughn Deboskie","Hamilton","","APB","72","186","3","0.8852","Chandler","AZ","USA","33.3062223","-111.8413317","04013"
"159866","","HighSchool","2008","412","Wes Kemp","DeSmet","","WR","76","226","3","0.8851","St. Louis","MO","USA","38.6268039","-90.1994097","29510"
"159867","","HighSchool","2008","413","Tony Jerod-Eddie","DeSoto","","DT","77","300","3","0.8847","DeSoto","TX","USA","32.6061241","-96.865612653687","48113"
"159868","","HighSchool","2008","414","Akeem Auguste","Fork Union Military Academy","","S","70","191","3","0.8844","Fork Union","VA","USA","37.7632986","-78.2626198","51065"
"159869","","HighSchool","2008","415","Taylor Hill","Cardinal Mooney","","OLB","74","205","3","0.8843","Youngstown","OH","USA","41.1035786","-80.6520161","39099"
"159870","","HighSchool","2008","416","Ebele Okakpu","Roswell","","OLB","73","201","3","0.8842","Roswell","GA","USA","34.02332","-84.360022","13121"
"159871","","HighSchool","2008","417","Alfred Dupree","Skyline","","OLB","74","209","3","0.8839","Dallas","TX","USA","32.7762719","-96.7968559","48113"
"159872","","HighSchool","2008","418","Trevor Guyton","Redmond","","DT","75","270","3","0.8837","Redmond","WA","USA","47.6694141","-122.1238767","53033"
"159873","","HighSchool","2008","419","Sausan Shakerin","Alta","","FB","75","210","3","0.8834","Sandy","UT","USA","40.5664878","-111.838904","49035"
"159874","","HighSchool","2008","420","Peter Konz","Neenah","","OC","78","285","3","0.8833","Neenah","WI","USA","44.1858193","-88.462609","55139"
"159875","","HighSchool","2008","421","Jacquizz Rodgers","Lamar Consolidated","","APB","66","180","3","0.8829","Rosenberg","TX","USA","29.5571825","-95.8085623","48157"
"159889","","HighSchool","2008","422","Micanor Regis","Pahokee","","DT","75","300","3","0.8822","Pahokee","FL","USA","26.8200607","-80.6653351","12099"
"159876","","HighSchool","2008","422","Jimmy Bennett","West Potomac","","OT","80","270","3","0.8822","Alexandria","VA","USA","38.8051095","-77.0470229","51510"
"159877","","HighSchool","2008","422","Fred Craig","St. Xavier","","OLB","74","210","3","0.8822","Cincinnati","OH","USA","39.1014537","-84.5124602","39061"
"159878","","HighSchool","2008","422","Michael Via","Northeast Guilford","","OG","79","280","3","0.8822","McLeansville","NC","USA","36.1073575","-79.6586383","37081"
"159879","","HighSchool","2008","422","Charles Burrell","Southeastern","","S","72","204","3","0.8822","Detroit","MI","USA","42.3315509","-83.0466403","26163"
"159880","","HighSchool","2008","422","Darius Ashley","St. Xavier","","APB","68","185","3","0.8822","Cincinnati","OH","USA","39.1014537","-84.5124602","39061"
"159881","","HighSchool","2008","422","Jacoby Thomas","Murphy","","ILB","73","220","3","0.8822","Mobile","AL","USA","30.6943566","-88.0430541","01097"
"159882","","HighSchool","2008","422","Richard Watson","Florida A&M University Developmental Research Scho","","RB","73","227","3","0.8822","Tallahassee","FL","USA","30.4380832","-84.2809332","12073"
"159883","","HighSchool","2008","422","Mike Cruz","Bishop Mc Cort","","TE","76","255","3","0.8822","Johnstown","PA","USA","40.3267407","-78.9219698","42021"
"159884","","HighSchool","2008","422","Keola Antolin","Bishop Gorman","","RB","68","195","3","0.8822","Las Vegas","NV","USA","36.1672559","-115.1485163","32003"
"159885","","HighSchool","2008","422","Matt Daniels","Fayette County","","S","73","183","3","0.8822","Fayetteville","GA","USA","33.4487257","-84.4549262","13113"
"159886","","HighSchool","2008","422","Dominic Galas","Central Catholic","","OG","73","266","3","0.8822","Modesto","CA","USA","37.6390972","-120.9968782","06099"
"159887","","HighSchool","2008","422","Thomas Parsons","Smithson Valley","","OT","78","270","3","0.8822","Spring Branch","TX","USA","29.885073249999998","-98.4196833729311","48091"
"159888","","HighSchool","2008","422","Kody Spano","Stephenville","","DUAL","74","202","3","0.8822","Stephenville","TX","USA","32.2191836","-98.2130634","48143"
"159890","","HighSchool","2008","422","Jewhan Edwards","Roman Catholic","","DT","73","338","3","0.8822","Philadelphia","PA","USA","39.9527237","-75.1635262","42101"
"159891","","HighSchool","2008","422","Todd Harrelson","Oscar Smith","","WR","72","181","3","0.8822","Chesapeake","VA","USA","36.7183708","-76.2466798","51550"
"159892","","HighSchool","2008","422","Kevin Whaley","Salem","","APB","69","166","3","0.8822","Virginia Beach","VA","USA","36.8529841","-75.9774183","51810"
"159893","","HighSchool","2008","422","Daymond Patterson","North Mesquite","","WR","68","165","3","0.8822","Mesquite","TX","USA","32.7666103","-96.599472","48113"
"159894","","HighSchool","2008","422","Makiri Pugh","Independence","","S","70","194","3","0.8822","Charlotte","NC","USA","35.2272","-80.843083","37119"
"159895","","HighSchool","2008","422","Marty Everett","South Sumter","","DT","76","300","3","0.8822","Bushnell","FL","USA","28.6644827","-82.1117399","12119"
"159896","","HighSchool","2008","422","Casey Kelly","Sarasota","","PRO","74","191","3","0.8822","Sarasota","FL","USA","27.3364347","-82.5306527","12115"
"159897","","HighSchool","2008","422","Keith Baker","Scotch Plains Fanwood","","ILB","74","207","3","0.8822","Scotch Plains","NJ","USA","40.65538","-74.3898732","34039"
"159898","","HighSchool","2008","422","Ausar Walcott","Hackensack","","ILB","76","230","3","0.8822","Hackensack","NJ","USA","40.8871438","-74.0410865","34003"
"159899","","HighSchool","2008","422","Jonathan Martin","Harvard Westlake","","OT","78","271","3","0.8822","Studio City","CA","USA","34.1483989","-118.3961877","06037"
"159900","","HighSchool","2008","422","Patrick Jamison","Hamilton","","OT","75","278","3","0.8822","Chandler","AZ","USA","33.3062223","-111.8413317","04013"
"159901","","HighSchool","2008","422","K.J. Williams","Norman North","","SDE","75","262","3","0.8822","Norman","OK","USA","35.2225717","-97.4394816","40027"
"159902","","HighSchool","2008","422","Jonathan Cooper","Hoggard","","OG","75","287","3","0.8822","Wilmington","NC","USA","34.2257282","-77.9447107","37129"
"159903","","HighSchool","2008","449","Kaleb Ramsey","Laurel Highlands","","SDE","76","260","3","0.8807","Uniontown","PA","USA","39.900076","-79.7164326","42051"
"159904","","HighSchool","2008","449","Kurt Wermers","Crown Point","","OG","75","278","3","0.8807","Crown Point","IN","USA","41.4169806","-87.3653136","18089"
"159905","","HighSchool","2008","451","DeOn'tae Pannell","Wylie E. Groves","Penn State","OG","77","317","3","0.8804","Franklin","MI","USA","42.5222567","-83.3060432","26125"
"159910","","HighSchool","2008","452","LeRoy Chevalier","Yates","Texas A&M","OG","78","325","3","0.8789","Houston","TX","USA","29.7589382","-95.3676974","48201"
"159925","","HighSchool","2008","452","Alfonzo Dennard","Wilcox County","Nebraska","CB","70","185","3","0.8789","Rochelle","GA","USA","31.9510105","-83.4562744","13315"
"159924","","HighSchool","2008","452","Ben Cotton","Ames","Nebraska","TE","78","217","3","0.8789","Ames","IA","USA","42.0267703","-93.6170554","19169"
"159923","","HighSchool","2008","452","Tyler Sands","Boyertown Area","Illinois","OG","77","305","3","0.8789","Boyertown","PA","USA","40.3337075","-75.6374083","42011"
"159922","","HighSchool","2008","452","T.J. Barnes","Enterprise","Georgia Tech","OT","77","320","3","0.8789","Enterprise","AL","USA","31.3151708","-85.8552161","01031"
"159920","","HighSchool","2008","452","Dwayne Maddox","Crest","NC State","ILB","73","222","3","0.8789","Shelby","NC","USA","35.2919489","-81.5402112","37045"
"159919","","HighSchool","2008","452","Spencer Reeves","Skyline","Minnesota","OLB","73","193","3","0.8789","Dallas","TX","USA","32.7762719","-96.7968559","48113"
"159918","","HighSchool","2008","452","Antoine Hopkins","Highland Springs","Virginia Tech","SDE","73","290","3","0.8789","Highland Springs","VA","USA","37.5460121","-77.3278441","51087"
"159917","","HighSchool","2008","452","Rashad White","Teaneck","Rutgers","APB","71","164","3","0.8789","Teaneck","NJ","USA","40.8860164","-74.0072568","34003"
"159915","","HighSchool","2008","452","Andrew Wallace","Renaissance Olympic","NC State","OT","78","258","3","0.8789","Charlotte","NC","USA","35.2272","-80.843083","37119"
"159914","","HighSchool","2008","452","Darrell Simmons","Banneker","South Carolina","S","73","200","3","0.8789","Atlanta","GA","USA","33.7490987","-84.3901849","13121"
"159913","","HighSchool","2008","452","Jermaine Preyear","WP Davidson","Alabama","RB","71","205","3","0.8789","Mobile","AL","USA","30.6943566","-88.0430541","01097"
"159912","","HighSchool","2008","452","Steven Sylvester","Union Grove","Georgia Tech","ILB","74","211","3","0.8789","McDonough","GA","USA","33.4473361","-84.1468616","13151"
"159911","","HighSchool","2008","452","Eric LeGrand","Colonia","Rutgers","ILB","75","263","3","0.8789","Colonia","NJ","USA","40.5745485","-74.3020918","34023"
"159907","","HighSchool","2008","452","Preston Bailey","Montgomery Bell Academy","Tennessee","OT","77","315","3","0.8789","Nashville","TN","USA","36.1622296","-86.7743531","47037"
"159908","","HighSchool","2008","452","Beau Sweeney","Clovis West","California","PRO","73","197","3","0.8789","Fresno","CA","USA","36.7295295","-119.70886126075588","06019"
"159909","","HighSchool","2008","452","Cordian Hagans","Northview","LSU","OT","77","300","3","0.8789","Duluth","GA","USA","34.0028569","-84.1441046","13135"
"159916","378014","HighSchool","2008","452","Johnny Adams","Buchtel","Michigan State","CB","71","170","3","0.8789","Akron","OH","USA","41.083064","-81.518485","39153"
"159906","","HighSchool","2008","452","Michael Ball","Desert Pines","Nevada","RB","69","201","3","0.8789","Las Vegas","NV","USA","36.1672559","-115.1485163","32003"
"159921","380707","HighSchool","2008","452","Anthony Miller","Archbishop Mitty","California","TE","75","250","3","0.8789","San Jose","CA","USA","37.3361905","-121.8905833","06085"
"159926","","HighSchool","2008","472","Leon Mackey","Hargrave Military Academy","Virginia Tech","SDE","5330","2","3","0.8785","Chatham","VA","USA","36.8256943","-79.3980806","51143"
"159929","","HighSchool","2008","473","Mikel LeShoure","Unknown","Illinois","RB","72","230","3","0.8778","Nashville","TN","USA","36.1622296","-86.7743531","47037"
"159945","","HighSchool","2008","473","Orhian Johnson","Boca Ciega","Ohio State","S","74","205","3","0.8778","St. Petersburg","FL","USA","27.7703796","-82.6695085","12103"
"159944","","HighSchool","2008","473","Deveric Gallington","Richland","Texas Tech","OG","75","328","3","0.8778","North Richland Hills","TX","USA","32.8342952","-97.2289029","48439"
"159943","","HighSchool","2008","473","Darrius Terry","Lufkin","Louisiana Tech","CB","72","190","3","0.8778","Lufkin","TX","USA","31.3386242","-94.7288558","48005"
"159941","381787","HighSchool","2008","473","Justin Feagin","American Heritage Boca/Delray","Michigan","ATH","72","190","3","0.8778","Delray Beach","FL","USA","26.4614625","-80.0728201","12099"
"159942","","HighSchool","2008","473","Charles Satchell","Milpitas","California","WR","74","188","3","0.8778","Milpitas","CA","USA","37.4282724","-121.9066238","06085"
"159940","","HighSchool","2008","473","Zaviar Gooden","Pflugerville","Missouri","S","74","195","3","0.8778","Pflugerville","TX","USA","30.4393696","-97.6200043","48453"
"159939","","HighSchool","2008","473","Erik Kuraczea","Ansonia","UConn","OG","75","300","3","0.8778","Ansonia","CT","USA","41.3429922","-73.0787468","09009"
"159938","","HighSchool","2008","473","Ethan Ruhland","Lake Orion Community","Michigan State","OG","76","262","3","0.8778","Lake Orion","MI","USA","42.7844752","-83.2396612","26125"
"159937","","HighSchool","2008","473","Chris Little","Castlemont","California","OLB","75","210","3","0.8778","Oakland","CA","USA","37.8044557","-122.2713563","06001"
"159936","","HighSchool","2008","473","DeVonte Christopher","Canyon Springs","Utah","ATH","73","180","3","0.8778","North Las Vegas","NV","USA","36.2005843","-115.1215844","32003"
"159935","","HighSchool","2008","473","Ryan Dannewitz","San Jacinto","Colorado","OT","79","276","3","0.8778","San Jacinto","CA","USA","33.7839664","-116.9589086","06065"
"159934","","HighSchool","2008","473","Geordon Hanohano","St. Louis","Hawai'i","DT","73","270","3","0.8778","Honolulu","HI","USA","21.304547","-157.8556764","15003"
"159933","","HighSchool","2008","473","Freddie Smooth","Desire Street Academy","Auburn","OT","77","300","3","0.8778","Baton Rouge","LA","USA","30.4459596","-91.18738","22033"
"159932","","HighSchool","2008","473","Vaughn Carraway","Muhlenberg","Temple","WR","74","168","3","0.8778","Reading","PA","USA","40.335345","-75.9279495","42011"
"159931","","HighSchool","2008","473","Zander Fabbri","Centennial","Arizona","ILB","73","245","3","0.8778","Bakersfield","CA","USA","35.3738712","-119.0194639","06029"
"159930","","HighSchool","2008","473","Vince Taylor","Eastside Catholic","Washington","WR","75","215","3","0.8778","Bellevue","WA","USA","47.6144219","-122.1923372","53033"
"159928","","HighSchool","2008","473","Kevan Walker","Arcadia","Oregon State","WR","73","186","3","0.8778","Arcadia","CA","USA","34.1362075","-118.0401497","06037"
"159927","","HighSchool","2008","473","Sterling Lucas (player)","Orangeburg-Wilkinson","NC State","ILB","74","220","3","0.8778","Orangeburg","SC","USA","33.4918203","-80.8556476","45075"
"159947","","HighSchool","2008","492","Matt Furstenburg","Hun School","Maryland","TE","76","220","3","0.8778","Princeton","NJ","USA","40.3492744","-74.6592958","34021"
"159948","","HighSchool","2008","492","LaMike James","Liberty-Eylau","Oregon","RB","69","180","3","0.8778","Texarkana","TX","USA","33.44628645","-94.07638067493534","48037"
"159950","","HighSchool","2008","492","Quentin Williams","Central Catholic","Northwestern","TE","75","235","3","0.8778","Pittsburgh","PA","USA","40.4416941","-79.9900861","42003"
"159952","","HighSchool","2008","492","Vaughn Dotsy","St. Bonaventure","Arizona","OG","77","335","3","0.8778","Ventura","CA","USA","34.3435092","-119.29560423163717","06111"
"159953","","HighSchool","2008","492","Tino Sunseri","Central Catholic","Pittsburgh","PRO","74","200","3","0.8778","Pittsburgh","PA","USA","40.4416941","-79.9900861","42003"
"159951","380730","HighSchool","2008","492","Cory Harkey","Chino Hills","UCLA","TE","76","240","3","0.8778","Chino Hills","CA","USA","33.9926803","-117.760056","06071"
"159949","382145","HighSchool","2008","492","Thearon Collier","Booker T. Washington","Miami","WR","69","163","3","0.8778","Miami","FL","USA","25.7742658","-80.1936589","12086"
"159946","382712","HighSchool","2008","492","Andrew Harris","Hargrave Military Academy","Ole Miss","WR","76","195","3","0.8778","Chatham","VA","USA","36.8256943","-79.3980806","51143"
"159954","","HighSchool","2008","500","Brian Thomas","Pearland","Texas A&M","OG","75","303","3","0.877","Brownsville","TX","USA","25.9140256","-97.4890856","48061"
"159955","","HighSchool","2008","501","Jack Crawford","St Augustine Preparatory School","Penn State","SDE","77","256","3","0.8758","Richland","NJ","USA","39.4917828","-74.8707243","34001"
"159970","","HighSchool","2008","502","Prentiss Waggner","Clinton","Tennessee","S","74","181","3","0.8756","Clinton","LA","USA","30.8657","-91.0157","36065"
"159966","235903","HighSchool","2008","502","Donovan Carter","Birmingham","UCLA","ILB","74","226","3","0.8756","Van Nuys","CA","USA","34.1866193","-118.4486669","06037"
"159959","382728","HighSchool","2008","502","Devin Thomas","Madison","Ole Miss","RB","70","185","3","0.8756","San Antonio","TX","USA","29.4246002","-98.4951405","48029"
"159963","380365","HighSchool","2008","502","Curtis Cunningham","Columbine","Colorado","DT","74","262","3","0.8756","Littleton","CO","USA","39.613321","-105.0166498","08005"
"159956","","HighSchool","2008","502","Justin Glenn","Kamiak","Washington","CB","70","185","3","0.8756","Mukilteo","WA","USA","47.9474034","-122.3036992","53061"
"159957","","HighSchool","2008","502","Lanear Sampson","North Mesquite","Baylor","WR","71","200","3","0.8756","Mesquite","TX","USA","32.7666103","-96.599472","48113"
"159958","","HighSchool","2008","502","Rodney McLeod","DeMatha Catholic","Virginia","S","70","185","3","0.8756","Hyattsville","MD","USA","38.9529442","-76.9408647","24033"
"159960","","HighSchool","2008","502","Steven Figueroa","Desert Vista","Arizona State","TE","76","231","3","0.8756","Phoenix","AZ","USA","33.4484367","-112.0741417","04013"
"159961","","HighSchool","2008","502","Derrick Bryant","Peachtree Ridge","LSU","CB","73","186","3","0.8756","Suwanee","GA","USA","34.0514898","-84.0712997","13135"
"159962","","HighSchool","2008","502","Kwamaine Brown","Osceola","Kansas State","RB","68","185","3","0.8756","Kissimmee","FL","USA","28.2918995","-81.4075838","12097"
"159964","","HighSchool","2008","502","Kellen Theriot","Episcopal","LSU","ATH","74","225","3","0.8756","Bellaire","TX","USA","29.7057858","-95.4588299","48201"
"159965","","HighSchool","2008","502","A.J. Grant","Sandalwood","Florida International","S","73","190","3","0.8756","Jacksonville","FL","USA","30.3321838","-81.655651","12031"
"159967","","HighSchool","2008","502","Chris Martin","Choctawhatchee","UCF","DT","78","285","3","0.8756","Fort Walton Beach","FL","USA","30.4057552","-86.618842","12091"
"159968","","HighSchool","2008","502","Jermaine Robinson","Brashear","Toledo","S","74","158","3","0.8756","Pittsburgh","PA","USA","40.4416941","-79.9900861","42003"
"159969","","HighSchool","2008","502","Glenn Foster","Mount Carmel","Illinois","WDE","76","260","3","0.8756","Chicago","IL","USA","41.8755616","-87.6244212","17031"
"159971","","HighSchool","2008","502","Rashard Hall","St. Augustine","Clemson","S","74","200","3","0.8756","St. Augustine","FL","USA","29.8946952","-81.3145395","12109"
"159972","","HighSchool","2008","502","Matt Sanders","Crestview","Clemson","OG","78","320","3","0.8756","Crestview","FL","USA","30.7621326","-86.5705084","12091"
"159973","","HighSchool","2008","502","Kenny Davis","Newberry","South Carolina","DT","75","303","3","0.8756","Newberry","SC","USA","34.2753247","-81.6188633","45071"
"159974","","HighSchool","2008","520","Andre Wadley","Hernando","Auburn","SDE","74","250","3","0.8752","Hernando","MS","USA","34.823987","-89.9937018","28033"
"159987","383844","HighSchool","2008","521","Brandon Davis","Peachtree Ridge","UCF","APB","68","184","3","0.8744","Suwanee","GA","USA","34.0514898","-84.0712997","13135"
"159989","","HighSchool","2008","521","Gahn McGaffie","Galena Park","Missouri","APB","70","170","3","0.8744","Galena Park","TX","USA","29.7335616","-95.2302123","48201"
"159985","382030","HighSchool","2008","521","Ralph Bolden","Charlton County","Purdue","ATH","70","185","3","0.8744","Folkston","GA","USA","30.8305818","-82.0097846","13049"
"159975","","HighSchool","2008","521","Rockey Duplessis","Belle Chasse","LSU","S","73","184","3","0.8744","Belle Chasse","LA","USA","29.8549287","-89.9906253","22075"
"159976","","HighSchool","2008","521","Leonard Hubbard","Sacred Heart Griffin","Wisconsin","ILB","74","225","3","0.8744","Springfield","IL","USA","39.7990175","-89.6439575","17167"
"159990","","HighSchool","2008","521","Kenjon Barner","Notre Dame","Oregon","RB","70","170","3","0.8744","Riverside","CA","USA","33.9533546","-117.3961623","06065"
"159991","","HighSchool","2008","521","Nic DiLillo","Madison","Ohio State","TE","76","262","3","0.8744","Madison","OH","USA","41.771163","-81.049819","39085"
"159988","","HighSchool","2008","521","Allen Stephens","Halifax County","Virginia Tech","OLB","74","252","3","0.8744","South Boston","VA","USA","36.6987494","-78.9013987","51083"
"159982","382621","HighSchool","2008","521","Greg Childs","Warren","Arkansas","WR","75","217","3","0.8744","Warren","AR","USA","33.6126086","-92.0645831","05011"
"159986","","HighSchool","2008","521","Sanders Commings","Westside","Georgia","CB","73","195","3","0.8744","Augusta","GA","USA","33.4709714","-81.9748429","13245"
"159984","","HighSchool","2008","521","Jonathan Owens","Susan Moore Sch","Georgia","OG","77","295","3","0.8744","Blountsville","AL","USA","34.0814863","-86.5911027","01009"
"159983","","HighSchool","2008","521","Christian Thompson","St. Thomas Aquinas","Auburn","S","73","195","3","0.8744","Fort Lauderdale","FL","USA","26.1223084","-80.1433786","12011"
"159981","","HighSchool","2008","521","Brian Baucham","Unknown","USC","CB","71","170","3","0.8744","Nashville","TN","USA","36.1622296","-86.7743531","47037"
"159980","","HighSchool","2008","521","Darius Morgan","North Marion","Hudson Valley","WR","76","191","3","0.8744","Citra","FL","USA","29.4119166","-82.1098156","12083"
"159979","","HighSchool","2008","521","John Flanders","Midwest City","Tulsa","CB","82","175","3","0.8744","Oklahoma City","OK","USA","35.4729886","-97.5170536","40109"
"159978","","HighSchool","2008","521","Anthony Mains","Golden Gate","Wisconsin","WDE","79","225","3","0.8744","Naples","FL","USA","26.1421976","-81.7942944","12021"
"159977","","HighSchool","2008","521","J.P. Hurrell","Junipero Serra","California","OLB","72","195","3","0.8744","San Mateo","CA","USA","37.5439684","-122.3066789","06081"
"159992","","HighSchool","2008","538","Kyle Mangan","Brenham","Texas A&M","ILB","74","225","3","0.8739","Brenham","TX","USA","30.1668828","-96.3977442","48477"
"159994","","HighSchool","2008","539","Brandon Ford","Hanahan","Clemson","WR","76","","3","0.8733","North Charleston","SC","USA","32.9131295","-80.0629981965219","45019"
"159993","","HighSchool","2008","539","Nick Williams","Bainbridge","Georgia","OLB","75","206","3","0.8733","Bainbridge","GA","USA","30.9038252","-84.5754768","13087"
"159995","","HighSchool","2008","539","Gavin Hardin","Jackson Central Merry","Miami","ILB","77","225","3","0.8733","Jackson","TN","USA","35.6144446","-88.8177418","47113"
"159996","","HighSchool","2008","542","Neiko Lipscomb","Tucker","Auburn","S","74","175","3","0.8726","Tucker","GA","USA","33.8532701","-84.2200729","13089"
"159997","237087","HighSchool","2008","543","Jarvis Smith","Chavez","Houston","OLB","74","205","3","0.8723","Houston","TX","USA","29.7589382","-95.3676974","48201"
"160003","","HighSchool","2008","544","Joe Schafer","Cretin Derham Hall","","OG","77","265","3","0.8722","Saint Paul","MN","USA","44.9504037","-93.1015026","27123"
"160001","","HighSchool","2008","544","Patrick Neumann","St Joseph Regional","","OT","78","260","3","0.8722","Montvale","NJ","USA","41.0467635","-74.0229173","34003"
"160000","","HighSchool","2008","544","Morgan Carter","C. D. Hylton","","ATH","75","197","3","0.8722","Woodbridge","VA","USA","38.6581723","-77.2497049","51153"
"159999","","HighSchool","2008","544","Joe Wylie","Boyd Anderson","","S","74","171","3","0.8722","Fort Lauderdale","FL","USA","26.1223084","-80.1433786","12011"
"159998","","HighSchool","2008","544","Marcus Davis","Ocean Lakes","","WR","76","220","3","0.8722","Virginia Beach","VA","USA","36.8529841","-75.9774183","51810"
"160002","","HighSchool","2008","544","Philip Pierre-Louis","St. Thomas Aquinas","","ATH","70","175","3","0.8722","Fort Lauderdale","FL","USA","26.1223084","-80.1433786","12011"
"160005","","HighSchool","2008","544","P.J. Smith","John Curtis","","S","74","205","3","0.8722","New Orleans","LA","USA","29.9499323","-90.0701156","22071"
"160004","","HighSchool","2008","544","Brian Mulroe","Loyola Academy","","OG","78","263","3","0.8722","Wilmette","IL","USA","42.0757315","-87.7193768","17031"
"160006","","HighSchool","2008","554","Cody Bruns","Prosser","","WR","71","175","3","0.8712","Prosser","WA","USA","46.2067583","-119.7691601","53005"
"160007","","HighSchool","2008","555","Mario  Benavides","Los Fresnos","","OC","76","301","3","0.8711","Brownsville","TX","USA","25.9140256","-97.4890856","48061"
"160024","","HighSchool","2008","555","Ryan St. Julien","Catholic - New Iberia","","CB","73","169","3","0.8711","New Iberia","LA","USA","30.0035365","-91.8187285","22045"
"160023","","HighSchool","2008","555","Demetrius Hartsfield","Southeast Raleigh","","ILB","74","208","3","0.8711","Raleigh","NC","USA","35.7803977","-78.6390989","37183"
"160022","","HighSchool","2008","555","Darius Willis","Franklin Central","","RB","72","215","3","0.8711","Indianapolis","IN","USA","39.7683331","-86.1583502","18097"
"160021","","HighSchool","2008","555","Zach Kerr","Quince Orchard","","DT","74","323","3","0.8711","Gaithersburg","MD","USA","39.1434406","-77.2013705","24031"
"160020","","HighSchool","2008","555","Andrew Sampson","Overland","","OG","75","285","3","0.8711","Aurora","CO","USA","39.729432","-104.8319196","08005"
"160019","","HighSchool","2008","555","Michael McAdoo","Antioch","","WDE","79","220","3","0.8711","Antioch","TN","USA","36.0806394","-83.7799037","47093"
"160018","","HighSchool","2008","555","Carlton Lewis","Unknown","","S","75","","3","0.8711","St. Augustine","FL","USA","29.8946952","-81.3145395","12109"
"160017","","HighSchool","2008","555","Bradly Roussel","Redemptorist","","ILB","71","215","3","0.8711","Baton Rouge","LA","USA","30.4459596","-91.18738","22033"
"160016","","HighSchool","2008","555","Xavier Boyce","Landstown","","ATH","76","200","3","0.8711","Virginia Beach","VA","USA","36.8529841","-75.9774183","51810"
"160015","","HighSchool","2008","555","Ahmed Shakoor","Stephenson","","CB","71","189","3","0.8711","Stone Mountain","GA","USA","33.8080924","-84.1706273","13089"
"160014","","HighSchool","2008","555","Donovan Miles","Brooke Point","","OLB","72","220","3","0.8711","Stafford","VA","USA","38.4222681","-77.4084067","51179"
"160013","","HighSchool","2008","555","Austin Fuller","Richlands","","WR","74","210","3","0.8711","Richlands","VA","USA","37.0944752","-81.7997182","51185"
"160012","","HighSchool","2008","555","Lavunce Askew","Camden Fairview","","DT","75","290","3","0.8711","Camden","AR","USA","33.5845582","-92.8343294","05103"
"160011","","HighSchool","2008","555","Kyle Johnson","Norco","","OT","79","260","3","0.8711","Norco","CA","USA","33.9323307","-117.5508901","06065"
"160010","","HighSchool","2008","555","Joey Fowler","Westmoore","","SDE","76","260","3","0.8711","Oklahoma City","OK","USA","35.4729886","-97.5170536","40109"
"160009","","HighSchool","2008","555","DeAndre Jones","Memphis University School","","OLB","72","223","3","0.8711","Memphis","TN","USA","35.1490215","-90.0516285","47157"
"160008","","HighSchool","2008","555","Daniel Sorensen","Colton","","S","74","195","3","0.8711","Colton","CA","USA","34.0739016","-117.3136547","06071"
"160025","","HighSchool","2008","573","Tarik Rollins","Chaminade-Madonna","","OLB","74","187","3","0.8704","Hollywood","FL","USA","26.0112014","-80.1494901","12011"
"160026","","HighSchool","2008","574","Jake Murphy","American Fork","","ATH","77","215","3","0.87","American Fork","UT","USA","40.3768954","-111.7957645","49049"
"160027","","HighSchool","2008","575","Ja'Baris Little","Lincoln","","TE","76","230","3","0.8697","Tallahassee","FL","USA","30.4380832","-84.2809332","12073"
"160040","","HighSchool","2008","576","Tim Molton","Destrehan","","WR","75","185","3","0.8689","Destrehan","LA","USA","29.960933","-90.3705407077716","22089"
"160041","","HighSchool","2008","576","Joe Caprioglio","Highlands Ranch","","OT","78","260","3","0.8689","Littleton","CO","USA","39.613321","-105.0166498","08005"
"160042","","HighSchool","2008","576","Brynn Harvey","Largo","","RB","70","204","3","0.8689","Largo","FL","USA","27.9094665","-82.7873244","12103"
"160043","","HighSchool","2008","576","Isaac Johnson","Everett","","RB","71","185","3","0.8689","Everett","MA","USA","42.40843","-71.0536625","25017"
"160036","","HighSchool","2008","576","Cooper Bassett","Tuttle","","TE","77","235","3","0.8689","Tuttle","OK","USA","35.2908947","-97.8122658","40051"
"160038","","HighSchool","2008","576","Jhyryn Taylor","Franklinton","","ATH","73","172","3","0.8689","Franklinton","LA","USA","30.8471283","-90.153141","22117"
"160039","","HighSchool","2008","576","Tyler Hoover","Novi","","DT","79","265","3","0.8689","Novi","MI","USA","42.48059","-83.4754913","26125"
"160034","","HighSchool","2008","576","Undra Billingsley","Woodlawn","","SDE","74","288","3","0.8689","Birmingham","AL","USA","33.5206824","-86.8024326","01073"
"160035","","HighSchool","2008","576","Drew Schaefer","Eastlake","","OT","77","273","3","0.8689","Sammamish","WA","USA","47.6088445","-122.0423067","53033"
"160037","","HighSchool","2008","576","Riley Reiff","Parkston","","OT","78","300","3","0.8689","Parkston","SD","USA","43.395007","-97.984421","46067"
"160028","","HighSchool","2008","576","Rashad Evans","James Logan","","CB","69","160","3","0.8689","Union City","CA","USA","37.5963232","-122.0816297","06001"
"160029","","HighSchool","2008","576","Willie Packer","Moss Point","","DT","74","260","3","0.8689","Moss Point","MS","USA","30.4115881","-88.5344601","28059"
"160030","","HighSchool","2008","576","John Williams","Booker T. Washington","","OG","76","335","3","0.8689","Tulsa","OK","USA","36.1556805","-95.9929113","40143"
"160031","","HighSchool","2008","576","Jaybo Shaw","Flowery Branch","","DUAL","73","176","3","0.8689","Flowery Branch","GA","USA","34.1851017","-83.9251809","13139"
"160032","","HighSchool","2008","576","Tim Wright","Wall","","ATH","76","200","3","0.8689","Belmar","NJ","USA","40.1784471","-74.0218037","34025"
"160033","","HighSchool","2008","576","Horatio Williams","Oxford","","ATH","74","175","3","0.8689","Oxford","MS","USA","34.3664127","-89.5187664","28071"
"160044","","HighSchool","2008","592","Travis Arnold","Madison County","","S","70","184","3","0.8689","Madison","FL","USA","30.4693772","-83.4129254","12079"
"160045","","HighSchool","2008","593","Ugo Okpara","Dulles","","CB","73","175","3","0.8681","Sugar Land","TX","USA","29.6196787","-95.6349463","48157"
"160046","","HighSchool","2008","593","Ty Howle","Bunn","","OC","0","","3","0.8681","Wake Forest","NC","USA","35.9803138","-78.5103731","37183"
"160050","","HighSchool","2008","595","Derrick Coleman","Troy","","RB","72","233","3","0.8678","Fullerton","CA","USA","33.8708215","-117.9294165","06059"
"160047","","HighSchool","2008","595","Casey Walker","Garland","","DT","74","308","3","0.8678","Garland","TX","USA","32.912624","-96.6388833","48113"
"160048","","HighSchool","2008","595","Eric Harper","John Ehret","","WDE","76","220","3","0.8678","Marrero","LA","USA","29.8993723","-90.1003506","22051"
"160049","","HighSchool","2008","595","Ramon Booi","Nease","","OG","78","290","3","0.8678","Ponte Vedra Beach","FL","USA","30.2396865","-81.3856384","12109"
"160051","","HighSchool","2008","595","A.J. Pickens","Don Lugo","","ATH","71","161","3","0.8678","Chino","CA","USA","34.0133561","-117.690075","06071"
"160052","","HighSchool","2008","595","Montario Patterson","Biggersville","","RB","72","197","3","0.8678","Corinth","MS","USA","34.9343599","-88.5223353","28003"
"160053","","HighSchool","2008","595","Joey Ehrmann","Gilman","","OLB","76","210","3","0.8678","Baltimore","MD","USA","39.2908816","-76.610759","24510"
"160054","","HighSchool","2008","595","Robert Steeples","DeSmet","","CB","73","189","3","0.8678","St. Louis","MO","USA","38.6268039","-90.1994097","29510"
"160055","","HighSchool","2008","595","James Ferentz","Iowa City","","OC","74","275","3","0.8678","Iowa City","IA","USA","41.6612561","-91.5299106","19103"
"160056","","HighSchool","2008","595","Jaron Brown","Cheraw","","WR","74","187","3","0.8678","Cheraw","SC","USA","34.6976564","-79.8833971","45025"
"160057","","HighSchool","2008","595","Trey Fairchild","Dublin Coffman","","ATH","73","175","3","0.8678","Dublin","OH","USA","40.0992294","-83.1140771","39049"
"160058","","HighSchool","2008","595","Anthony Lewis","Aldine","","OLB","74","210","3","0.8678","Houston","TX","USA","29.7589382","-95.3676974","48201"
"160059","","HighSchool","2008","595","Blake Slaughter","Elkins","","ILB","72","225","3","0.8678","Missouri City","TX","USA","29.6185669","-95.5377215","48157"
"160060","","HighSchool","2008","595","Jacob Charest","Butler","","PRO","76","192","3","0.8678","Matthews","NC","USA","35.1170873","-80.723718","37119"
"160061","","HighSchool","2008","615","Antwuan Reed","Greater Johnstown","","CB","69","175","3","0.8675","Johnstown","PA","USA","40.3267407","-78.9219698","42021"
"160062","","HighSchool","2008","616","Mikhail Marinovich","Milford Academy","","WDE","78","210","3","0.8667","New Berlin","NY","USA","42.6239023","-75.3321363","36017"
