"Id","AthleteId","RecruitType","Year","Ranking","Name","School","CommittedTo","Position","Height","Weight","Stars","Rating","City","StateProvince","Country","HometownInfo Latitude","HometownInfo Longitude","HometownInfo FipsCode"
"149033","531380","HighSchool","2012","1","Dorial Green-Beckham","Hillcrest","Missouri","WR","78","220","5","0.9997","Springfield","MO","USA","37.2166779","-93.2920373","29077"
"149034","-1010961","HighSchool","2012","2","Mario Edwards","Ryan","Florida State","DT","75","285","5","0.9995","Denton","TX","USA","33.2150386","-97.1330516","48121"
"149035","-1009881","HighSchool","2012","3","D.J. Humphries","Mallard Creek","Florida","OT","77","275","5","0.998","Charlotte","NC","USA","35.2272","-80.843083","37119"
"149036","535329","HighSchool","2012","4","Shaq Thompson","Grant Union","Washington","S","74","210","5","0.9977","Sacramento","CA","USA","38.5815719","-121.4943996","06067"
"149037","-1027150","HighSchool","2012","5","Noah Spence","Bishop McDevitt","Ohio State","WDE","75","235","5","0.9974","Harrisburg","PA","USA","40.2663107","-76.8861122","42043"
"149038","531069","HighSchool","2012","6","Johnathan Gray","Aledo","Texas","RB","71","200","5","0.9973","Aledo","TX","USA","32.69900905","-97.60396629774493","48367"
"149039","535742","HighSchool","2012","7","Landon Collins","Dutchtown","Alabama","S","72","210","5","0.9971","Geismar","LA","USA","30.2043633","-91.0226013","22005"
"149040","534249","HighSchool","2012","8","Stefon Diggs","Our Lady of Good Counsel","Maryland","WR","73","190","5","0.9969","Olney","MD","USA","39.1532123","-77.0668408","24031"
"149041","-1034782","HighSchool","2012","9","Malcom Brown","Brenham","Texas","DT","75","300","5","0.9944","Brenham","TX","USA","30.1668828","-96.3977442","48477"
"149042","-1010966","HighSchool","2012","10","Eddie Goldman","Friendship Academy","Florida State","DT","77","305","5","0.9943","Washington","DC","USA","38.8949855","-77.0365708","11001"
"149043","-1032993","HighSchool","2012","11","Kyle Murphy","San Clemente","Stanford","OT","79","270","5","0.9937","San Clemente","CA","USA","33.4270275","-117.6124179","06059"
"149044","-1009784","HighSchool","2012","12","Jonathan Bullard","Crest","Florida","SDE","76","245","5","0.9924","Shelby","NC","USA","35.2919489","-81.5402112","37045"
"149045","530937","HighSchool","2012","13","Keith Marshall","Millbrook","Georgia","APB","71","195","5","0.9918","Raleigh","NC","USA","35.7803977","-78.6390989","37183"
"149046","-1028443","HighSchool","2012","14","Arik Armstead","Pleasant Grove","Oregon","ATH","80","285","5","0.9917","Elk Grove","CA","USA","38.4087993","-121.3716178","06067"
"149047","-1011697","HighSchool","2012","15","John Theus","The Bolles School","Georgia","OT","77","305","5","0.9915","Jacksonville","FL","USA","30.3321838","-81.655651","12031"
"149048","530308","HighSchool","2012","16","Jameis Winston","Hueytown","Florida State","DUAL","76","190","5","0.9915","Hueytown","AL","USA","33.4512197","-86.9966606","01073"
"149049","-1000982","HighSchool","2012","17","Eddie Williams","Arnold","Alabama","ATH","74.5","196","5","0.9909","Panama City Beach","FL","USA","30.1765914","-85.8054879","12005"
"149050","532121","HighSchool","2012","18","Trey Williams","Dekaney","Texas A&M","APB","68","175","5","0.9901","Houston","TX","USA","29.7589382","-95.3676974","48201"
"149051","534312","HighSchool","2012","19","Adolphus Washington","Taft","Ohio State","WDE","76","245","5","0.9894","Cincinnati","OH","USA","39.1014537","-84.5124602","39061"
"149052","-1019748","HighSchool","2012","20","Duke Johnson","Norland","Miami","APB","70","175","5","0.9894","Miami","FL","USA","25.7742658","-80.1936589","12086"
"149053","","HighSchool","2012","21","Darius Hamilton","Don Bosco Prep","Rutgers","SDE","76","250","5","0.9892","Ramsey","NJ","USA","41.0573188","-74.1409771","34003"
"149054","534670","HighSchool","2012","22","Josh Harvey-Clemons","Lowndes","Georgia","OLB","77","200","5","0.989","Valdosta","GA","USA","30.8327022","-83.2784851","13185"
"149055","530394","HighSchool","2012","23","Tracy Howard","Miramar","Miami","CB","71","175","5","0.9886","Hollywood","FL","USA","26.0112014","-80.1494901","12011"
"149056","-1038309","HighSchool","2012","24","Ellis McCarthy","Monrovia","UCLA","DT","77","315","5","0.9881","Monrovia","CA","USA","34.1483499","-118.0014517","06037"
"149057","530289","HighSchool","2012","25","Ronald Darby","Potomac","Florida State","CB","71","174","5","0.9879","Oxon Hill","MD","USA","38.8035961","-76.9896573","24033"
"149058","-1026464","HighSchool","2012","26","Gunner Kiel","Columbus East","Notre Dame","PRO","76","210","5","0.9878","Columbus","IN","USA","39.2014405","-85.9213796","18005"
"149059","534409","HighSchool","2012","27","T.J. Yeldon","Daphne","Alabama","RB","74","205","5","0.9876","Daphne","AL","USA","30.6035255","-87.9036047","01003"
"149060","-1028759","HighSchool","2012","28","Isaac Seumalo","Corvallis","Oregon State","OG","75","280","5","0.9876","Corvallis","OR","USA","44.5645659","-123.2620435","41003"
"149061","-1010923","HighSchool","2012","29","Chris Casher","WP Davidson","Florida State","WDE","77","240","5","0.987","Mobile","AL","USA","30.6943566","-88.0430541","01097"
"149062","531010","HighSchool","2012","30","Nelson Agholor","Berkeley Prep","USC","ATH","73","185","5","0.9854","Tampa","FL","USA","27.9477595","-82.458444","12057"
"149063","-1033012","HighSchool","2012","31","Andrus Peat","Corona del Sol","Stanford","OT","79","305","5","0.9849","Tempe","AZ","USA","33.4255056","-111.9400125","04013"
"149064","530449","HighSchool","2012","32","Rushel Shell","Hopewell","Pittsburgh","RB","72","215","5","0.9849","Aliquippa","PA","USA","40.6102386","-80.267726","42007"
"149065","532115","HighSchool","2012","33","Thomas Johnson","Skyline","Texas A&M","WR","71","175","5","0.9845","Dallas","TX","USA","32.7762719","-96.7968559","48113"
"149066","534672","HighSchool","2012","34","Jordan Jenkins","Harris County","Georgia","WDE","75","242","5","0.9844","Hamilton","GA","USA","32.7579107","-84.8749311","13145"
"149067","-1021705","HighSchool","2012","35","Channing Ward","Aberdeen","Ole Miss","WDE","75","250","5","0.9842","Aberdeen","MS","USA","33.8251139","-88.5436553","28095"
"149068","-1009828","HighSchool","2012","36","Dante Fowler","Lakewood","Florida","WDE","75","258","5","0.9842","St. Petersburg","FL","USA","27.7703796","-82.6695085","12103"
"149069","530302","HighSchool","2012","37","Mario Pender","Island Coast","Florida State","RB","71","194","5","0.9836","Cape Coral","FL","USA","26.6059432","-81.9806771","12071"
"149070","-1032989","HighSchool","2012","38","Joshua Garnett","Puyallup","Stanford","OG","77","285","4","0.9824","Puyallup","WA","USA","47.1849009","-122.2921406","53053"
"149071","-1038275","HighSchool","2012","39","Devin Fuller","Northern Valley Regional - Old Tappan","UCLA","ATH","72","185","4","0.9812","Westwood","NJ","USA","40.9912087","-74.0326395","34003"
"149072","535756","HighSchool","2012","40","Reggie Ragland","Bob Jones","Alabama","ILB","75","245","4","0.9808","Madison","AL","USA","34.6928726","-86.7511427","01089"
"149073","535370","HighSchool","2012","41","Shaq Roland","Lexington","South Carolina","ATH","74","204","4","0.9808","Lexington","SC","USA","33.98390015","-81.22601082617007","45063"
"149074","536514","HighSchool","2012","42","Deontay Greenberry","Washington Union","Houston","WR","75","184","4","0.9803","Fresno","CA","USA","36.7295295","-119.70886126075588","06019"
"149075","535547","HighSchool","2012","43","Eli Harold","Ocean Lakes","Virginia","WDE","76","220","4","0.9802","Virginia Beach","VA","USA","36.8529841","-75.9774183","51810"
"149076","535750","HighSchool","2012","44","Cyrus Jones","Gilman","Alabama","ATH","70","195","4","0.9787","Baltimore","MD","USA","39.2908816","-76.610759","24510"
"149077","534458","HighSchool","2012","45","Amari Cooper","Northwestern","Alabama","WR","73","183","4","0.9776","Miami","FL","USA","25.7742658","-80.1936589","12086"
"149078","-1020399","HighSchool","2012","46","Kyle Kalis","St. Edward","Michigan","OG","77","300","4","0.9775","Lakewood","OH","USA","41.4819932","-81.7981908","39035"
"149079","545218","HighSchool","2012","47","Mike Davis","Stephenson","South Carolina","RB","71","195","4","0.9772","Stone Mountain","GA","USA","33.8080924","-84.1706273","13089"
"149080","534457","HighSchool","2012","48","Chris Black","First Coast","Alabama","WR","71","175","4","0.9772","Jacksonville","FL","USA","30.3321838","-81.655651","12031"
"149081","535268","HighSchool","2012","49","Zach Kline","San Ramon Valley","California","PRO","74","190","4","0.9771","Danville","CA","USA","37.8215929","-121.9999606","06013"
"149082","","HighSchool","2012","50","Tee Shepard","Washington Union","Notre Dame","CB","72","173","4","0.9763","Fresno","CA","USA","36.7295295","-119.70886126075588","06019"
"149083","531014","HighSchool","2012","51","Leonard Williams","Mainland","USC","SDE","77","265","4","0.9758","Daytona Beach","FL","USA","29.2108147","-81.0228331","12127"
"149084","-1034786","HighSchool","2012","52","Kennedy Estelle","Dawson","Texas","OT","79","300","4","0.9757","Pearland","TX","USA","29.5639758","-95.2864299","48039"
"149085","-1011778","HighSchool","2012","53","Jonathan Taylor","Jenkins County","Georgia","DT","76","317","4","0.9749","Millen","GA","USA","32.8040512","-81.9492812","13165"
"149086","-1034801","HighSchool","2012","54","Curtis Riser","DeSoto","Texas","OG","76","285","4","0.9737","DeSoto","TX","USA","32.6061241","-96.865612653687","48113"
"149087","-1020455","HighSchool","2012","55","Ondre Pipkins","Park Hill","Michigan","DT","75","305","4","0.9735","Kansas City","MO","USA","39.100105","-94.5781416","29095"
"149088","535927","HighSchool","2012","56","Brian Poole","Southeast","Florida","S","70","192","4","0.9734","Bradenton","FL","USA","27.4989278","-82.5748194","12081"
"149089","535956","HighSchool","2012","57","DaVonte' Neal","Central","Notre Dame","ATH","69","170","4","0.9732","Paradise Valley","AZ","USA","33.5428006","-111.9556001","04013"
"149090","535218","HighSchool","2012","58","Noor Davis","Leesburg","Stanford","OLB","76","233","4","0.9729","Leesburg","FL","USA","28.810823","-81.8778582","12069"
"149091","-1009874","HighSchool","2012","59","Jessamen Dunker","Boynton Beach Community","Florida","OG","77","315","4","0.9727","Boynton Beach","FL","USA","26.5256179","-80.0666026","12099"
"149092","530997","HighSchool","2012","60","Jabari Ruffin","Downey","USC","OLB","75","245","4","0.9725","Downey","CA","USA","33.942215","-118.1235646","06037"
"149093","531005","HighSchool","2012","61","Max Tuerk","Santa Margarita Catholic","USC","OT","78","254","4","0.9703","Rancho Santa Margarita","CA","USA","33.6408845","-117.6029341","06059"
"149094","531008","HighSchool","2012","62","Zach Banner","Lakes","USC","OT","81","330","4","0.9703","Lakewood","WA","USA","47.1714085","-122.5164","53053"
"149095","-1000921","HighSchool","2012","63","Geno Smith","St. Pius X","Alabama","CB","71.5","185","4","0.9702","Atlanta","GA","USA","33.7490987","-84.3901849","13121"
"149096","-1004750","HighSchool","2012","64","Javonte Magee","Sam Houston","Baylor","DT","78","264","4","0.97","San Antonio","TX","USA","29.4246002","-98.4951405","48029"
"149097","-1007831","HighSchool","2012","65","Yuri Wright","Don Bosco Prep","Colorado","CB","74","180","4","0.969","Ramsey","NJ","USA","41.0573188","-74.1409771","34003"
"149098","535214","HighSchool","2012","66","Alex Carter","Briar Woods","Stanford","S","73","182","4","0.9689","Ashburn","VA","USA","39.0437192","-77.4874899","51107"
"149099","533322","HighSchool","2012","67","Ifeadi Odenigbo","Centerville","Northwestern","OLB","75","212","4","0.9688","Dayton","OH","USA","39.7589478","-84.1916069","39113"
"149100","-1010962","HighSchool","2012","68","Ukeme Eligwe","Stone Mountain","Florida State","OLB","75","225","4","0.9683","Stone Mountain","GA","USA","33.8080924","-84.1706273","13089"
"149101","531078","HighSchool","2012","69","Cayleb Jones","Austin","Texas","WR","75","198","4","0.9681","Austin","TX","USA","30.2711286","-97.7436995","48453"
"149102","-1038915","HighSchool","2012","70","Jordan Simmons","Crespi","USC","OG","76","330","4","0.9668","Encino","CA","USA","34.1591324","-118.5016166","06037"
"149103","534596","HighSchool","2012","71","Carlos Watkins","Chase","Clemson","DT","76","290","4","0.9666","Forest City","NC","USA","35.3340108","-81.8651028","37161"
"149104","","HighSchool","2012","72","LaDarrell McNeil","A Maceo Smith","","S","73","186","4","0.9663","Dallas","TX","USA","32.7762719","-96.7968559","48113"
"149105","-1011711","HighSchool","2012","73","Todd Gurley","Tarboro","Georgia","RB","73","209","4","0.9654","Tarboro","NC","USA","35.8968236","-77.5358049","37065"
"149106","-1003668","HighSchool","2012","74","Avery Young","Palm Beach Gardens","Auburn","OT","78","281","4","0.965","Palm Beach Gardens","FL","USA","26.8418256","-80.13590694666684","12099"
"149107","534464","HighSchool","2012","75","Alex Ross","Jenks","Oklahoma","RB","74","213","4","0.9647","Jenks","OK","USA","36.0228734","-95.9683278","40143"
"149108","-1020414","HighSchool","2012","76","Joe Bolden","Colerain","Michigan","ILB","75","220","4","0.9646","Cincinnati","OH","USA","39.1014537","-84.5124602","39061"
"149109","535931","HighSchool","2012","77","Kent Taylor","Land O' Lakes","Florida","TE","77","210","4","0.9635","Land O Lakes","FL","USA","28.2188992","-82.4575938","12101"
"149110","534454","HighSchool","2012","78","Ryan Anderson","Daphne","Alabama","OLB","75","250","4","0.9634","Daphne","AL","USA","30.6035255","-87.9036047","01003"
"149111","534578","HighSchool","2012","79","Germone Hopper","Phillip O. Berry Academy","Clemson","WR","71","175","4","0.9632","Charlotte","NC","USA","35.2272","-80.843083","37119"
"149112","534450","HighSchool","2012","80","Durron Neal","DeSmet","Oklahoma","WR","73","180","4","0.9629","St. Louis","MO","USA","38.6268039","-90.1994097","29510"
"149113","-1020451","HighSchool","2012","81","Erik Magnuson","La Costa Canyon","Michigan","OT","78","275","4","0.9624","Encinitas","CA","USA","33.0369867","-117.2919818","06073"
"149114","535181","HighSchool","2012","82","Bryce Treggs","St. John Bosco","California","WR","71","170","4","0.9621","Bellflower","CA","USA","33.8825705","-118.1167679","06037"
"149115","-1027122","HighSchool","2012","83","Tommy Schutt","Glenbard West","Ohio State","DT","74","300","4","0.9619","Glen Ellyn","IL","USA","41.8775293","-88.0670118","17043"
"149116","","HighSchool","2012","84","Barry J. Sanders","Heritage Hall","Stanford","APB","69","180","4","0.9612","Oklahoma City","OK","USA","35.4729886","-97.5170536","40109"
"149117","-1003747","HighSchool","2012","85","Ricky Parks","Callaway","Auburn","TE","76","235","4","0.9609","Hogansville","GA","USA","33.1731769","-84.914936","13285"
"149118","530859","HighSchool","2012","86","Bralon Addison","Hightower","Oregon","WR","70","182","4","0.9602","Missouri City","TX","USA","29.6185669","-95.5377215","48157"
"149119","535961","HighSchool","2012","87","Elijah Shumate","Don Bosco Prep","Notre Dame","S","73","185","4","0.9595","Ramsey","NJ","USA","41.0573188","-74.1409771","34003"
"149120","535857","HighSchool","2012","88","Aaron Burbridge","Harrison","Michigan State","WR","73","190","4","0.959","Farmington","MI","USA","42.4644795","-83.3763219","27037"
"149121","-1027190","HighSchool","2012","89","Se'Von Pittman","McKinley","Ohio State","WDE","77","235","4","0.9582","Canton","OH","USA","40.7989522","-81.3784445","39151"
"149122","-1016561","HighSchool","2012","91","Kwon Alexander","Oxford","LSU","OLB","74","210","4","0.9572","Oxford","AL","USA","33.5853695","-85.91428175037092","01121"
"149123","534579","HighSchool","2012","92","Travis Blanks","North Florida Christian","Clemson","S","73","195","4","0.9567","Tallahassee","FL","USA","30.4380832","-84.2809332","12073"
"149124","-1032997","HighSchool","2012","93","Aziz Shittu","Buhach Colony","Stanford","DT","75","275","4","0.9566","Atwater","CA","USA","37.3477174","-120.609084","06047"
"149125","534289","HighSchool","2012","94","Bri'onte Dunn","GlenOak","Ohio State","RB","74","218","4","0.9564","Canton","OH","USA","40.7989522","-81.3784445","39151"
"149126","-1034759","HighSchool","2012","95","Shiro Davis","Woodlawn","Texas","OLB","75","220","4","0.9563","Shreveport","LA","USA","32.5221828","-93.7651944","22017"
"149127","","HighSchool","2012","96","JaQuay Savage","Sandy Creek","Auburn","WR","76","200","4","0.9557","Tyrone","GA","USA","33.4713249","-84.5972005","13113"
"149128","-1003644","HighSchool","2012","97","Jordan Diamond","Simeon","Auburn","OT","78","290","4","0.9557","Chicago","IL","USA","41.8755616","-87.6244212","17031"
"149129","-1043813","HighSchool","2012","98","Dan Voltz","Barrington","Wisconsin","OG","76","285","4","0.9556","Barrington","IL","USA","42.1539141","-88.1361888","17031"
"149130","534448","HighSchool","2012","99","Sterling Shepard","Heritage Hall","Oklahoma","WR","71","180","4","0.9551","Oklahoma City","OK","USA","35.4729886","-97.5170536","40109"
"149131","","HighSchool","2012","100","Angelo Jean-Louis","Palm Beach Central","Miami","WR","72","180","4","0.9546","West Palm Beach","FL","USA","26.715364","-80.0532942","12099"
"149132","-1022388","HighSchool","2012","101","Evan Boehm","Lee's Summit West","Missouri","OG","75","290","4","0.9539","Lee's Summit","MO","USA","38.9107156","-94.3821295","29095"
"149133","535325","HighSchool","2012","102","Cyler Miles","Mullen","Washington","DUAL","76","215","4","0.9536","Denver","CO","USA","39.7392364","-104.9848623","08031"
"149134","531012","HighSchool","2012","103","Jalen Cope-Fitzpatrick","Whitney","USC","TE","77","235","4","0.9534","Rocklin","CA","USA","38.7907339","-121.2357828","06061"
"149135","531009","HighSchool","2012","104","Darreus Rogers","Carson","USC","WR","74","200","4","0.9533","Carson","CA","USA","33.8322043","-118.2517547","06037"
"149136","532112","HighSchool","2012","105","De'Vante Harris","Horn","Texas A&M","CB","71","170","4","0.9532","Mesquite","TX","USA","32.7666103","-96.599472","48113"
"149137","530877","HighSchool","2012","106","Byron Marshall","Valley Christian","Oregon","RB","70","195","4","0.9531","San Jose","CA","USA","37.3361905","-121.8905833","06085"
"149138","-1035892","HighSchool","2012","107","Michael Starts","La Vega","Texas Tech","OT","77","285","4","0.953","Waco","TX","USA","31.549333","-97.1466695","48309"
"149139","534397","HighSchool","2012","108","Dillon Lee","Buford","Alabama","OLB","76","235","4","0.9528","Buford","GA","USA","34.1206564","-84.0043513","13135"
"149140","531088","HighSchool","2012","109","Kendall Sanders","Athens","Texas","CB","73","188","4","0.9519","Athens","TX","USA","32.2044416","-95.854914","48213"
"149141","535922","HighSchool","2012","110","Marcus Maye","Holy Trinity Episcopal Academy","Florida","OLB","73","195","4","0.9512","Melbourne","FL","USA","28.0836269","-80.6081089","12009"
"149142","-1026398","HighSchool","2012","111","Sheldon Day","Warren Central","Notre Dame","DT","74","286","4","0.9509","Indianapolis","IN","USA","39.7683331","-86.1583502","18097"
"149143","-1000965","HighSchool","2012","112","Tyler Hayes","Thomasville","Alabama","OLB","75","215","4","0.9507","Thomasville","AL","USA","31.9134859","-87.7358367","01025"
"149144","-1020456","HighSchool","2012","113","James Ross","St. Mary's","Michigan","ILB","73","215","4","0.9499","Orchard Lake","MI","USA","42.5869558","-83.36895696372882","26125"
"149145","531770","HighSchool","2012","114","Anthony Alford","Petal","Southern Miss","DUAL","72","200","4","0.9498","Petal","MS","USA","31.3465627","-89.2600605","28035"
"149146","","HighSchool","2012","115","Devonte Fields","Martin","TCU","SDE","76","225","4","0.9497","Arlington","TX","USA","32.701938999999996","-97.10562379033699","48439"
"149147","-1041044","HighSchool","2012","116","Kwontie Moore","Norfolk Christian","Virginia","ILB","73.5","243","4","0.9493","Norfolk","VA","USA","36.8462923","-76.2929252","51710"
"149148","-1019717","HighSchool","2012","117","Jelani Hamilton","St. Thomas Aquinas","Miami","SDE","76","265","4","0.949","Fort Lauderdale","FL","USA","26.1223084","-80.1433786","12011"
"149149","534576","HighSchool","2012","118","P.J. Williams","Vanguard","Florida State","S","73","170","4","0.9487","Ocala","FL","USA","29.1871986","-82.1400923","12083"
"149150","531075","HighSchool","2012","119","Peter Jinkens","Skyline","Texas","OLB","73","200","4","0.9486","Dallas","TX","USA","32.7762719","-96.7968559","48113"
"149151","530527","HighSchool","2012","120","Joel Caleb","Clover Hill","Virginia Tech","WR","75","203","4","0.9485","Midlothian","VA","USA","37.5062673","-77.649268","51041"
"149152","-1022101","HighSchool","2012","121","Quay Evans","Morton","Mississippi State","DT","75","305","4","0.9482","Morton","MS","USA","32.3537557","-89.6545171","28123"
"149153","534304","HighSchool","2012","122","Armani Reeves","Catholic Memorial","Ohio State","CB","71","180","4","0.9478","West Roxbury","MA","USA","42.2792649","-71.1494972","25025"
"149154","","HighSchool","2012","123","Tanner Mangum","Eagle","BYU","PRO","75","190","4","0.9475","Eagle","ID","USA","43.6954424","-116.3540138","16001"
"149155","-1035195","HighSchool","2012","124","Matt Davis","Klein Forest","Texas A&M","DUAL","74","211","4","0.947","Houston","TX","USA","29.7589382","-95.3676974","48201"
"149156","-1026408","HighSchool","2012","125","Ronnie Stanley","Bishop Gorman","Notre Dame","OT","78","285","4","0.9461","Las Vegas","NV","USA","36.1672559","-115.1485163","32003"
"149157","530405","HighSchool","2012","126","Tyriq McCord","Jefferson","Miami","WDE","75","220","4","0.9459","Tampa","FL","USA","27.9477595","-82.458444","12057"
"149158","535151","HighSchool","2012","127","Chris Wormley","Whitmer","Michigan","SDE","77","250","4","0.9456","Toledo","OH","USA","41.6786754","-83.5127283","39095"
"149159","535744","HighSchool","2012","128","Kenyan Drake","Hillgrove","Alabama","APB","73","187","4","0.9454","Powder Springs","GA","USA","33.8595492","-84.683824","13067"
"149160","530311","HighSchool","2012","129","Deon Bush","Columbus","Miami","S","73","176","4","0.9452","Miami","FL","USA","25.7742658","-80.1936589","12086"
"149161","535746","HighSchool","2012","130","Brandon Greene","Cedar Grove","Alabama","OT","77","297","4","0.945","Ellenwood","GA","USA","33.6101096","-84.287978","13063"
"149162","","HighSchool","2012","131","Scott Felix","Norco","USC","ILB","75","220","4","0.9438","Norco","CA","USA","33.9323307","-117.5508901","06065"
"149163","530991","HighSchool","2012","132","Kevon Seymour","John Muir","USC","CB","72","180","4","0.9437","Pasadena","CA","USA","34.1476452","-118.1444779","06037"
"149164","534301","HighSchool","2012","133","Joshua Perry","Olentangy","Ohio State","OLB","75","220","4","0.9436","Lewis Center","OH","USA","40.1983958","-83.0101843","39041"
"149165","-1034794","HighSchool","2012","134","Camrhon Hughes","Harker Heights","Texas","OT","78","319","4","0.9435","Harker Heights","TX","USA","31.0746347","-97.6590473","48027"
"149166","530981","HighSchool","2012","135","Jordan Payton","Oaks Christian","UCLA","WR","74","195","4","0.9427","Thousand Oaks","CA","USA","34.17142715","-118.91058772974445","06111"
"149167","531254","HighSchool","2012","136","Ishmael Adams","Oaks Christian","UCLA","CB","70","182","4","0.9427","Thousand Oaks","CA","USA","34.17142715","-118.91058772974445","06111"
"149168","-1009866","HighSchool","2012","137","Colin Thompson","Archbishop Wood","Florida","TE","77","263","4","0.9427","Warminster","PA","USA","40.2067751","-75.0996159","42017"
"149169","534754","HighSchool","2012","138","D.J. Foster","Saguaro","Arizona State","ATH","72","185","4","0.9421","Scottsdale","AZ","USA","33.4942189","-111.9260184","04013"
"149170","-1000876","HighSchool","2012","139","Denzel Devall","Bastrop","Alabama","ILB","74","240","4","0.9415","Bastrop","LA","USA","32.7761446","-91.9082967","48021"
"149171","","HighSchool","2012","140","Leonard Floyd","Dodge County","Georgia","OLB","77","211","4","0.941","Eastman","GA","USA","32.1976729","-83.1776514","13091"
"149172","536031","HighSchool","2012","141","Sean Price","North Marion","South Florida","TE","75","235","4","0.9408","Citra","FL","USA","29.4119166","-82.1098156","12083"
"149173","534242","HighSchool","2012","142","Wes Brown","Our Lady of Good Counsel","Maryland","RB","72","201","4","0.9404","Olney","MD","USA","39.1532123","-77.0668408","24031"
"149174","535154","HighSchool","2012","143","Royce Jenkins-Stone","Cass Technical","Michigan","OLB","74","228","4","0.9403","Detroit","MI","USA","42.3315509","-83.0466403","26163"
"149175","535960","HighSchool","2012","144","KeiVarae Russell","Mariner","Notre Dame","APB","72","175","4","0.9403","Everett","WA","USA","47.9673056","-122.2013998","53061"
"149176","531104","HighSchool","2012","145","Justin Thomas","Prattville","Georgia Tech","ATH","70","176","4","0.94","Prattville","AL","USA","32.4640245","-86.4596966","01001"
"149177","530401","HighSchool","2012","146","Raphael Kirby","Stephenson","Miami","ILB","74","215","4","0.9397","Stone Mountain","GA","USA","33.8080924","-84.1706273","13089"
"149178","-1020430","HighSchool","2012","147","Terry Richardson","Cass Technical","Michigan","CB","69","165","4","0.9396","Detroit","MI","USA","42.3315509","-83.0466403","26163"
"149179","530907","HighSchool","2012","148","Ricardo Louis","Miami Beach Senior","Auburn","WR","74","210","4","0.9393","Miami Beach","FL","USA","25.7929198","-80.1353006","12086"
"149180","-1035846","HighSchool","2012","149","Dominique Wheeler","Crockett","Texas Tech","ATH","74","178","4","0.9391","Crockett","TX","USA","31.318017","-95.4572993","48225"
"149181","534807","HighSchool","2012","150","Vince Biegel","Lincoln","Wisconsin","OLB","75","210","4","0.9388","Wisconsin Rapids","WI","USA","44.3917589","-89.8228767","55141"
"149182","-1023365","HighSchool","2012","151","Paul Thurston","Arvada West","Nebraska","OT","77","275","4","0.9385","Arvada","CO","USA","39.8211225","-105.22074299044587","08059"
"149183","535952","HighSchool","2012","152","Jarron Jones","Aquinas Institute","Notre Dame","OT","78","300","4","0.9381","Rochester","NY","USA","43.157285","-77.615214","36055"
"149184","-1029178","HighSchool","2012","153","Geno Lewis","Wyoming Valley West","Penn State","WR","73","180","4","0.9373","Plymouth","PA","USA","41.2403596","-75.9446428","42079"
"149185","535497","HighSchool","2012","154","Corey Coleman","Pearce","Baylor","ATH","71","173","4","0.9371","Richardson","TX","USA","32.9481789","-96.7297206","48113"
"149186","-1011032","HighSchool","2012","155","Marvin Bracy","Boone","Florida State","WR","69","165","4","0.9363","Orlando","FL","USA","28.5421109","-81.3790304","12095"
"149187","530303","HighSchool","2012","156","Justin Shanks","Prattville","Florida State","DT","74","295","4","0.936","Prattville","AL","USA","32.4640245","-86.4596966","01001"
"149188","530920","HighSchool","2012","157","Joshua Holsey","Creekside","Auburn","CB","71","175","4","0.9358","Fairburn","GA","USA","33.5670562","-84.5810418","13121"
"149189","-1019743","HighSchool","2012","158","Ereck Flowers","Norland","Miami","OT","78","315","4","0.9349","Miami","FL","USA","25.7742658","-80.1936589","12086"
"149190","535917","HighSchool","2012","159","Matt Jones","Armwood","Florida","ATH","75","230","4","0.9347","Seffner","FL","USA","27.998541000000003","-82.27488400114905","12057"
"149191","-1003720","HighSchool","2012","160","Tyler Nero","Escambia County","Auburn","DT","74","285","4","0.9344","Atmore","AL","USA","31.0237921","-87.4938708","01053"
"149192","-1032047","HighSchool","2012","161","Brock Stadnik","Western Guilford","South Carolina","OT","77","285","4","0.9341","Greensboro","NC","USA","36.0726355","-79.7919754","37081"
"149193","-1034440","HighSchool","2012","162","Omari Phillips","Venice","Tennessee","DT","78","325","4","0.9327","Venice","FL","USA","27.0999188","-82.4543597","12115"
"149194","-1027110","HighSchool","2012","163","Taylor Decker","Butler","Ohio State","OT","80","315","4","0.9326","Vandalia","OH","USA","39.8906122","-84.1988308","39113"
"149195","534884","HighSchool","2012","164","Gabe Marks","Venice","Washington State","WR","71","175","4","0.9325","Los Angeles","CA","USA","34.0536909","-118.2427666","06037"
"149196","531058","HighSchool","2012","165","Adrian Colbert","Mineral Wells","Texas","S","73","193","4","0.9324","Mineral Wells","TX","USA","32.8084605","-98.1128223","48363"
"149197","-1027152","HighSchool","2012","166","Camren Williams","Catholic Memorial","Ohio State","OLB","73","217","4","0.9324","West Roxbury","MA","USA","42.2792649","-71.1494972","25025"
"149198","-1016533","HighSchool","2012","167","Vadal Alexander","Buford","LSU","OG","78","315","4","0.9324","Buford","GA","USA","34.1206564","-84.0043513","13135"
"149199","","HighSchool","2012","168","John Michael McGee","Texas High","Oklahoma","OG","76","255","4","0.9312","Texarkana","TX","USA","33.44628645","-94.07638067493534","48037"
"149200","-1018051","HighSchool","2012","169","Keith Brown","Norland","Louisville","ILB","74","218","4","0.931","Miami","FL","USA","25.7742658","-80.1936589","12086"
"149201","-1032445","HighSchool","2012","170","D'vario Montgomery","Winter Park","South Florida","WR","75","210","4","0.9308","Winter Park","FL","USA","26.13784445","-81.75399813758739","12021"
"149202","-1000857","HighSchool","2012","171","Korren Kirven","Brookville","Alabama","DT","76","280","4","0.9305","Lynchburg","VA","USA","37.4137536","-79.1422464","51680"
"149203","531093","HighSchool","2012","172","Duke Thomas","Copperas Cove","Texas","ATH","70","165","4","0.93","Copperas Cove","TX","USA","31.124062","-97.9030785","48099"
"149204","-1027188","HighSchool","2012","173","David Perkins","Washington","Ohio State","OLB","75","230","4","0.93","South Bend","IN","USA","41.6833813","-86.2500066","18141"
"149205","537313","HighSchool","2012","174","Leonte Carroo","Don Bosco Prep","Rutgers","WR","74","195","4","0.9294","Ramsey","NJ","USA","41.0573188","-74.1409771","34003"
"149206","-1034827","HighSchool","2012","175","Connor Brewer","Chaparral","Texas","PRO","74","195","4","0.9289","Paradise Valley","AZ","USA","33.5428006","-111.9556001","04013"
"149207","-1035794","HighSchool","2012","176","Reginald Davis","Tenaha","Texas Tech","ATH","73","188","4","0.9289","Tenaha","TX","USA","31.9437799","-94.2440865","48419"
"149208","-1020434","HighSchool","2012","177","Tom Strobel","Mentor","Michigan","WDE","78","240","4","0.9284","Mentor","OH","USA","41.6661573","-81.339552","39085"
"149209","535833","HighSchool","2012","178","Greg Garmon","McDowell","Iowa","ATH","73","200","4","0.9283","Erie","PA","USA","42.1294712","-80.0852695","42049"
"149210","535893","HighSchool","2012","179","Jonathan Williams","Allen","Arkansas","RB","71","205","4","0.9276","Allen","TX","USA","33.1031744","-96.6705503","48085"
"149211","531359","HighSchool","2012","180","Nick James","Long Beach","Mississippi State","DT","77","335","4","0.9275","Long Beach","MS","USA","30.3504751","-89.1528176","28047"
"149212","535176","HighSchool","2012","181","Sheldon Dawson","Ridgeway","Georgia","ATH","71","178","4","0.9274","Memphis","TN","USA","35.1490215","-90.0516285","47157"
"149213","534477","HighSchool","2012","182","Derrick Woods","Inglewood","Oklahoma","WR","73","185","4","0.9273","Inglewood","CA","USA","33.9562003","-118.353132","06037"
"149214","-1001861","HighSchool","2012","183","Evan Goodman","Lakeland","Arizona State","OT","76","290","4","0.9271","Lakeland","FL","USA","28.0394654","-81.9498042","12105"
"149215","535324","HighSchool","2012","184","Jaydon Mickens","Dorsey","Washington","WR","69","165","4","0.9268","Los Angeles","CA","USA","34.0536909","-118.2427666","06037"
"149216","","HighSchool","2012","185","Deon-Tay McManus","Dunbar","West Virginia","OLB","74","210","4","0.9268","Baltimore","MD","USA","39.2908816","-76.610759","24510"
"149217","-1034762","HighSchool","2012","186","Bryson Echols","DeSoto","Texas","CB","70","173","4","0.9266","DeSoto","TX","USA","32.6061241","-96.865612653687","48113"
"149218","","HighSchool","2012","187","Chad Kelly","St. Joseph School","Clemson","DUAL","75","205","4","0.9264","Buffalo","NY","USA","42.8867166","-78.8783922","36029"
"149219","-1003744","HighSchool","2012","188","Patrick Miller","Dwyer","Auburn","OT","78","275","4","0.9262","Palm Beach Gardens","FL","USA","26.8418256","-80.13590694666684","12099"
"149220","530869","HighSchool","2012","189","Pharaoh Brown","Brush","Oregon","WDE","78","230","4","0.926","Cleveland","OH","USA","41.5051613","-81.6934446","39035"
"149221","","HighSchool","2012","190","Troy Hinds","Davis","BYU","WDE","76","225","4","0.926","Kaysville","UT","USA","41.0349847","-111.9383931","49011"
"149222","","HighSchool","2012","191","Javarius Leamon","Woodruff","South Carolina State","OT","78","290","4","0.9259","Woodruff","SC","USA","34.7395701","-82.0370466","45083"
"149223","535859","HighSchool","2012","192","Demetrious Cox","Jeannette","Michigan State","S","73","187","4","0.9255","Jeannette","PA","USA","40.3281247","-79.6153198","42129"
"149224","530532","HighSchool","2012","193","Ken Ekanem","Centreville","Virginia Tech","WDE","75","245","4","0.9251","Clifton","VA","USA","38.7802204","-77.3864722","51059"
"149225","535146","HighSchool","2012","194","Dennis Norfleet","Martin Luther King","Michigan","APB","68","175","4","0.9241","Detroit","MI","USA","42.3315509","-83.0466403","26163"
"149226","-1016571","HighSchool","2012","195","Danielle Hunter","Katy","LSU","WDE","76","220","4","0.9241","Katy","TX","USA","29.7857853","-95.8243956","48157"
"149227","","HighSchool","2012","196","Drew Harris","Downingtown East","Virginia Tech","RB","74","195","4","0.9239","Exton","PA","USA","40.0289955","-75.6207651","42029"
"149228","-1027108","HighSchool","2012","197","De'van Bogard","Glenville","Ohio State","S","72","190","4","0.9232","Cleveland","OH","USA","41.5051613","-81.6934446","39035"
"149229","534280","HighSchool","2012","198","Warren Ball","St. Francis de Sales","Ohio State","RB","74","203","4","0.9227","Columbus","OH","USA","39.9622601","-83.0007065","39049"
"149230","535850","HighSchool","2012","199","Faith Ekakitie","Lake Forest Academy","Iowa","SDE","75","285","4","0.9226","Lake Forest","IL","USA","42.2586342","-87.840625","17097"
"149231","-1027131","HighSchool","2012","200","Kyle Dodson","Cleveland Heights","Ohio State","OT","78","330","4","0.9225","Cleveland","OH","USA","41.5051613","-81.6934446","39035"
"149232","-1029762","HighSchool","2012","201","Ryan Watson","Our Lady of Good Counsel","Purdue","SDE","75","275","4","0.9223","Olney","MD","USA","39.1532123","-77.0668408","24031"
"149233","-1041045","HighSchool","2012","202","Mike Moore","DeMatha Catholic","Virginia","SDE","76","255","4","0.9223","Hyattsville","MD","USA","38.9529442","-76.9408647","24033"
"149234","535460","HighSchool","2012","203","A.J. Leggett","South Miami Senior","Marshall","CB","71","175","4","0.922","Miami","FL","USA","25.7742658","-80.1936589","12086"
"149235","-1028419","HighSchool","2012","204","Alex Balducci","Central Catholic","Oregon","SDE","77","265","4","0.9216","Portland","OR","USA","45.5202471","-122.6741949","41051"
"149236","532093","HighSchool","2012","205","Danny O'Brien","Flint Powers Catholic","Tennessee","DT","75","300","4","0.9215","Flint","MI","USA","43.0161693","-83.6900211","26049"
"149237","-1027462","HighSchool","2012","206","Ty Darlington","Apopka","Oklahoma","OC","75","270","4","0.9214","Apopka","FL","USA","28.6779683","-81.5115214","12095"
"149238","535249","HighSchool","2012","207","Michael Barton","De La Salle","California","OLB","73","205","4","0.9213","Concord","CA","USA","37.9768525","-122.0335624","06013"
"149239","535847","HighSchool","2012","208","Jaleel Johnson","Montini Catholic","Iowa","DT","75","290","4","0.9212","Lombard","IL","USA","41.8864687","-88.0201536","17043"
"149240","535373","HighSchool","2012","209","Kwinton Smith","Dillon","South Carolina","WR","76","200","4","0.9212","Dillon","SC","USA","34.4165391","-79.3713948","45033"
"149241","531076","HighSchool","2012","210","Daje Johnson","Hendrickson","Texas","ATH","70","180","4","0.921","Pflugerville","TX","USA","30.4393696","-97.6200043","48453"
"149242","530450","HighSchool","2012","211","Chad Voytik","Cleveland","Pittsburgh","PRO","73","205","4","0.9204","Cleveland","TN","USA","35.1595182","-84.8766115","47011"
"149243","534813","HighSchool","2012","212","Bart Houston","De La Salle","Wisconsin","PRO","75","200","4","0.9203","Concord","CA","USA","37.9768525","-122.0335624","06013"
"149244","-1040027","HighSchool","2012","213","Jeremiah Poutasi","Desert Pines","Utah","OT","77","320","4","0.9201","Las Vegas","NV","USA","36.1672559","-115.1485163","32003"
"149245","534413","HighSchool","2012","214","Dwayne Thomas","O. Perry Walker","LSU","CB","73","173","4","0.9197","New Orleans","LA","USA","29.9499323","-90.0701156","22071"
"149246","535761","HighSchool","2012","215","Dalvin Tomlinson","Henry County","Alabama","DT","75","270","4","0.9195","McDonough","GA","USA","33.4473361","-84.1468616","13151"
"149247","-1030309","HighSchool","2012","216","Chris Muller","Boyertown Area","Rutgers","OT","78","287","4","0.9193","Boyertown","PA","USA","40.3337075","-75.6374083","42011"
"149248","530298","HighSchool","2012","217","Christo Kourtzidis","Orange Lutheran","Florida State","TE","76","238","4","0.9191","Orange","CA","USA","33.7872568","-117.8503088","06059"
"149249","535165","HighSchool","2012","218","Amara Darboh","Dowling Catholic","Michigan","WR","74","205","4","0.9188","West Des Moines","IA","USA","41.5645337","-93.7595281","19153"
"149250","531059","HighSchool","2012","219","Timothy Cole","Brenham","Texas","OLB","73","205","4","0.9188","Brenham","TX","USA","30.1668828","-96.3977442","48477"
"149251","531089","HighSchool","2012","220","Dalton Santos","Van HS","Texas","ILB","75","250","4","0.9187","Van","TX","USA","32.5249976","-95.6376281","48467"
"149252","-1030305","HighSchool","2012","221","J.J. Denman","Pennsbury","Rutgers","OT","78","310","4","0.9183","Fairless Hills","PA","USA","40.1795537","-74.8551644","42017"
"149253","530868","HighSchool","2012","222","Evan Baylis","Grandview","Oregon","TE","77","230","4","0.918","Aurora","CO","USA","39.729432","-104.8319196","08005"
"149254","-1029514","HighSchool","2012","223","Deaysean Rippy","Sto-Rox","Pittsburgh","OLB","74","205","4","0.9179","Mckees Rocks","PA","USA","40.4656244","-80.0656106","42003"
"149255","530870","HighSchool","2012","224","DeForest Buckner","Punahou","Oregon","WDE","79","238","4","0.9177","Honolulu","HI","USA","21.304547","-157.8556764","15003"
"149256","-1018112","HighSchool","2012","225","Nick Dawson","Phillip O. Berry Academy","Louisville","ILB","75","240","4","0.9176","Charlotte","NC","USA","35.2272","-80.843083","37119"
"149257","-1009807","HighSchool","2012","226","Jeremi Powell","Pinellas Park","Florida","OLB","74","200","4","0.9176","Largo","FL","USA","27.9094665","-82.7873244","12103"
"149258","530878","HighSchool","2012","227","Jake Rodrigues","Whitney","Oregon","PRO","75","215","4","0.9176","Rocklin","CA","USA","38.7907339","-121.2357828","06061"
"149259","-1016610","HighSchool","2012","228","Lorenzo Phillips","Patterson","LSU","OLB","73","200","4","0.9174","Patterson","LA","USA","29.6933","-91.3021","06099"
"149260","-1034775","HighSchool","2012","229","Hassan Ridgeway","Mansfield","Texas","SDE","76","250","4","0.9174","Mansfield","TX","USA","32.5631924","-97.1416768","48439"
"149261","531996","HighSchool","2012","230","Brian Kimbrow","East","Vanderbilt","APB","69","165","4","0.9171","Memphis","TN","USA","35.1490215","-90.0516285","47157"
"149262","534582","HighSchool","2012","231","Zac Brooks","Jonesboro","Clemson","ATH","73","180","4","0.9165","Jonesboro","AR","USA","35.8428646","-90.7034522","05031"
"149263","-1003711","HighSchool","2012","232","Shane Callahan","Chaparral","Auburn","OT","78","275","4","0.9165","Parker","CO","USA","39.5184514","-104.7612638","08035"
"149264","","HighSchool","2012","233","John Thomas","Airline","LSU","TE","77","250","4","0.9165","Bossier City","LA","USA","32.5369356","-93.6952689","22015"
"149265","535178","HighSchool","2012","234","Darius Powe","Lakewood","California","WR","74","195","4","0.9164","Lakewood","CA","USA","33.8503463","-118.1171914","06037"
"149266","-1034358","HighSchool","2012","235","Drae Bowles","Jackson Christian","Tennessee","WR","73","200","4","0.916","Jackson","TN","USA","35.6144446","-88.8177418","47113"
"149267","","HighSchool","2012","236","Avery Peterson","Blanche Ely","LSU","WR","74","185","4","0.9159","Chatham","VA","USA","36.8256943","-79.3980806","51143"
"149268","531132","HighSchool","2012","237","Francis Kallon","Central Gwinnett","Georgia Tech","SDE","77","254","4","0.9158","Lawrenceville","GA","USA","33.9562149","-83.9879625","13135"
"149269","532069","HighSchool","2012","238","Jason Croom","Norcross","Tennessee","WR","77","220","4","0.9157","Norcross","GA","USA","33.9412127","-84.2135309","13135"
"149270","531335","HighSchool","2012","239","Beniquez Brown","Florence","Mississippi State","OLB","73.5","215","4","0.9154","Florence","AL","USA","34.79981","-87.677251","01077"
"149271","530916","HighSchool","2012","240","Cassanova McKinzy","Woodlawn","Auburn","OLB","75","230","4","0.915","Birmingham","AL","USA","33.5206824","-86.8024326","01073"
"149272","530699","HighSchool","2012","241","Jarrod Wilson","Buchtel","Michigan","S","75","190","4","0.9145","Akron","OH","USA","41.083064","-81.518485","39153"
"149273","530521","HighSchool","2012","242","Greyson Lambert","Wayne County","Virginia","PRO","77","208","4","0.9143","Jesup","GA","USA","31.6074365","-81.8853924","13305"
"149274","-1026441","HighSchool","2012","243","Will Mahone","Fitch","Notre Dame","RB","71","205","4","0.914","Youngstown","OH","USA","41.1035786","-80.6520161","39099"
"149275","531249","HighSchool","2012","244","Griffin Gilbert","Lake Travis","TCU","WR","77","195","4","0.9138","Austin","TX","USA","30.2711286","-97.7436995","48453"
"149276","-1038365","HighSchool","2012","245","Aaron Porter","La Habra","UCLA","ILB","73","230","4","0.9136","La Habra","CA","USA","33.9330156","-117.944777","06059"
"149277","535286","HighSchool","2012","246","Luke Kaumatule","Punahou","Stanford","SDE","80","270","4","0.9136","Honolulu","HI","USA","21.304547","-157.8556764","15003"
"149278","","HighSchool","2012","247","Joe Harris","Lithonia","South Carolina","OG","75","292","4","0.9135","Lithonia","GA","USA","33.7123305","-84.1051939","13089"
"149279","535872","HighSchool","2012","248","Monty Madaris","Archbishop Moeller","Michigan State","WR","73","190","4","0.9131","Cincinnati","OH","USA","39.1014537","-84.5124602","39061"
"149280","-1035124","HighSchool","2012","249","Mike Matthews","Elkins","Texas A&M","OC","75","265","4","0.9121","Missouri City","TX","USA","29.6185669","-95.5377215","48157"
"149281","531077","HighSchool","2012","250","Marcus Johnson","Clear Springs","Texas","WR","74","183","4","0.9119","League City","TX","USA","29.5074538","-95.0949303","48167"
"149282","530522","HighSchool","2012","251","J.C. Coleman","Oscar Smith","Virginia Tech","APB","66","175","4","0.9114","Chesapeake","VA","USA","36.7183708","-76.2466798","51550"
"149283","535155","HighSchool","2012","252","Mario Ojemudia","Harrison","Michigan","WDE","74","215","4","0.9114","Farmington","MI","USA","42.4644795","-83.3763219","27037"
"149284","-1009861","HighSchool","2012","253","Rhaheim Ledbetter","Crest","Florida","S","71","190","4","0.9113","Shelby","NC","USA","35.2919489","-81.5402112","37045"
"149285","530873","HighSchool","2012","254","Reggie Daniels","Hamilton","Oregon","S","74","185","4","0.9113","Chandler","AZ","USA","33.3062223","-111.8413317","04013"
"149286","","HighSchool","2012","255","Brian Nance","Trinity","Baylor","OLB","75","230","4","0.911","Euless","TX","USA","32.8457865","-97.0667142473263","48439"
"149287","-1032999","HighSchool","2012","256","Graham Shuler","Brentwood Academy","Stanford","OG","76","268","4","0.9109","Brentwood","TN","USA","36.0325687","-86.7825235","47187"
"149288","534411","HighSchool","2012","257","Corey Thompson","Elkins","LSU","S","74","202","4","0.9107","Missouri City","TX","USA","29.6185669","-95.5377215","48157"
"149289","530985","HighSchool","2012","258","Marcus Rios","Cosumnes Oaks","UCLA","CB","72","170","4","0.9105","Elk Grove","CA","USA","38.4087993","-121.3716178","06067"
"149290","-1016542","HighSchool","2012","259","Ronnie Feist","West St. John","LSU","OLB","73","225","4","0.91","Edgard","LA","USA","30.0432578","-90.5600869","22095"
"149291","-1023355","HighSchool","2012","260","Greg McMullen","Archbishop Hoban","Nebraska","SDE","77","255","4","0.9099","Akron","OH","USA","41.083064","-81.518485","39153"
"149292","-1035119","HighSchool","2012","261","Germain Ifedi","Westside","Texas A&M","OG","78","305","4","0.9098","Houston","TX","USA","29.7589382","-95.3676974","48201"
"149293","-1027186","HighSchool","2012","262","Joey O'Connor","Windsor","Ohio State","OG","75","280","4","0.9096","Severance","CO","USA","","",""
"149294","534485","HighSchool","2012","263","Taylor McNamara","Westview","Oklahoma","TE","77","240","4","0.9096","San Diego","CA","USA","32.7174209","-117.1627714","06073"
"149295","533303","HighSchool","2012","264","Jordan Westerkamp","Montini Catholic","Nebraska","WR","73","190","4","0.9095","Lombard","IL","USA","41.8864687","-88.0201536","17043"
"149296","535145","HighSchool","2012","265","Devin Funchess","Harrison","Michigan","TE","76","215","4","0.9095","Farmington","MI","USA","42.4644795","-83.3763219","27037"
"149297","533277","HighSchool","2012","266","Imani Cross","North Hall","Nebraska","RB","73","222","4","0.9094","Gainesville","GA","USA","34.2978794","-83.8240663","13139"
"149298","-1000869","HighSchool","2012","267","Alphonse Taylor","WP Davidson","Alabama","OT","77","330","4","0.9093","Mobile","AL","USA","30.6943566","-88.0430541","01097"
"149299","532059","HighSchool","2012","268","Pig Howard","Edgewater","Tennessee","WR","68","180","4","0.9088","Orlando","FL","USA","28.5421109","-81.3790304","12095"
"149300","-1011677","HighSchool","2012","269","Josh Dawson","Tucker","Georgia","WDE","76","220","4","0.9088","Tucker","GA","USA","33.8532701","-84.2200729","13089"
"149301","","HighSchool","2012","270","Jeremy Liggins","Lafayette","LSU","ATH","75","270","4","0.9088","Oxford","MS","USA","34.3664127","-89.5187664","28071"
"149302","-1033595","HighSchool","2012","271","Halapoulivaati Vaitai","Haltom","TCU","OT","78","260","4","0.9086","Fort Worth","TX","USA","32.753177","-97.3327459","48439"
"149303","-1043833","HighSchool","2012","272","Vonte Jackson","Bradford","Wisconsin","RB","72","180","4","0.9084","Kenosha","WI","USA","42.5846773","-87.8212263","55059"
"149304","","HighSchool","2012","273","Jalen Cobb","Warren","","WR","73","180","4","0.908","Warren","AR","USA","33.6126086","-92.0645831","05011"
"149305","535318","HighSchool","2012","274","Jeff Lindquist","Mercer Island","Washington","PRO","75","225","4","0.9079","Mercer Island","WA","USA","47.5602073","-122.22014226861951","53033"
"149306","535304","HighSchool","2012","275","Jordan Watkins","Woodward Academy","Stanford","DT","77","256","4","0.9074","Atlanta","GA","USA","33.7490987","-84.3901849","13121"
"149307","535331","HighSchool","2012","276","Pio Vatuvei","Patterson","Washington","SDE","75","265","4","0.9071","Patterson","CA","USA","37.471623","-121.1296949","06099"
"149308","","HighSchool","2012","277","Quanzell Lambert","Timber Creek","Rutgers","ILB","75","240","4","0.9066","Sicklerville","NJ","USA","39.7173375","-74.9693329","34007"
"149309","-1027824","HighSchool","2012","278","Michael Wilson","Aledo","Oklahoma State","OT","78","250","4","0.9061","Aledo","TX","USA","32.69900905","-97.60396629774493","48367"
"149310","-1002317","HighSchool","2012","279","Otha Peters","Covington","Arkansas","OLB","73","223","4","0.9057","Covington","LA","USA","30.4754702","-90.1009108","21117"
"149311","-1034826","HighSchool","2012","280","Paul Boyette","Humble","Texas","DT","76","290","4","0.9056","Humble","TX","USA","29.9988312","-95.2621553","48201"
"149312","535510","HighSchool","2012","281","Ryan Reid","Sherman","Baylor","CB","69","182","4","0.9053","Sherman","TX","USA","33.6398609","-96.6089146","48181"
"149313","530403","HighSchool","2012","282","Malcolm Lewis","Miramar","Miami","WR","72","190","4","0.9052","Hollywood","FL","USA","26.0112014","-80.1494901","12011"
"149314","","HighSchool","2012","283","Cordrea Tankersley","Silver Bluff","Clemson","ATH","74","185","4","0.9051","Aiken","SC","USA","33.5598586","-81.721952","45003"
"149315","534418","HighSchool","2012","284","Lamar Louis","Breaux Bridge","LSU","OLB","72","210","4","0.9049","Breaux Bridge","LA","USA","30.2735323","-91.8992837","22099"
"149316","535877","HighSchool","2012","285","Keon Hatcher","Owasso","Arkansas","WR","74","195","4","0.9046","Owasso","OK","USA","36.2661536","-95.8549456","40143"
"149317","-1016611","HighSchool","2012","286","Derrick Raymond","East Jefferson","LSU","CB","72","165","4","0.9044","Metairie","LA","USA","30.001852","-90.1767149159888","22051"
"149318","535270","HighSchool","2012","287","Kenny Lawler","Upland","California","WR","75","175","4","0.9043","Upland","CA","USA","34.09751","-117.6483876","06071"
"149319","531051","HighSchool","2012","288","Travis Wilson","San Clemente","Utah","PRO","78","210","4","0.9043","San Clemente","CA","USA","33.4270275","-117.6124179","06059"
"149320","534661","HighSchool","2012","289","Brandon Sheperd","Parkway Central","Oklahoma State","WR","75","185","4","0.9041","Chesterfield","MO","USA","38.661953","-90.5643258","29189"
"149321","533270","HighSchool","2012","290","Tommy Armstrong","Steele","Nebraska","DUAL","73","200","4","0.9037","Schertz","TX","USA","29.5641617","-98.2695702","48187"
"149322","534449","HighSchool","2012","291","Trevor Knight","Reagan","Oklahoma","PRO","75","195","4","0.9037","San Antonio","TX","USA","29.4246002","-98.4951405","48029"
"149323","534586","HighSchool","2012","292","Martin Aiken","Bamberg-Ehrhardt","Clemson","SDE","75","240","4","0.9036","Bamberg","SC","USA","33.2971012","-81.0348202","45009"
"149324","531387","HighSchool","2012","293","Donavin Newsom","North","Missouri","ILB","74","220","4","0.9035","St. Louis","MO","USA","38.6268039","-90.1994097","29510"
"149325","-1007407","HighSchool","2012","294","Ronald Geohaghan","Allendale Fairfax","Clemson","S","73","190","4","0.9033","Fairfax","SC","USA","32.9585379","-81.2372124","45005"
"149326","-1023423","HighSchool","2012","295","Michael Rose-Ivey","Rockhurst","Nebraska","ILB","72","225","4","0.9032","Kansas City","MO","USA","39.100105","-94.5781416","29095"
"149327","","HighSchool","2012","296","Freddie Tagaloa","Salesian","Arizona","OT","80","315","4","0.9031","Richmond","CA","USA","37.9357576","-122.3477486","06013"
"149328","-1016595","HighSchool","2012","297","Derek Edinburgh","Edna Karr","LSU","OT","80","320","4","0.903","New Orleans","LA","USA","29.9499323","-90.0701156","22071"
"149329","534423","HighSchool","2012","298","Jeremy Hill","Redemptorist","LSU","RB","73","220","4","0.9025","Baton Rouge","LA","USA","30.4459596","-91.18738","22033"
"149330","535308","HighSchool","2012","299","Brandon Beaver","Compton Dominguez","Washington","CB","73","179","4","0.9024","Compton","CA","USA","33.894927","-118.226624","06037"
"149331","535358","HighSchool","2012","300","Darius English","McEachern","South Carolina","WDE","78","215","4","0.9023","Powder Springs","GA","USA","33.8595492","-84.683824","13067"
"149332","530646","HighSchool","2012","301","Wayne Morgan","Erasmus Hall","Syracuse","CB","69.5","184","4","0.9021","Brooklyn","NY","USA","40.6501038","-73.9495823","36047"
"149333","531409","HighSchool","2012","302","Will Redmond","East","Mississippi State","ATH","72","180","4","0.9018","Memphis","TN","USA","35.1490215","-90.0516285","47157"
"149334","","HighSchool","2012","303","Zeke Pike","Dixie Heights","Auburn","PRO","77","229","4","0.9013","Fort Mitchell","KY","USA","39.0595047","-84.5474432","21117"
"149335","535881","HighSchool","2012","304","Taiwan Johnson","Manvel","Arkansas","SDE","75","238","4","0.9011","Manvel","TX","USA","29.4664706","-95.355714","48039"
"149336","-1023398","HighSchool","2012","305","Jared Afalava","Bingham","Nebraska","OLB","73","210","4","0.901","South Jordan","UT","USA","40.5621704","-111.929658","49035"
"149337","-1041459","HighSchool","2012","306","Jarontay Jones","Stephenson","Virginia Tech","WDE","74","245","4","0.9008","Stone Mountain","GA","USA","33.8080924","-84.1706273","13089"
"149338","-1025223","HighSchool","2012","307","Kenderius Whitehead","Martin Luther King Jr.","NC State","WDE","77","210","4","0.9008","Lithonia","GA","USA","33.7123305","-84.1051939","13089"
"149339","530523","HighSchool","2012","308","Donaldven Manning","Miami Central","Virginia Tech","CB","70","155","4","0.9005","Miami","FL","USA","25.7742658","-80.1936589","12086"
"149340","535357","HighSchool","2012","309","Chaz Elder","Banneker","South Carolina","S","73","185","4","0.9004","Atlanta","GA","USA","33.7490987","-84.3901849","13121"
"149341","-1010920","HighSchool","2012","310","Colin Blake","Brandeis","Florida State","CB","75","180","4","0.9004","San Antonio","TX","USA","29.4246002","-98.4951405","48029"
"149342","532120","HighSchool","2012","311","Edward Pope","Carthage","Texas A&M","ATH","75","175","4","0.9","Carthage","TX","USA","32.1570412","-94.338114","48365"
"149343","-1035217","HighSchool","2012","312","Jordan Richmond","Ryan","Texas A&M","OLB","75","225","4","0.8998","Denton","TX","USA","33.2150386","-97.1330516","48121"
"149344","-1039972","HighSchool","2012","313","Hiva Lutui","Trinity","Utah","OG","74","285","4","0.8998","Euless","TX","USA","32.8457865","-97.0667142473263","48439"
"149345","-1035801","HighSchool","2012","314","Jared Kasterr","Rice","Texas Tech","OC","76","265","4","0.8997","Rice","TX","USA","32.2437586","-96.4985967","48349"
"149346","","HighSchool","2012","315","Davante Bourque","Crowley","Tennessee","APB","74","210","4","0.8996","Crowley","LA","USA","30.2140928","-92.3745761","48439"
"149347","530929","HighSchool","2012","316","Latroy Pittman","North Marion","Florida","ATH","73","200","4","0.8996","Citra","FL","USA","29.4119166","-82.1098156","12083"
"149348","531385","HighSchool","2012","317","Maty Mauk","Kenton","Missouri","DUAL","74","200","4","0.8992","Kenton","OH","USA","40.6478171","-83.6089968","39065"
"149349","","HighSchool","2012","318","Lacy Westbrook","Compton Dominguez","UCLA","OT","77","300","4","0.8991","Compton","CA","USA","33.894927","-118.226624","06037"
"149350","-1027164","HighSchool","2012","319","Jamal Marcus","Hillside","Ohio State","WDE","74","225","4","0.8989","Durham","NC","USA","35.996653","-78.9018053","37063"
"149351","531082","HighSchool","2012","320","Jalen Overstreet","Tatum","Texas","DUAL","74","212","4","0.8989","Tatum","TX","USA","32.315053","-94.5163729","48401"
"149352","","HighSchool","2012","321","Tyler Matthews","McPherson","New Mexico State","PRO","75","205","4","0.8987","McPherson","KS","USA","38.3708415","-97.6642087","20113"
"149353","","HighSchool","2012","322","Brandon Fanaika","Pleasant Grove","Stanford","OG","75","295","4","0.8984","Pleasant Grove","UT","USA","40.3641184","-111.73854","49049"
"149354","","HighSchool","2012","323","John Atkins","Thomson","Georgia","DT","75","305","4","0.8984","Thomson","GA","USA","33.4707348","-82.5045956","13189"
"149355","","HighSchool","2012","324","Jamil Pollard","West Deptford","Penn State","DT","76","270","4","0.8984","Westville","NJ","USA","39.8700552","-75.1265177","34015"
"149356","-1029414","HighSchool","2012","325","Adam Bisnowaty","Fox Chapel Area","Pittsburgh","OT","78","275","4","0.8984","Pittsburgh","PA","USA","40.4416941","-79.9900861","42003"
"149357","-1035181","HighSchool","2012","326","Kenneth Marshall","South Houston","Texas A&M","S","72","200","4","0.8978","South Houston","TX","USA","29.663008","-95.2354902","48201"
"149358","","HighSchool","2012","327","Jeremy Castro","Vista Murrieta","Hawai'i","WDE","75","245","4","0.8978","Murrieta","CA","USA","33.577752399999994","-117.18845420205307","06065"
"149359","535870","HighSchool","2012","328","Jamal Lyles","Southfield-lathrup","Michigan State","OLB","76","230","4","0.8968","Southfield","MI","USA","42.4733689","-83.2218731","26125"
"149360","534491","HighSchool","2012","329","Ford Childress","The Kinkaid School","West Virginia","PRO","76","210","4","0.8967","Houston","TX","USA","29.7589382","-95.3676974","48201"
"149361","530880","HighSchool","2012","330","Dwayne Stanford","Taft","Oregon","WR","76","190","4","0.8966","Cincinnati","OH","USA","39.1014537","-84.5124602","39061"
"149362","531048","HighSchool","2012","331","Justin Thomas","West Orange-Stark","Utah","CB","69","173","4","0.8965","Orange","TX","USA","30.0929879","-93.7365549","48361"
"149363","535166","HighSchool","2012","332","AJ Williams","Sycamore","Michigan","TE","78","255","4","0.8965","Cincinnati","OH","USA","39.1014537","-84.5124602","39061"
"149364","536203","HighSchool","2012","333","I'Tavius Mathers","Blackman","Ole Miss","RB","71","195","4","0.8965","Murfreesboro","TN","USA","35.845999","-86.3920452","47149"
"149365","530417","HighSchool","2012","334","Quinshad Davis","Gaffney","North Carolina","WR","76","190","4","0.8961","Gaffney","SC","USA","35.0717945","-81.6498195","45021"
"149366","530301","HighSchool","2012","335","Reggie Northrup","First Coast","Florida State","OLB","74","210","4","0.896","Jacksonville","FL","USA","30.3321838","-81.655651","12031"
"149367","","HighSchool","2012","336","Greg Brantley","Carthage","Oklahoma State","OT","79","310","4","0.896","Carthage","TX","USA","32.1570412","-94.338114","48365"
"149368","-1006231","HighSchool","2012","337","Cedric Dozier","Lakes","California","ATH","71","175","4","0.8956","Lakewood","WA","USA","47.1714085","-122.5164","53053"
"149369","-1018768","HighSchool","2012","338","Abner Logan","Dexter Southfield","Maryland","OLB","73","220","4","0.8952","Brookline","MA","USA","42.3317642","-71.1211635","25021"
"149370","-1027185","HighSchool","2012","339","Najee Murray","Steubenville","Ohio State","S","71","175","4","0.895","Steubenville","OH","USA","40.3697905","-80.6339638","39081"
"149371","536201","HighSchool","2012","340","Isaac Gross","South Panola","Ole Miss","SDE","75","265","4","0.895","Batesville","MS","USA","34.3114982","-89.9442567","28107"
"149372","-1033264","HighSchool","2012","341","Ronald Thompson","Southfield","Syracuse","TE","76","240","4","0.8948","Southfield","MI","USA","42.4733689","-83.2218731","26125"
"149373","","HighSchool","2012","342","Sam Lebbie","DeMatha Catholic","West Virginia","ILB","74","235","4","0.8948","Hyattsville","MD","USA","38.9529442","-76.9408647","24033"
"149374","-1034772","HighSchool","2012","343","Alex Norman","Bishop Dunne","Texas","DT","76","275","4","0.8948","Dallas","TX","USA","32.7762719","-96.7968559","48113"
"149375","530928","HighSchool","2012","344","Antonio Morrison","Bolingbrook","Florida","ILB","75","220","4","0.8947","Bolingbrook","IL","USA","41.7003302","-88.0717708","17197"
"149376","535365","HighSchool","2012","345","Kaiwan Lewis","St. Joseph","South Carolina","ILB","74","230","4","0.8946","Hammonton","NJ","USA","39.6365056","-74.8023853","34001"
"149377","","HighSchool","2012","346","Shaq Lawson","D.W. Daniel","Clemson","WDE","76","255","4","0.8944","Central","SC","USA","34.7257424","-82.7804999","45077"
"149378","-1024865","HighSchool","2012","347","J.J. Patterson","Roanoke Rapids","North Carolina","DT","76","305","4","0.894","Roanoke Rapids","NC","USA","36.4610756","-77.6548026","37083"
"149379","","HighSchool","2012","348","Raymond Ford","Junipero Serra","California","CB","70","165","4","0.8939","Gardena","CA","USA","33.8963593","-118.3053037","06037"
"149380","-1001426","HighSchool","2012","349","Zach Hemmila","Chandler","Arizona","OG","76","290","4","0.8936","Chandler","AZ","USA","33.3062223","-111.8413317","04013"
"149381","534441","HighSchool","2012","350","Jerald Hawkins","West St. Mary","LSU","OT","78","275","4","0.8935","Baldwin","LA","USA","29.838","-91.5443","26085"
"149382","530531","HighSchool","2012","351","Trey Edmunds","Dan River","Virginia Tech","OLB","74","200","4","0.8934","Ringgold","VA","USA","36.608194","-79.2952978","51143"
"149383","-1027487","HighSchool","2012","352","Charles Tapper","Baltimore City College","Oklahoma","WDE","76","227","4","0.8933","Baltimore","MD","USA","39.2908816","-76.610759","24510"
"149384","535949","HighSchool","2012","353","Justin Ferguson","Flanagan","Notre Dame","WR","73","205","4","0.8933","Hollywood","FL","USA","26.0112014","-80.1494901","12011"
"149385","530944","HighSchool","2012","354","Patrick Towles","Highlands","Kentucky","PRO","77","230","4","0.8932","Fort Thomas","KY","USA","39.0786242","-84.4483432","21037"
"149386","-1038963","HighSchool","2012","355","Devian Shelton","Inglewood","USC","CB","74","185","4","0.8931","Inglewood","CA","USA","33.9562003","-118.353132","06037"
"149387","","HighSchool","2012","356","Corey Jones","Penn Hills","Toledo","ATH","70","165","4","0.893","Pittsburgh","PA","USA","40.4416941","-79.9900861","42003"
"149388","535498","HighSchool","2012","357","Aiavion Edwards","Stephenville","Baylor","S","73","205","4","0.8929","Stephenville","TX","USA","32.2191836","-98.2130634","48143"
"149389","535360","HighSchool","2012","358","Jody Fuller","Sun Valley","South Carolina","WR","72","200","4","0.8929","Monroe","NC","USA","34.9854275","-80.5495112","37179"
"149390","-1014289","HighSchool","2012","359","Ryan Ward","Providence Catholic","Iowa","OT","77","282","4","0.8928","New Lenox","IL","USA","41.5119761","-87.9656098","17197"
"149391","534652","HighSchool","2012","360","Wes Lunt","Rochester","Oklahoma State","PRO","77","195","4","0.8924","Rochester","IL","USA","39.7494943","-89.5317603","36055"
"149392","534444","HighSchool","2012","361","Travin Dural","Breaux Bridge","LSU","WR","73","180","4","0.8923","Breaux Bridge","LA","USA","30.2735323","-91.8992837","22099"
"149393","-1009869","HighSchool","2012","362","Quinteze Williams","Sandy Creek","Florida","SDE","77","247","4","0.8921","Tyrone","GA","USA","33.4713249","-84.5972005","13113"
"149394","-1007858","HighSchool","2012","363","Ken Crawley","Woodson H.D.","Colorado","CB","73","170","4","0.8919","Washington","DC","USA","38.8949855","-77.0365708","11001"
"149395","535618","HighSchool","2012","364","Canaan Severin","Worcester Academy","Virginia","WR","74","210","4","0.8917","Worcester","MA","USA","42.2625932","-71.8022934","25027"
"149396","534782","HighSchool","2012","365","Robert Gregory","Simeon","Purdue","DUAL","75","185","4","0.8916","Chicago","IL","USA","41.8755616","-87.6244212","17031"
"149397","535958","HighSchool","2012","366","C.J. Prosise","Woodberry Forest","Notre Dame","S","74","190","4","0.8915","Woodberry Forest","VA","USA","35.1668118","-80.7514585","37119"
"149398","534470","HighSchool","2012","367","Eric Striker","Armwood","Oklahoma","S","73","195","4","0.8914","Seffner","FL","USA","27.998541000000003","-82.27488400114905","12057"
"149399","535612","HighSchool","2012","368","Brent Wilkerson","DeMatha Catholic","Penn State","SDE","76","245","4","0.8913","Hyattsville","MD","USA","38.9529442","-76.9408647","24033"
"149400","532065","HighSchool","2012","369","Nathan Peterman","Bartram Trail","Tennessee","PRO","74","210","4","0.8913","Jacksonville","FL","USA","30.3321838","-81.655651","12031"
"149401","-1030319","HighSchool","2012","370","Ryan Brodie","Long Branch","Rutgers","OT","77","260","4","0.8912","Long Branch","NJ","USA","40.3042778","-73.9923596","34025"
"149402","","HighSchool","2012","371","Dalvon Stuckey","Walton","Florida State","DT","75","298","4","0.8911","Defuniak Springs","FL","USA","30.7210227","-86.1152184","12131"
"149403","531340","HighSchool","2012","372","A.J. Jefferson","North Pike","Mississippi State","SDE","74","254","4","0.8908","Summit","MS","USA","31.2837867","-90.4684315","28113"
"149404","-1007361","HighSchool","2012","373","D.J. Reader","Grimsley","Clemson","OG","75","330","4","0.8903","Greensboro","NC","USA","36.0726355","-79.7919754","37081"
"149405","535323","HighSchool","2012","374","Ryan McDaniel","North High School","Washington","FB","73","223","4","0.8902","Torrance","CA","USA","33.8358492","-118.3406288","06037"
"149406","535172","HighSchool","2012","375","Matt Godin","Catholic Central","Michigan","SDE","77","265","4","0.8901","Novi","MI","USA","42.48059","-83.4754913","26125"
"149407","-1035207","HighSchool","2012","376","Polo Manukainiu","Trinity","Texas A&M","SDE","77","263","4","0.8901","Euless","TX","USA","32.8457865","-97.0667142473263","48439"
"149408","530890","HighSchool","2012","377","Demetrius Dean","Fayetteville","Arkansas","TE","75","240","3","0.89","Fayetteville","AR","USA","36.0625843","-94.1574328","05143"
"149409","534432","HighSchool","2012","378","Deion Jones","Jesuit","LSU","OLB","74","200","3","0.8899","New Orleans","LA","USA","29.9499323","-90.0701156","22071"
"149410","-1028475","HighSchool","2012","379","Oshay Dunmore","Newport","Oregon","ATH","74","200","3","0.8898","Newport","OR","USA","44.636755","-124.053442","41041"
"149411","531024","HighSchool","2012","380","Chase Hansen","Lone Peak","Utah","ATH","75","205","3","0.8898","American Fork","UT","USA","40.3768954","-111.7957645","49049"
"149412","-1002242","HighSchool","2012","381","Deatrich Wise Jr.","Hebron","Arkansas","WDE","77","230","3","0.8894","Carrollton","TX","USA","32.9537349","-96.8902816","48113"
"149413","531333","HighSchool","2012","382","Richie Brown","Long Beach","Mississippi State","ILB","74.5","230","3","0.8893","Long Beach","MS","USA","30.3504751","-89.1528176","28047"
"149414","532174","HighSchool","2012","382","Darion Monroe","East St. John","Tulane","CB","71","180","3","0.8893","Reserve","LA","USA","30.0538131","-90.5517534","20013"
"149415","531262","HighSchool","2012","384","Randall Goforth","Long Beach Poly","UCLA","CB","70","170","3","0.8893","Long Beach","CA","USA","33.7690164","-118.1916048","06037"
"149416","-1034427","HighSchool","2012","385","Deion Bonner","Carver","Tennessee","CB","72","170","3","0.8892","Columbus","GA","USA","32.4609764","-84.9877094","13215"
"149417","-1027559","HighSchool","2012","386","Gary Simon","Gibbs","Oklahoma","CB","73","170","3","0.889","St. Petersburg","FL","USA","27.7703796","-82.6695085","12103"
"149418","-1003624","HighSchool","2012","387","Alex Kozan","Valor Christian","Auburn","OT","76","295","3","0.889","Littleton","CO","USA","39.613321","-105.0166498","08005"
"149419","533292","HighSchool","2012","388","Alonzo Moore","Winnfield Senior","Nebraska","WR","74","175","3","0.8889","Winnfield","LA","USA","31.928273","-92.63905622689076","22127"
"149420","530395","HighSchool","2012","389","Danny Isidora","Cypress Bay","Miami","OG","76","335","3","0.8889","Fort Lauderdale","FL","USA","26.1223084","-80.1433786","12011"
"149421","535604","HighSchool","2012","390","Akeel Lynch","St. Francis","Penn State","RB","71","205","3","0.8889","Attica","NY","USA","42.8642267","-78.2802946","36121"
"149422","-1018803","HighSchool","2012","391","Mike Madaras","Our Lady of Good Counsel","Maryland","OT","78","270","3","0.8886","Olney","MD","USA","39.1532123","-77.0668408","24031"
"149423","530528","HighSchool","2012","392","Deon Clarke","Lloyd C. Bird","Virginia Tech","OLB","74","215","3","0.8886","Chesterfield","VA","USA","37.3770935","-77.5058196","51041"
"149424","-1035216","HighSchool","2012","393","Michael Richardson","DeSoto","Texas A&M","WDE","75","230","3","0.8886","DeSoto","TX","USA","32.6061241","-96.865612653687","48113"
"149425","-1040691","HighSchool","2012","394","Andrew Jelks","Henry County","Vanderbilt","OT","78","265","3","0.8884","Paris","TN","USA","36.3019461","-88.3258578","47079"
"149426","534753","HighSchool","2012","395","Salamo Fiso","Long Beach Poly","Arizona State","ILB","73","218","3","0.888","Long Beach","CA","USA","33.7690164","-118.1916048","06037"
"149427","532641","HighSchool","2012","396","Jaime Wilson","Glades Central","Western Michigan","ATH","71","190","3","0.8878","Belle Glade","FL","USA","26.6845104","-80.6675577","12099"
"149428","530441","HighSchool","2012","397","J.P. Holtz","Shaler Area","Pittsburgh","TE","76","240","3","0.8877","Pittsburgh","PA","USA","40.4416941","-79.9900861","42003"
"149429","535722","HighSchool","2012","398","Bennie Coney","Plant City","Cincinnati","PRO","75","205","3","0.8876","Plant City","FL","USA","28.01806015","-82.11848198507127","12057"
"149430","","HighSchool","2012","399","Tim Wright","La Marque","","RB","69","180","3","0.8876","La Marque","TX","USA","29.3685674","-94.9713134","48167"
"149431","-1028764","HighSchool","2012","400","Grant Bays","Oceanside","Oregon State","OC","75","290","3","0.8876","Oceanside","CA","USA","33.1958696","-117.3794834","06073"
"149432","-1002294","HighSchool","2012","401","Jeremy Ward","Pottsville","Arkansas","OG","76","287","3","0.8874","Pottsville","AR","USA","35.2481394","-93.049061","05115"
"149433","534658","HighSchool","2012","402","Dominic Ramacher","Guyer","Oklahoma State","ATH","75","226","3","0.8873","Denton","TX","USA","33.2150386","-97.1330516","48121"
"149434","530412","HighSchool","2012","403","Herb Waters","Homestead","Miami","WR","73","170","3","0.8872","Homestead","FL","USA","25.4718946","-80.4759905","12086"
"149435","-1034444","HighSchool","2012","404","Trent Taylor","Lake Gibson","Tennessee","SDE","74","270","3","0.887","Lakeland","FL","USA","28.0394654","-81.9498042","12105"
"149436","-1024881","HighSchool","2012","405","Phillip Williamson","C.E. Jordan","North Carolina","OLB","75","215","3","0.8867","Durham","NC","USA","35.996653","-78.9018053","37063"
"149437","","HighSchool","2012","406","Lucas Thompson","West Orange","East Carolina","S","74","195","3","0.8865","Winter Garden","FL","USA","28.5656649","-81.5856742","12095"
"149438","535354","HighSchool","2012","407","Jordan Diggs","Island Coast","South Carolina","S","74","190","3","0.8861","Cape Coral","FL","USA","26.6059432","-81.9806771","12071"
"149439","-1001552","HighSchool","2012","408","Kyle Kelley","Woodbridge","Arizona","WDE","75","230","3","0.886","Irvine","CA","USA","33.6856969","-117.8259819","06059"
"149440","534638","HighSchool","2012","409","C.J. Curry","Flowery Branch","Oklahoma State","WR","74","198","3","0.8859","Gainesville","GA","USA","34.2978794","-83.8240663","13139"
"149441","531240","HighSchool","2012","410","James McFarland","West Monroe","TCU","OLB","73","234","3","0.8859","West Monroe","LA","USA","32.5184775","-92.1476353","22073"
"149442","","HighSchool","2012","411","Laith Harlow","Amos P. Godby","Oklahoma","TE","77","230","3","0.8857","Tallahassee","FL","USA","30.4380832","-84.2809332","12073"
"149443","-1011665","HighSchool","2012","412","Greg Pyke","The Boys' Latin School","Georgia","OT","77","290","3","0.8857","Baltimore","MD","USA","39.2908816","-76.610759","24510"
"149444","-1005353","HighSchool","2012","413","Win Homer","Christchurch School","Boston College","OT","77","255","3","0.8856","Church View","VA","USA","37.6776411","-76.6782906","51119"
"149445","535578","HighSchool","2012","414","Tyler O'Connor","Lima Central Catholic","Michigan State","PRO","74.5","205","3","0.8855","Lima","OH","USA","40.7399785","-84.105006","39003"
"149446","537333","HighSchool","2012","415","Ruhann Peele","Linden","Rutgers","WR","73","170","3","0.8853","Linden","NJ","USA","40.6220478","-74.2445902","34039"
"149447","534649","HighSchool","2012","416","Seth Jacobs","Arroyo Grande","Oklahoma State","OLB","74","200","3","0.885","Arroyo Grande","CA","USA","35.1185869","-120.5907252","06079"
"149448","-1038370","HighSchool","2012","417","Javon Williams","Chandler","UCLA","WR","77","185","3","0.885","Chandler","AZ","USA","33.3062223","-111.8413317","04013"
"149449","-1006256","HighSchool","2012","418","Matt Cochran","Buhach Colony","California","OC","75","335","3","0.8849","Atwater","CA","USA","37.3477174","-120.609084","06047"
"149450","","HighSchool","2012","419","Devin VanDyke","South County","Virginia Tech","OLB","73","210","3","0.8848","Lorton","VA","USA","38.7043397","-77.220343","51059"
"149451","-1009886","HighSchool","2012","420","Jafar Mann","Stephenson","Florida","DT","76","275","3","0.8848","Stone Mountain","GA","USA","33.8080924","-84.1706273","13089"
"149452","-1025207","HighSchool","2012","421","K'Hadree Hooker","South Lenoir","NC State","DT","73","285","3","0.8847","Deep Run","NC","USA","34.745458","-77.539833","37133"
"149453","-1038361","HighSchool","2012","422","T.J. Millweard","All Saints Episcopal","UCLA","PRO","76","230","3","0.8847","Fort Worth","TX","USA","32.753177","-97.3327459","48439"
"149454","-1027534","HighSchool","2012","423","Michael Onuoha","Santa Fe","Oklahoma","SDE","78","235","3","0.8846","Edmond","OK","USA","35.6571367","-97.4649038","40109"
"149455","","HighSchool","2012","424","Timothy Hines","Bryan","","OG","75","300","3","0.8846","Bryan","TX","USA","30.6743643","-96.3699632","48041"
"149456","-1032092","HighSchool","2012","425","Kelvin Rainey","Yulee","South Carolina","ATH","75","210","3","0.8843","Yulee","FL","USA","30.6319034","-81.6064866","12089"
"149457","-1035160","HighSchool","2012","426","Kimo Tipoti","Bell","Texas A&M","OT","76","314","3","0.8843","Hurst","TX","USA","32.8234621","-97.1705678","48439"
"149458","-1029069","HighSchool","2012","427","Brian Gaia","Gilman","Penn State","OG","75","285","3","0.8842","Baltimore","MD","USA","39.2908816","-76.610759","24510"
"149459","-1033022","HighSchool","2012","428","Nick Davidson","Eden Prairie","Stanford","OT","78","265","3","0.8842","Eden Prairie","MN","USA","44.8546856","-93.470786","27053"
"149460","-1003656","HighSchool","2012","429","JaViere Mitchell","Leeds","Auburn","OLB","74","210","3","0.884","Leeds","AL","USA","33.506102","-86.61711816402307","01073"
"149461","-1032408","HighSchool","2012","430","Chris Bivins","Gainesville","South Florida","CB","71","174","3","0.884","Gainesville","FL","USA","29.6519684","-82.3249846","12001"
"149462","-1004764","HighSchool","2012","431","Kiante' Griffin","Hebron","Baylor","WR","73","205","3","0.8837","Carrollton","TX","USA","32.9537349","-96.8902816","48113"
"149463","530483","HighSchool","2012","432","Shaquille Powell","Bishop Gorman","Duke","APB","70","185","3","0.8837","Las Vegas","NV","USA","36.1672559","-115.1485163","32003"
"149464","-1020392","HighSchool","2012","433","Ben Braden","Rockford","Michigan","OT","79","295","3","0.8836","Rockford","MI","USA","43.119721","-85.559604","17201"
"149465","535417","HighSchool","2012","434","Travares Copeland","Treasure Coast","West Virginia","ATH","71","180","3","0.8835","Port St. Lucie","FL","USA","27.2939333","-80.3503283","12111"
"149467","530911","HighSchool","2012","435","Jonathan Jones","Carrollton","Auburn","CB","70","184","3","0.8834","Carrollton","GA","USA","33.5801103","-85.0766113","13045"
"149466","-1020490","HighSchool","2012","435","Kaleb Ringer","Northmont","Michigan","ILB","73","225","3","0.8834","Clayton","OH","USA","39.8631101","-84.3605022","39113"
"149468","-1029505","HighSchool","2012","437","Demitrious Davis","Fitch","Pittsburgh","ATH","70","186","3","0.8832","Youngstown","OH","USA","41.1035786","-80.6520161","39099"
"149469","-1035834","HighSchool","2012","438","Trey Keenan","Argyle","Texas Tech","OT","77","275","3","0.8832","Argyle","TX","USA","33.110156","-97.17940980147037","48121"
"149470","","HighSchool","2012","439","James Summers","Page","North Carolina","ATH","74","200","3","0.8831","Greensboro","NC","USA","36.0726355","-79.7919754","37081"
"149471","535875","HighSchool","2012","440","D'Arthur Cowan","Olive Branch","Arkansas","WR","74","175","3","0.8831","Olive Branch","MS","USA","34.9617605","-89.8295315","28033"
"149472","535741","HighSchool","2012","440","Dakota Ball","Pepperell","Alabama","DT","74","293","3","0.8831","Lindale","GA","USA","34.194346","-85.17765061746866","13115"
"149473","534671","HighSchool","2012","442","Quayvon Hicks","Pierce County","Georgia","FB","74","249","3","0.883","Blackshear","GA","USA","31.3060513","-82.2420661","13229"
"149475","-1002290","HighSchool","2012","443","Darius Philon","Vigor","Arkansas","DT","74","260","3","0.8829","Mobile","AL","USA","30.6943566","-88.0430541","01097"
"149474","530931","HighSchool","2012","443","Faton Bauta","Dwyer","Georgia","DUAL","74","222","3","0.8829","Palm Beach Gardens","FL","USA","26.8418256","-80.13590694666684","12099"
"149476","531111","HighSchool","2012","443","D.J. White","Union Grove","Georgia Tech","CB","72","180","3","0.8829","McDonough","GA","USA","33.4473361","-84.1468616","13151"
"149477","532061","HighSchool","2012","446","LaTroy Lewis","Archbishop Hoban","Tennessee","WDE","76","230","3","0.8828","Akron","OH","USA","41.083064","-81.518485","39153"
"149478","-1016224","HighSchool","2012","447","Thomas Chapman","Dupont Manual","Kentucky","DT","76","290","3","0.8828","Louisville","KY","USA","38.2542376","-85.759407","21111"
"149479","534513","HighSchool","2012","448","Tyler Orlosky","St. Edward","West Virginia","OG","76","290","3","0.8827","Lakewood","OH","USA","41.4819932","-81.7981908","39035"
"149480","","HighSchool","2012","449","Darrion Hutcherson","Dadeville","Auburn","TE","79","245","3","0.8827","Dadeville","AL","USA","32.831238","-85.7635692","01123"
"149481","-1035159","HighSchool","2012","450","Tyrone Taylor","Galena Park","Texas A&M","WDE","77","225","3","0.8827","Galena Park","TX","USA","29.7335616","-95.2302123","48201"
"149482","531054","HighSchool","2012","451","Caleb Bluiett","West Brook","Texas","WDE","75","245","3","0.8826","Beaumont","TX","USA","30.0860459","-94.1018461","48245"
"149483","-1032049","HighSchool","2012","452","Cody Waldrop","Armwood","South Carolina","OC","75","315","3","0.8826","Seffner","FL","USA","27.998541000000003","-82.27488400114905","12057"
"149484","535192","HighSchool","2012","453","Malik Gilmore","Lakewood","Oregon State","WR","75","200","3","0.8825","Lakewood","CA","USA","33.8503463","-118.1171914","06037"
"149485","535947","HighSchool","2012","454","Chris Brown","Hanahan","Notre Dame","ATH","74","170","3","0.8823","Charleston","SC","USA","32.7876012","-79.9402728","45019"
"149486","-1026405","HighSchool","2012","455","Romeo Okwara","Ardrey Kell","Notre Dame","WDE","76","230","3","0.8823","Charlotte","NC","USA","35.2272","-80.843083","37119"
"149488","530459","HighSchool","2012","456","Mike Strizak","Don Bosco Prep","Boston College","ILB","75","230","3","0.8821","Ramsey","NJ","USA","41.0573188","-74.1409771","34003"
"149487","","HighSchool","2012","456","Tyrone Pearson","Seneca Academy","Western Kentucky","DT","75","285","3","0.8821","Louisville","KY","USA","38.2542376","-85.759407","21111"
"149489","536199","HighSchool","2012","458","Trae Elston","Oxford","Ole Miss","S","71","180","3","0.882","Oxford","AL","USA","33.5853695","-85.91428175037092","01121"
"149490","534291","HighSchool","2012","459","Frank Epitropoulos","Upper Arlington","Ohio State","WR","75","195","3","0.8819","Columbus","OH","USA","39.9622601","-83.0007065","39049"
"149491","531390","HighSchool","2012","460","Morgan Steward","Staley","Missouri","RB","71","185","3","0.8818","Kansas City","MO","USA","39.100105","-94.5781416","29095"
"149492","","HighSchool","2012","461","LaDarius Anthony","Kilgore","TCU","RB","73","184","3","0.8818","Kilgore","TX","USA","32.3860733","-94.8758518","48183"
"149493","530910","HighSchool","2012","462","T.J. Davis","Amos P. Godby","Auburn","CB","73","172","3","0.8816","Tallahassee","FL","USA","30.4380832","-84.2809332","12073"
"149494","","HighSchool","2012","463","Donald Hopkins","Lago Vista","Houston","DT","74","280","3","0.8812","Lago Vista","TX","USA","30.4601975","-97.9883477","48453"
"149495","534682","HighSchool","2012","464","Blake Tibbs","Martin Luther King Jr.","Georgia","WR","73","170","3","0.8811","Lithonia","GA","USA","33.7123305","-84.1051939","13089"
"149496","-1007888","HighSchool","2012","465","Shane Dillon","Christian","Colorado","PRO","77","187","3","0.8811","El Cajon","CA","USA","32.7947731","-116.9625269","06073"
"149497","531064","HighSchool","2012","466","Alex De La Torre","Ryan","Texas","OLB","72","223","3","0.881","Denton","TX","USA","33.2150386","-97.1330516","48121"
"149498","535188","HighSchool","2012","467","Chris Brown","San Joaquin Memorial","Oregon State","RB","71","184","3","0.881","Fresno","CA","USA","36.7295295","-119.70886126075588","06019"
"149499","","HighSchool","2012","468","Kisima Jagne","Chandler","Arizona State","WDE","77","230","3","0.881","Chandler","AZ","USA","33.3062223","-111.8413317","04013"
"149500","-1035863","HighSchool","2012","469","Clayton Nicholas","Cooper","Texas Tech","PRO","75","200","3","0.8809","Abilene","TX","USA","32.44645","-99.7475905","48441"
"149501","-1002355","HighSchool","2012","470","Donovan Roberts","Norman","Arkansas","RB","72","200","3","0.8808","Norman","OK","USA","35.2225717","-97.4394816","40027"
"149502","-1032991","HighSchool","2012","471","Nathanael Lohn","Staley","Stanford","SDE","75","260","3","0.8803","Kansas City","MO","USA","39.100105","-94.5781416","29095"
"149503","530996","HighSchool","2012","472","Jahleel Pinner","Mission Viejo","USC","FB","71","225","3","0.8802","Mission Viejo","CA","USA","33.5965685","-117.659405","06059"
"149504","530534","HighSchool","2012","473","Der'Woun Greene","Woodrow Wilson","Virginia Tech","ATH","70","175","3","0.8802","Portsmouth","VA","USA","36.8354258","-76.2982742","51740"
"149505","535305","HighSchool","2012","474","Kodi Whitfield","Loyola","Stanford","WR","74","195","3","0.8801","Los Angeles","CA","USA","34.0536909","-118.2427666","06037"
"149506","534433","HighSchool","2012","475","Dillon Gordon","John Curtis","LSU","OT","76","248","3","0.8801","New Orleans","LA","USA","29.9499323","-90.0701156","22071"
"149507","534588","HighSchool","2012","476","Jay Guillermo","Maryville","Clemson","OC","75","285","3","0.8799","Maryville","TN","USA","35.7564719","-83.9704593","47009"
"149508","-1028471","HighSchool","2012","477","Brett Bafaro","Liberty","Oregon","ILB","74","220","3","0.8798","Portland","OR","USA","45.5202471","-122.6741949","41051"
"149509","-1041125","HighSchool","2012","478","Courtnye Wynn","Norfolk Christian","Virginia","DT","78","252","3","0.8798","Norfolk","VA","USA","36.8462923","-76.2929252","51710"
"149510","-1014295","HighSchool","2012","479","Maurice Fleming","Curie Metropolitan","Iowa","ATH","73","185","3","0.8798","Chicago","IL","USA","41.8755616","-87.6244212","17031"
"149511","-1004714","HighSchool","2012","480","Kyle Fuller","Wylie","Baylor","OT","77","275","3","0.8797","Wylie","TX","USA","33.0151201","-96.5388789","48085"
"149512","-1019777","HighSchool","2012","481","Dwayne Hoilett","Vero Beach","Miami","OLB","75","220","3","0.8797","Vero Beach","FL","USA","27.6387163","-80.3975399","12061"
"149513","-1021752","HighSchool","2012","482","Anthony Standifer","Crete-Monee","Ole Miss","CB","73","180","3","0.8796","Crete","IL","USA","41.4445334","-87.6313829","17197"
"149514","534303","HighSchool","2012","483","Tyvis Powell","Bedford","Ohio State","ATH","76","180","3","0.8796","Bedford","OH","USA","41.39311","-81.536509","39035"
"149515","530480","HighSchool","2012","484","Jela Duncan","Mallard Creek","Duke","RB","70","200","3","0.8796","Charlotte","NC","USA","35.2272","-80.843083","37119"
"149516","535229","HighSchool","2012","484","Richard Smith","Long Beach Poly","Arizona State","WR","69","160","3","0.8796","Long Beach","CA","USA","33.7690164","-118.1916048","06037"
"149517","-1011759","HighSchool","2012","486","Ty Flournoy-Smith","Colquitt County","Georgia","TE","75","215","3","0.8795","Moultrie","GA","USA","31.179998","-83.7887928","13071"
"149518","-1024788","HighSchool","2012","487","Caleb Peterson","Auburn","North Carolina","OG","76","310","3","0.8794","Auburn","AL","USA","32.6550905","-85.50364346309962","01081"
"149520","-1027197","HighSchool","2012","488","Ricquan Southward","Lakeland","Ohio State","WR","74","185","3","0.8794","Lakeland","FL","USA","28.0394654","-81.9498042","12105"
"149519","-1026379","HighSchool","2012","488","Mark Harrell","Charlotte Catholic","Notre Dame","OT","77","270","3","0.8794","Charlotte","NC","USA","35.2272","-80.843083","37119"
"149521","","HighSchool","2012","490","Moana Ofahengaue","Westlake","Utah","OLB","76","200","3","0.8794","Saratoga Springs","UT","USA","40.3491173","-111.9046567","49049"
"149522","535745","HighSchool","2012","491","Kurt Freitag","Buford","Alabama","TE","76","245","3","0.8792","Buford","GA","USA","34.1206564","-84.0043513","13135"
"149523","531130","HighSchool","2012","492","Pat Gamble","Central","Georgia Tech","DT","77","260","3","0.8792","Carrollton","GA","USA","33.5801103","-85.0766113","13045"
"149524","-1025102","HighSchool","2012","493","Bryce Kennedy","Pinecrest","NC State","OT","75","285","3","0.8791","Southern Pines","NC","USA","35.1740471","-79.3922539","37125"
"149525","2586749","HighSchool","2012","494","Nate L Smith","Archbishop Wood","Temple","S","73","188","3","0.879","Warminster","PA","USA","40.2067751","-75.0996159","42017"
"149526","-1016628","HighSchool","2012","495","Trey Granier","Thibodaux","LSU","OLB","73","205","3","0.879","Thibodaux","LA","USA","29.7957633","-90.822871","22057"
"149527","","HighSchool","2012","496","Brandon Hill","St. George's Independent School","Alabama","OT","78","353","3","0.8789","Collierville","TN","USA","35.042036","-89.6645266","47157"
"149528","-1009154","HighSchool","2012","497","Jabril Solomon","Hemingway","East Carolina","WR","74","180","3","0.8788","Hemingway","SC","USA","33.7537774","-79.4475566","45089"
"149529","-1029141","HighSchool","2012","498","Nyeem Wartman-White","Valley View","Penn State","OLB","74","223","3","0.8788","Archbald","PA","USA","41.4948038","-75.5368521","42069"
"149530","531236","HighSchool","2012","499","B.J. Catalon","Westside","TCU","RB","67","185","3","0.8787","Houston","TX","USA","29.7589382","-95.3676974","48201"
"149531","-1018074","HighSchool","2012","500","Devontre Parnell","Fairfield Central","Louisville","CB","71","170","3","0.8786","Winnsboro","SC","USA","34.3807012","-81.0864776","45039"
"149532","535825","HighSchool","2012","501","Nate Sudfeld","Modesto Christian","Indiana","PRO","77","215","3","0.8786","Modesto","CA","USA","37.6390972","-120.9968782","06099"
"149533","531229","HighSchool","2012","502","Jordan Moore","Martin Luther King Jr.","TCU","S","75","208","3","0.8785","Lithonia","GA","USA","33.7123305","-84.1051939","13089"
"149534","","HighSchool","2012","503","Roger Lewis","Pickerington Central","","WR","74","195","3","0.8785","Pickerington","OH","USA","39.896277299999994","-82.77319049748806","39045"
"149535","-1004730","HighSchool","2012","504","Kendall Ehrlich","Pearland","Baylor","OLB","73","207","3","0.8785","Pearland","TX","USA","29.5639758","-95.2864299","48039"
"149536","-1033665","HighSchool","2012","505","A.J. Hilliard","Klein Oak","TCU","OLB","74","215","3","0.8783","Spring","TX","USA","30.0798826","-95.4172549","48201"
"149537","-1033576","HighSchool","2012","506","Joey Hunt","El Campo","TCU","OC","75","270","3","0.8783","El Campo","TX","USA","29.1966405","-96.2696867","48481"
"149538","-1007896","HighSchool","2012","507","Davien Payne","Citrus Hill","Colorado","FB","71","214","3","0.8783","Perris","CA","USA","33.7825194","-117.2286478","06065"
"149539","-1027917","HighSchool","2012","508","Jeremiah Tshimanga","Richland","Oklahoma State","OLB","76","220","3","0.8782","North Richland Hills","TX","USA","32.8342952","-97.2289029","48439"
"149540","","HighSchool","2012","509","Will Johnson","Osseo Senior","West Virginia","TE","79","245","3","0.8782","Osseo","MN","USA","45.11715785","-93.39877096552499","27053"
"149541","","HighSchool","2012","509","Julian Pinnix-Odrick","Montclair","Rutgers","SDE","76","245","3","0.8782","Montclair","NJ","USA","40.8164458","-74.2210643","34013"
"149542","537320","HighSchool","2012","511","Ian Thomas","Franklin","Rutgers","WR","73","193","3","0.8782","Reisterstown","MD","USA","39.4695489","-76.8294213","24005"
"149543","-1007096","HighSchool","2012","512","Marcus Foster","Troy","Cincinnati","S","73","190","3","0.8782","Troy","OH","USA","40.0394982","-84.2032767","39109"
"149544","-1032364","HighSchool","2012","513","James Hamilton","Olympia","South Florida","OG","76","330","3","0.8781","Orlando","FL","USA","28.5421109","-81.3790304","12095"
"149545","-1038276","HighSchool","2012","514","Simon Goines","Keller Central","UCLA","OT","80","295","3","0.8781","Fort Worth","TX","USA","32.753177","-97.3327459","48439"
"149546","531388","HighSchool","2012","515","Michael Scherer","Mary Institute & St. Louis Country Day","Missouri","OLB","74","230","3","0.8781","St. Louis","MO","USA","38.6268039","-90.1994097","29510"
"149547","535946","HighSchool","2012","516","Nicky Baratti","Klein Oak","Notre Dame","ATH","74","215","3","0.878","Spring","TX","USA","30.0798826","-95.4172549","48201"
"149548","-1040699","HighSchool","2012","517","Caleb Azubike","McGavock","Vanderbilt","WDE","76","230","3","0.8778","Nashville","TN","USA","36.1622296","-86.7743531","47037"
"149549","-1006301","HighSchool","2012","518","Christian Okafor","Westbury","California","OT","78","310","3","0.8777","Houston","TX","USA","29.7589382","-95.3676974","48201"
"149550","535923","HighSchool","2012","519","Alex McCalister","West Forsyth","Florida","WDE","79","210","3","0.8776","Clemmons","NC","USA","36.0215258","-80.3819984","37067"
"149551","-1023366","HighSchool","2012","520","Vincent Valentine","Edwardsville","Nebraska","DT","76","313","3","0.8775","Edwardsville","IL","USA","38.8114364","-89.953157","17119"
"149553","530429","HighSchool","2012","521","Shakeel Rashad","Episcopal","North Carolina","OLB","74","215","3","0.8774","Jacksonville","FL","USA","30.3321838","-81.655651","12031"
"149552","-1016237","HighSchool","2012","521","Justin Taylor","Washington","Kentucky","RB","71","200","3","0.8774","Atlanta","GA","USA","33.7490987","-84.3901849","13121"
"149554","534640","HighSchool","2012","523","Eric Davis","John Tyler","Oklahoma State","WDE","75","230","3","0.8774","Tyler","TX","USA","32.3512601","-95.3010624","48423"
"149555","-1038312","HighSchool","2012","524","Kene Orjioke","Lassiter","UCLA","S","75","213","3","0.8773","Marietta","GA","USA","33.9528472","-84.5496148","13067"
"149556","536106","HighSchool","2012","525","Jaylen Walton","Ridgeway","Ole Miss","APB","68","170","3","0.8772","Memphis","TN","USA","35.1490215","-90.0516285","47157"
"149557","534504","HighSchool","2012","526","Karl Joseph","Edgewater","West Virginia","S","71","190","3","0.8771","Orlando","FL","USA","28.5421109","-81.3790304","12095"
"149558","-1002327","HighSchool","2012","527","A.J. Turner","East Poinsett Co.","Arkansas","OLB","74","208","3","0.877","Lepanto","AR","USA","35.613327","-90.3308612","05111"
"149559","534452","HighSchool","2012","528","Zack Sanchez","Keller","Oklahoma","CB","72","175","3","0.8769","Keller","TX","USA","32.9299655","-97.2271249","48439"
"149560","-1027172","HighSchool","2012","529","Blake Thomas","St Ignatius","Ohio State","TE","76","240","3","0.8768","Cleveland","OH","USA","41.5051613","-81.6934446","39035"
"149561","-1033634","HighSchool","2012","530","Terrell Lathan","West Monroe","TCU","WDE","76","259","3","0.8768","West Monroe","LA","USA","32.5184775","-92.1476353","22073"
"149562","530734","HighSchool","2012","531","Andre McDonald","Hopkins","Minnesota","WR","75","195","3","0.8767","Hopkins","MN","USA","44.9271194","-93.4074945","27053"
"149563","-1001448","HighSchool","2012","531","Cayman Bundage","Douglass","Arizona","OG","74","305","3","0.8767","Oklahoma City","OK","USA","35.4729886","-97.5170536","40109"
"149564","-1005325","HighSchool","2012","533","Frank Taylor","Archbishop Wood","Boston College","OG","75","275","3","0.8766","Warminster","PA","USA","40.2067751","-75.0996159","42017"
"149565","530684","HighSchool","2012","533","Joe Spencer","William Mason","Illinois","OC","75","280","3","0.8766","Mason","OH","USA","39.3600586","-84.309939","39165"
"149566","-1040726","HighSchool","2012","533","Jacob Sealand","Tucker","Vanderbilt","ILB","74","210","3","0.8766","Tucker","GA","USA","33.8532701","-84.2200729","13089"
"149567","-1028442","HighSchool","2012","536","Stephen Amoako","Martin","Oregon","CB","72","190","3","0.8765","Arlington","TX","USA","32.701938999999996","-97.10562379033699","48439"
"149568","530538","HighSchool","2012","537","Chris Mangus","Broughton","Virginia Tech","RB","71","175","3","0.8765","Raleigh","NC","USA","35.7803977","-78.6390989","37183"
"149569","-1002346","HighSchool","2012","538","Defonta Lowe","Bearden","Arkansas","ATH","75","190","3","0.8764","Bearden","AR","USA","33.7245526","-92.6157139","05103"
"149570","535368","HighSchool","2012","539","Brendan Nosovitch","Central Catholic","South Carolina","DUAL","74","200","3","0.8763","Allentown","PA","USA","40.6022059","-75.4712794","42077"
"149571","535580","HighSchool","2012","540","Josiah Price","Eastern Jr & Sr","Michigan State","TE","77","240","3","0.8763","Greentown","IN","USA","40.478094","-85.9666534","18067"
"149572","-1014353","HighSchool","2012","540","Ruben Lile","Cass Technical","Iowa","S","75","200","3","0.8763","Detroit","MI","USA","42.3315509","-83.0466403","26163"
"149573","531231","HighSchool","2012","542","Kolby Listenbee","Bowie","TCU","ATH","72","170","3","0.8762","Arlington","TX","USA","32.701938999999996","-97.10562379033699","48439"
"149574","-1007404","HighSchool","2012","543","Marty Williams","Fox Creek Charter","Clemson","S","74","205","3","0.8762","North Augusta","SC","USA","33.520849999999996","-81.96696923114902","45003"
"149575","530383","HighSchool","2012","544","Bam Bradley","Trotwood-Madison","Pittsburgh","S","73","216","3","0.8761","Dayton","OH","USA","39.7589478","-84.1916069","39113"
"149576","535525","HighSchool","2012","545","Schyler Miles","Berkeley Prep","Kansas","ILB","74","220","3","0.876","Tampa","FL","USA","27.9477595","-82.458444","12057"
"149577","-1014385","HighSchool","2012","546","Cameron Wilson","Dublin Jerome","Iowa","WR","74","195","3","0.8759","Dublin","OH","USA","40.0992294","-83.1140771","39049"
"149578","-1021360","HighSchool","2012","547","Jonah Pirsig","Blue Earth Area Senior","Minnesota","OT","81","285","3","0.8758","Blue Earth","MN","USA","43.637455","-94.1021821","27043"
"149579","-1005022","HighSchool","2012","548","Travis Averill","Servite","Boise State","OG","76","280","3","0.8756","Anaheim","CA","USA","33.8347516","-117.911732","06059"
"149580","533314","HighSchool","2012","549","Malin Jones","Joliet Catholic Academy","Northwestern","RB","74","190","3","0.8756","Joliet","IL","USA","41.5263603","-88.0840212","17197"
"149581","536524","HighSchool","2012","550","Tomme Mark","Lufkin","Houston","DT","74","264","3","0.8756","Lufkin","TX","USA","31.3386242","-94.7288558","48005"
"149582","-1013991","HighSchool","2012","551","Kevin Davis","Warren Central","Indiana","WR","72","170","3","0.8755","Indianapolis","IN","USA","39.7683331","-86.1583502","18097"
"149583","531382","HighSchool","2012","552","Russell Hansbrough","Bowie","Missouri","RB","69","180","3","0.8755","Arlington","TX","USA","32.701938999999996","-97.10562379033699","48439"
"149585","535880","HighSchool","2012","552","Nathan Holmes","Memorial","Arkansas","ATH","73","175","3","0.8755","Port Arthur","TX","USA","29.8988618","-93.9288723","48245"
"149584","-1035128","HighSchool","2012","552","Julien Obioha","Brother Martin","Texas A&M","SDE","75","255","3","0.8755","New Orleans","LA","USA","29.9499323","-90.0701156","22071"
"149586","-1022123","HighSchool","2012","555","Xavier Grindle","East Marion","Mississippi State","RB","70","190","3","0.8754","Columbia","MS","USA","31.2518439","-89.83758","28091"
"149587","531739","HighSchool","2012","556","Chaz Anderson","Loyola","Boise State","CB","72","175","3","0.8754","Los Angeles","CA","USA","34.0536909","-118.2427666","06037"
"149588","","HighSchool","2012","557","Dami Ayoola","St. Thomas Aquinas","Illinois","RB","70","200","3","0.8752","Fort Lauderdale","FL","USA","26.1223084","-80.1433786","12011"
"149589","534862","HighSchool","2012","558","Jeremiah Allison","Dorsey","Washington State","OLB","74","205","3","0.8752","Los Angeles","CA","USA","34.0536909","-118.2427666","06037"
"149590","-1020729","HighSchool","2012","559","Benny McGowan","Centerville","Michigan State","OG","76","290","3","0.8752","Dayton","OH","USA","39.7589478","-84.1916069","39113"
"149591","-1009785","HighSchool","2012","560","Bryan Cox Jr.","St. Thomas Aquinas","Florida","SDE","75","240","3","0.8751","Fort Lauderdale","FL","USA","26.1223084","-80.1433786","12011"
"149592","-1012623","HighSchool","2012","561","Roderick Rook-Chungong","Our Lady of Good Counsel","Georgia Tech","SDE","75","240","3","0.8749","Olney","MD","USA","39.1532123","-77.0668408","24031"
"149593","530328","HighSchool","2012","562","Tyler Cameron","Jupiter","Wake Forest","DUAL","75","215","3","0.8748","Jupiter","FL","USA","26.9260832","-80.12108914060954","12099"
"149594","532000","HighSchool","2012","563","Patton Robinette","Maryville","Vanderbilt","DUAL","77","200","3","0.8747","Maryville","TN","USA","35.7564719","-83.9704593","47009"
"149595","-1033030","HighSchool","2012","564","Ikenna Nwafor","Irving","Stanford","DT","76","290","3","0.8747","Irving","TX","USA","32.8295183","-96.9442177","48113"
"149596","530408","HighSchool","2012","565","Earl Moore","Hillsborough","Miami","DT","73","280","3","0.8746","Tampa","FL","USA","27.9477595","-82.458444","12057"
"149597","530721","HighSchool","2012","566","Jamel Harbison","Mallard Creek","Minnesota","WR","71","175","3","0.8746","Charlotte","NC","USA","35.2272","-80.843083","37119"
"149598","533235","HighSchool","2012","567","Casey Cochran","Masuk","UConn","PRO","73","200","3","0.8745","Monroe","CT","USA","41.3325962","-73.2073358","09001"
"149599","-1008774","HighSchool","2012","568","Deion Williams","Orange Lutheran","Duke","OLB","72","215","3","0.8742","Orange","CA","USA","33.7872568","-117.8503088","06059"
"149600","","HighSchool","2012","569","Laronji Vason","Prattville","Wake Forest","CB","70","181","3","0.874","Prattville","AL","USA","32.4640245","-86.4596966","01001"
"149601","-1021379","HighSchool","2012","570","Isaac Hayes","St Thomas Academy","Minnesota","OC","75","270","3","0.874","Saint Paul","MN","USA","44.9504037","-93.1015026","27123"
"149602","-1028785","HighSchool","2012","571","Garrett Weinreich","Arroyo Grande","Oregon State","OT","77","290","3","0.8739","Arroyo Grande","CA","USA","35.1185869","-120.5907252","06079"
"149603","-1027830","HighSchool","2012","572","Trace Clark","Wichita Collegiate School","Oklahoma State","SDE","77","240","3","0.8739","Wichita","KS","USA","37.6922361","-97.3375448","20173"
"149604","535265","HighSchool","2012","573","Chris Harper","Crespi","California","WR","73","170","3","0.8738","Encino","CA","USA","34.1591324","-118.5016166","06037"
"149605","535718","HighSchool","2012","574","Deionte Buckley","Warren Central","Cincinnati","RB","69","198","3","0.8737","Indianapolis","IN","USA","39.7683331","-86.1583502","18097"
"149606","","HighSchool","2012","575","Casey Gladney","Columbia","Texas Tech","WR","74","185","3","0.8736","Columbia","SC","USA","34.0007493","-81.0343313","45079"
"149607","-1019795","HighSchool","2012","576","Jacoby Briscoe","Carencro","Miami","DT","76","310","3","0.8736","Lafayette","LA","USA","30.2240897","-92.0198427","22055"
"149608","-1027109","HighSchool","2012","577","Jacoby Boren","Pickerington Central","Ohio State","OG","75","275","3","0.8735","Pickerington","OH","USA","39.896277299999994","-82.77319049748806","39045"
"149609","535754","HighSchool","2012","578","Alec Morris","Allen","Alabama","PRO","76","235","3","0.8734","Allen","TX","USA","33.1031744","-96.6705503","48085"
