"Id","AthleteId","RecruitType","Year","Ranking","Name","School","CommittedTo","Position","Height","Weight","Stars","Rating","City","StateProvince","Country","HometownInfo Latitude","HometownInfo Longitude","HometownInfo FipsCode"
"138315","3915192","HighSchool","2015","1","Trenton Thompson","Westover","Georgia","DT","74.5","313","5","0.9991","Albany","GA","USA","31.5782062","-84.1556809","13095"
"138316","-1009710","HighSchool","2015","2","Martez Ivey","Apopka","Florida","OT","77.5","275","5","0.9991","Apopka","FL","USA","28.6779683","-81.5115214","12095"
"138317","","HighSchool","2015","3","Byron Cowart","Armwood","Auburn","SDE","76","250","5","0.9987","Seffner","FL","USA","27.998541000000003","-82.27488400114905","12057"
"138318","3912545","HighSchool","2015","4","Iman Marshall","Long Beach Poly","USC","CB","73","190","5","0.9985","Long Beach","CA","USA","33.7690164","-118.1916048","06037"
"138319","3691739","HighSchool","2015","5","Derwin James","Haines City","Florida State","S","74","201","5","0.9982","Auburndale","FL","USA","28.10708845","-81.80358011667643","12105"
"138320","-1034323","HighSchool","2015","6","Kahlil McKenzie","Clayton Valley","Tennessee","DT","75","339","5","0.9972","Concord","CA","USA","37.9768525","-122.0335624","06013"
"138321","3915105","HighSchool","2015","7","CeCe Jefferson","Baker County","Florida","SDE","74","275","5","0.9952","Glen St. Mary","FL","USA","30.2757913","-82.1606689","12003"
"138322","3693166","HighSchool","2015","8","Josh Sweat","Oscar Smith","Florida State","WDE","77","240","5","0.9949","Chesapeake","VA","USA","36.7183708","-76.2466798","51550"
"138323","3843234","HighSchool","2015","9","Kevin Toliver II","Trinity Christian Academy","LSU","CB","74","185","5","0.9949","Jacksonville","FL","USA","30.3321838","-81.655651","12031"
"138324","3821576","HighSchool","2015","10","Malik Jefferson","Poteet","Texas","OLB","74.5","215","5","0.9934","Mesquite","TX","USA","32.7666103","-96.599472","48113"
"138325","3886377","HighSchool","2015","11","Josh Rosen","St. John Bosco","UCLA","PRO","76","205","5","0.9932","Bellflower","CA","USA","33.8825705","-118.1167679","06037"
"138326","3925357","HighSchool","2015","12","Calvin Ridley","Monarch","Alabama","WR","72","170","5","0.9931","Pompano Beach","FL","USA","26.2378597","-80.1247667","12011"
"138327","-1022341","HighSchool","2015","13","Terry Beckner Jr.","East St. Louis","Missouri","DT","76","293","5","0.9918","East St. Louis","IL","USA","38.6244952","-90.1509429","17163"
"138328","3917316","HighSchool","2015","14","Daylon Mack","Gladewater","Texas A&M","DT","73","330","5","0.9915","Gladewater","TX","USA","32.5365333","-94.9427169","48183"
"138329","3921563","HighSchool","2015","15","Tarvarus McFadden","American Heritage","Florida State","CB","74","198","5","0.9915","Fort Lauderdale","FL","USA","26.1223084","-80.1433786","12011"
"138330","","HighSchool","2015","16","Keisean Lucier-South","Orange Lutheran","UCLA","WDE","76","208","5","0.9909","Orange","CA","USA","33.7872568","-117.8503088","06059"
"138331","3886837","HighSchool","2015","17","Canton Kaumatule","Punahou","Oregon","SDE","79","290","5","0.9909","Honolulu","HI","USA","21.304547","-157.8556764","15003"
"138332","3728254","HighSchool","2015","18","Deon Cain","Tampa Bay Tech","Clemson","WR","73.5","194","5","0.9906","Tampa","FL","USA","27.9477595","-82.458444","12057"
"138333","3692942","HighSchool","2015","19","George Campbell","East Lake","Florida State","WR","75","184","5","0.9903","Tarpon Springs","FL","USA","28.148082950000003","-82.74380159717906","12103"
"138334","3925358","HighSchool","2015","20","Kendall Sheffield","Fort Bend Marshall","Alabama","CB","72","181","5","0.99","Missouri City","TX","USA","29.6185669","-95.5377215","48157"
"138335","3912562","HighSchool","2015","21","Rasheem Green","Junipero Serra","USC","DT","77","275","5","0.9899","Gardena","CA","USA","33.8963593","-118.3053037","06037"
"138336","","HighSchool","2015","22","Blake Barnett","Santiago","Alabama","PRO","76.5","200","5","0.9898","Corona","CA","USA","33.8752945","-117.5664449","06065"
"138337","3728250","HighSchool","2015","23","Mitch Hyatt","North Gwinnett","Clemson","OT","77","272","5","0.9896","Suwanee","GA","USA","34.0514898","-84.0712997","13135"
"138338","3728266","HighSchool","2015","24","Christian Wilkins","Suffield Academy","Clemson","DT","76","290","5","0.9893","Suffield","CT","USA","41.9816944","-72.6506604","09003"
"138339","3895856","HighSchool","2015","25","Christian Kirk","Saguaro","Texas A&M","WR","70","191","5","0.9891","Scottsdale","AZ","USA","33.4942189","-111.9260184","04013"
"138340","-1038888","HighSchool","2015","26","Chuma Edoga","McEachern","USC","OG","75","280","5","0.988","Powder Springs","GA","USA","33.8595492","-84.683824","13067"
"138341","3915174","HighSchool","2015","27","Terry Godwin","Callaway","Georgia","ATH","72","168","5","0.9879","Hogansville","GA","USA","33.1731769","-84.914936","13285"
"138342","-1000888","HighSchool","2015","28","Daron Payne","Shades Valley","Alabama","DT","74","325","5","0.9878","Birmingham","AL","USA","33.5206824","-86.8024326","01073"
"138343","","HighSchool","2015","29","Tyron Johnson","Warren Easton","LSU","WR","73","191","5","0.9878","New Orleans","LA","USA","29.9499323","-90.0701156","22071"
"138344","3925345","HighSchool","2015","30","Minkah Fitzpatrick","St. Peter's Prep","Alabama","CB","73","198","5","0.9872","Jersey City","NJ","USA","40.7281575","-74.0776417","34017"
"138345","3925347","HighSchool","2015","31","Damien Harris","Madison Southern","Alabama","RB","71","205","5","0.9865","Berea","KY","USA","37.568694","-84.2963224","21151"
"138346","3932222","HighSchool","2015","32","Soso Jamabo","Plano West","UCLA","RB","74.5","210","5","0.9859","Plano","TX","USA","33.0136764","-96.6925096","48085"
"138347","-1038927","HighSchool","2015","33","Osa Masina","Brighton","USC","OLB","75.5","230","5","0.9858","Salt Lake City","UT","USA","40.7596198","-111.8867975","49035"
"138348","","HighSchool","2015","34","Kyler Murray","Allen","Texas A&M","DUAL","70","180","5","0.9854","Allen","TX","USA","33.1031744","-96.6705503","48085"
"138349","","HighSchool","2015","35","Justin Hilliard","St. Xavier","Ohio State","OLB","72","225","5","0.9851","Cincinnati","OH","USA","39.1014537","-84.5124602","39061"
"138350","3886528","HighSchool","2015","36","Kyle Phillips","Hillsboro","Tennessee","SDE","75.5","250","5","0.9843","Nashville","TN","USA","36.1622296","-86.7743531","47037"
"138351","-1016529","HighSchool","2015","37","Maea Teuhema","Keller","LSU","OG","76.5","340","5","0.9839","Keller","TX","USA","32.9299655","-97.2271249","48439"
"138352","3693033","HighSchool","2015","38","Jacques Patrick","Timber Creek","Florida State","RB","73.5","230","4","0.9829","Orlando","FL","USA","28.5421109","-81.3790304","12095"
"138353","","HighSchool","2015","39","Jarrett Stidham","Stephenville","Baylor","DUAL","76","195","4","0.9829","Stephenville","TX","USA","32.2191836","-98.2130634","48143"
"138354","3912550","HighSchool","2015","40","Ronald Jones II","McKinney North","USC","RB","72","185","4","0.9827","McKinney","TX","USA","33.1976496","-96.6154471","48085"
"138355","3912553","HighSchool","2015","41","Porter Gustin","Salem Hills","USC","OLB","77","245","4","0.9827","Salem","UT","USA","40.0529736","-111.6734537","49049"
"138356","-1021698","HighSchool","2015","42","Damarkus Lodge","Cedar Hill","Ole Miss","WR","74.5","190","4","0.9817","Cedar Hill","TX","USA","32.5888072","-96.9553675","48113"
"138357","3916925","HighSchool","2015","43","Kerryon Johnson","Madison Academy","Auburn","ATH","72","200","4","0.981","Madison","AL","USA","34.6928726","-86.7511427","01089"
"138358","3859100","HighSchool","2015","44","Deionte Thompson","West Orange-Stark","Alabama","S","74","181","4","0.9806","Orange","TX","USA","30.0929879","-93.7365549","48361"
"138359","3843750","HighSchool","2015","45","Derrius Guice","Baton Rouge Catholic","LSU","RB","70.5","213","4","0.9793","Baton Rouge","LA","USA","30.4459596","-91.18738","22033"
"138360","3932451","HighSchool","2015","46","Brandon Wimbush","St. Peter's Prep","Notre Dame","DUAL","74","205","4","0.9792","Jersey City","NJ","USA","40.7281575","-74.0776417","34017"
"138361","","HighSchool","2015","47","Preston Williams","Lovejoy","Tennessee","WR","76","191","4","0.9769","Hampton","GA","USA","33.3870578","-84.2829784","13151"
"138362","3915189","HighSchool","2015","48","Roquan Smith","Macon County","Georgia","OLB","74","207","4","0.9769","Montezuma","GA","USA","32.3051576","-84.0274073","13193"
"138363","","HighSchool","2015","49","John Houston Jr.","Junipero Serra","USC","OLB","75","211","4","0.9768","Gardena","CA","USA","33.8963593","-118.3053037","06037"
"138364","3843769","HighSchool","2015","50","Donte Jackson","Riverdale","LSU","ATH","71","164","4","0.976","New Orleans","LA","USA","29.9499323","-90.0701156","22071"
"138365","","HighSchool","2015","51","Breiden Fehoko","Farrington","Texas Tech","DT","75","290","4","0.9752","Honolulu","HI","USA","21.304547","-157.8556764","15003"
"138366","","HighSchool","2015","52","Javon Patterson","Petal","Ole Miss","OG","74.5","317","4","0.9751","Petal","MS","USA","31.3465627","-89.2600605","28035"
"138367","3886835","HighSchool","2015","53","Taj Griffin","McEachern","Oregon","APB","70","175","4","0.9751","Powder Springs","GA","USA","33.8595492","-84.683824","13067"
"138368","-1000848","HighSchool","2015","54","Lester Cotton","Central","Alabama","OG","76","325","4","0.9749","Tuscaloosa","AL","USA","33.2095614","-87.5675258","01125"
"138369","3886601","HighSchool","2015","55","Shy Tuttle","North Davidson","Tennessee","DT","75","320","4","0.9744","Lexington","NC","USA","35.8240265","-80.2533838","37057"
"138370","-1034284","HighSchool","2015","56","Drew Richmond","Memphis University School","Tennessee","OT","77","310","4","0.9741","Memphis","TN","USA","35.1490215","-90.0516285","47157"
"138371","3895834","HighSchool","2015","57","Jalen Dalton","West Forsyth","North Carolina","WDE","77","235","4","0.9737","Clemmons","NC","USA","36.0215258","-80.3819984","37067"
"138372","3917279","HighSchool","2015","58","Jamal Peters","Bassfield","Mississippi State","S","73.5","206","4","0.9726","Bassfield","MS","USA","31.4965591","-89.7395195","28065"
"138373","3912544","HighSchool","2015","59","Marvell Tell III","Crespi","USC","S","73.5","188","4","0.9725","Encino","CA","USA","34.1591324","-118.5016166","06037"
"138374","3929828","HighSchool","2015","60","LJ Scott","Hubbard","Michigan State","RB","74","228","4","0.9725","Hubbard","OH","USA","41.156446","-80.569239","39155"
"138375","3915507","HighSchool","2015","61","Jerome Baker","Benedictine","Ohio State","ATH","74","203","4","0.9697","Cleveland","OH","USA","41.5051613","-81.6934446","39035"
"138376","-1000818","HighSchool","2015","62","Richie Petitbon","Gonzaga","Alabama","OG","76","301","4","0.9696","Washington","DC","USA","38.8949855","-77.0365708","11001"
"138377","3932433","HighSchool","2015","63","Alize Mack","Bishop Gorman","Notre Dame","TE","76.5","218","4","0.9693","Las Vegas","NV","USA","36.1672559","-115.1485163","32003"
"138378","","HighSchool","2015","64","Leo Lewis","Brookhaven","Mississippi State","ILB","75","225","4","0.9684","Brookhaven","MS","USA","31.5790588","-90.4406506","28085"
"138379","3728308","HighSchool","2015","65","Jonathan Ledbetter","Tucker","Georgia","SDE","76","265","4","0.968","Tucker","GA","USA","33.8532701","-84.2200729","13089"
"138380","3921561","HighSchool","2015","66","Deondre Francois","IMG Academy","Florida State","PRO","73","195","4","0.9678","Orlando","FL","USA","28.5421109","-81.3790304","12095"
"138381","3932229","HighSchool","2015","67","DeChaun Holiday","Mission Hills","UCLA","CB","75","195","4","0.9676","San Marcos","CA","USA","33.1433723","-117.1661449","06073"
"138382","3915403","HighSchool","2015","68","Brady White","Hart","Arizona State","PRO","72.5","180","4","0.9673","Santa Clarita","CA","USA","34.3916641","-118.542586","06037"
"138383","","HighSchool","2015","69","Jacob Daniel","Clovis North","USC","DT","76","310","4","0.9669","Clovis","CA","USA","36.8252277","-119.7029194","06019"
"138384","3931391","HighSchool","2015","70","Trent Irwin","Hart","Stanford","WR","73.5","189","4","0.9655","Newhall","CA","USA","37.3485422","-121.9203988069216","06085"
"138385","","HighSchool","2015","71","Neville Gallimore","Canada Prep Football Academy","Oklahoma","DT","74","330","4","0.9643","St. Catharines","ON","CAN","","",""
"138386","-1020416","HighSchool","2015","72","Brian Cole","Heritage","Michigan","ATH","74","190","4","0.9638","Saginaw","MI","USA","43.4200387","-83.9490365","26145"
"138387","3886812","HighSchool","2015","73","Jake Browning","Folsom","Washington","PRO","74","185","4","0.9633","Folsom","CA","USA","38.6779591","-121.1760583","06067"
"138388","","HighSchool","2015","74","Ykili Ross","Polytechnic","USC","CB","72.5","175","4","0.963","Riverside","CA","USA","33.9533546","-117.3961623","06065"
"138389","3915536","HighSchool","2015","75","Mike Weber","Cass Technical","Ohio State","RB","69.5","219","4","0.9627","Detroit","MI","USA","42.3315509","-83.0466403","26163"
"138390","3929847","HighSchool","2015","76","Holton Hill","Lamar","Texas","CB","74","184","4","0.9626","Houston","TX","USA","29.7589382","-95.3676974","48201"
"138391","3929861","HighSchool","2015","77","Anthony Wheeler","Skyline","Texas","OLB","74","225","4","0.9624","Dallas","TX","USA","32.7762719","-96.7968559","48113"
"138392","3916427","HighSchool","2015","78","Johnny Frasier","Princeton","NC State","RB","70","229","4","0.9624","Princeton","NC","USA","35.4659942","-78.1605497","37101"
"138393","","HighSchool","2015","79","Ricky Town","St. Bonaventure","USC","PRO","75","206","4","0.9623","Ventura","CA","USA","34.3435092","-119.29560423163717","06111"
"138394","3929855","HighSchool","2015","80","Chris Warren III","Rockwall","Texas","RB","74","240","4","0.9622","Rockwall","TX","USA","32.9312336","-96.4597089","48397"
"138395","3728262","HighSchool","2015","81","Ray-Ray McCloud","Sickles","Clemson","ATH","69","175","4","0.9621","Tampa","FL","USA","27.9477595","-82.458444","12057"
"138396","-1027115","HighSchool","2015","82","Torrance Gibson","American Heritage","Ohio State","ATH","76","204","4","0.9613","Fort Lauderdale","FL","USA","26.1223084","-80.1433786","12011"
"138397","3917846","HighSchool","2015","83","Mark Walton","Booker T. Washington","Miami","RB","70","179","4","0.9607","Miami","FL","USA","25.7742658","-80.1936589","12086"
"138398","3676003","HighSchool","2015","84","JoJo Wicker","Long Beach Poly","Arizona State","SDE","74","278","4","0.9599","Long Beach","CA","USA","33.7690164","-118.1916048","06037"
"138399","","HighSchool","2015","85","Chris Clark","Avon Old Farms","UCLA","TE","78","247","4","0.9599","Avon","CT","USA","41.8098209","-72.8306541","09003"
"138400","3705423","HighSchool","2015","86","Ricky DeBerry","Atlee","Oklahoma","ILB","74.5","240","4","0.9597","Mechanicsville","VA","USA","37.6193174","-77.3369627","51085"
"138401","3843843","HighSchool","2015","87","Arden Key","Hapeville Charter","LSU","WDE","77","230","4","0.9593","Lithonia","GA","USA","33.7123305","-84.1051939","13089"
"138402","3728310","HighSchool","2015","88","Natrez Patrick","Mays","Georgia","WDE","75","259","4","0.9587","Atlanta","GA","USA","33.7490987","-84.3901849","13121"
"138403","3863089","HighSchool","2015","89","Tristen Hoge","Highland","Notre Dame","OC","76","276","4","0.9585","Pocatello","ID","USA","42.8688613","-112.4401098","16005"
"138404","3728248","HighSchool","2015","90","Albert Huggins","Orangeburg-Wilkinson","Clemson","DT","75","283","4","0.9583","Orangeburg","SC","USA","33.4918203","-80.8556476","45075"
"138405","3929845","HighSchool","2015","91","Kris Boyd","Gilmer","Texas","CB","71.5","185","4","0.9571","Gilmer","TX","USA","32.7312256","-94.9469309","48459"
"138406","","HighSchool","2015","92","Daylon Charlot","Patterson","Alabama","WR","72","193","4","0.957","Patterson","LA","USA","29.6933","-91.3021","06099"
"138407","3728261","HighSchool","2015","93","Mark Fields","Hough","Clemson","CB","71","190","4","0.9564","Cornelius","NC","USA","35.4817982","-80.8589501","37119"
"138408","3932449","HighSchool","2015","94","Dexter Williams","West Orange","Notre Dame","RB","72","192","4","0.9564","Winter Garden","FL","USA","28.5656649","-81.5856742","12095"
"138409","","HighSchool","2015","95","Jashon Cornell","Cretin Derham Hall","Ohio State","SDE","76","260","4","0.9563","Saint Paul","MN","USA","44.9504037","-93.1015026","27123"
"138410","","HighSchool","2015","96","Abdul Bello","Montverde Academy","Florida State","OT","78","295","4","0.9562","Montverde","FL","USA","28.597741499999998","-81.67591675","12069"
"138411","3912549","HighSchool","2015","97","Isaiah Langley","Foothill","USC","CB","71.5","161","4","0.9556","Pleasanton","CA","USA","37.6624312","-121.8746789","06001"
"138412","3924327","HighSchool","2015","98","Drew Lock","Lee's Summit","Missouri","PRO","75.5","205","4","0.9553","Lee's Summit","MO","USA","38.9107156","-94.3821295","29095"
"138413","3915518","HighSchool","2015","99","Eric Glover-Williams","McKinley","Ohio State","CB","71","165","4","0.9538","Canton","OH","USA","40.7989522","-81.3784445","39151"
"138414","3692779","HighSchool","2015","100","Da'Vante Phillips","Miami Central","Florida State","WR","74","204","4","0.9533","Miami","FL","USA","25.7742658","-80.1936589","12086"
"138415","3915532","HighSchool","2015","101","Isaiah Prince","Eleanor Roosevelt","Ohio State","OT","78","272","4","0.9533","Greenbelt","MD","USA","39.0099993","-76.9125366","24033"
"138416","-1028404","HighSchool","2015","102","Travis Jonsen","Servite","Oregon","DUAL","74","189","4","0.9529","Anaheim","CA","USA","33.8347516","-117.911732","06059"
"138417","-1016506","HighSchool","2015","103","Toby Weathersby","Westfield","LSU","OT","76.5","295","4","0.9522","Houston","TX","USA","29.7589382","-95.3676974","48201"
"138418","-1016523","HighSchool","2015","104","Chidi Okeke","Faith Baptist Christian Academy","LSU","OT","78","305","4","0.9521","Ludowici","GA","USA","31.7097964","-81.7430846","13183"
"138419","3895798","HighSchool","2015","105","Jordan Whitehead","Central Valley","Pittsburgh","CB","71","185","4","0.9518","Monaca","PA","USA","40.6872885","-80.2714505","42007"
"138420","","HighSchool","2015","106","Van Jefferson","Ravenwood","Ole Miss","WR","74","183","4","0.9517","Brentwood","TN","USA","36.0325687","-86.7825235","47187"
"138421","3932239","HighSchool","2015","107","Josh Wariboko-Alali","Casady School","UCLA","OG","75.5","315","4","0.9515","Oklahoma City","OK","USA","35.4729886","-97.5170536","40109"
"138422","3929956","HighSchool","2015","108","Tim Settle","Unity Reed","Virginia Tech","DT","74","361","4","0.9512","Manassas","VA","USA","38.7509488","-77.4752667","51683"
"138423","3686709","HighSchool","2015","109","Darian Roseboro","Lincolnton","NC State","SDE","76","285","4","0.9509","Lincolnton","NC","USA","35.473745","-81.2545251","37109"
"138424","-1027067","HighSchool","2015","110","Matthew Burrell","C. D. Hylton","Ohio State","OG","76","321","4","0.9509","Woodbridge","VA","USA","38.6581723","-77.2497049","51153"
"138425","3916430","HighSchool","2015","111","Nyheim Hines","Garner","NC State","APB","69","187","4","0.9486","Garner","NC","USA","35.7112642","-78.6141709","37183"
"138426","","HighSchool","2015","112","Shaun Crawford","St. Edward","Notre Dame","CB","69.5","170","4","0.9484","Lakewood","OH","USA","41.4819932","-81.7981908","39035"
"138427","4035518","HighSchool","2015","113","Prince Tega Wanogho Jr.","Edgewood Academy","Auburn","SDE","80","250","4","0.9481","Elmore","AL","USA","32.5387448","-86.3149712","01051"
"138428","3915196","HighSchool","2015","114","D'Andre Walker","Langston Hughes","Georgia","WDE","74.5","209","4","0.9468","Fairburn","GA","USA","33.5670562","-84.5810418","13121"
"138429","3728258","HighSchool","2015","115","Clelin Ferrell","Benedictine","Clemson","WDE","77","225","4","0.9467","Richmond","VA","USA","37.5385087","-77.43428","51760"
"138430","3925341","HighSchool","2015","116","Mekhi Brown","Carver","Alabama","WDE","76.5","222","4","0.9466","Columbus","GA","USA","32.4609764","-84.9877094","13215"
"138431","3915115","HighSchool","2015","117","Jordan Scarlett","St. Thomas Aquinas","Florida","RB","70.5","202","4","0.9464","Fort Lauderdale","FL","USA","26.1223084","-80.1433786","12011"
"138432","3931393","HighSchool","2015","118","Frank Buncom IV","St Augustine","Stanford","CB","74","190","4","0.9459","San Diego","CA","USA","32.7174209","-117.1627714","06073"
"138433","3929630","HighSchool","2015","119","Saquon Barkley","Whitehall","Penn State","RB","71","190","4","0.9458","Whitehall","PA","USA","40.657478049999995","-75.50746464724347","42077"
"138434","","HighSchool","2015","120","Alex Ofodile","Rock Bridge","Oregon","WR","74","185","4","0.9454","Columbia","MO","USA","38.951883","-92.3337366","29019"
"138435","3930070","HighSchool","2015","121","Eric Swinney","Sandy Creek","Ole Miss","RB","70","188","4","0.9453","Tyrone","GA","USA","33.4713249","-84.5972005","13113"
"138436","3916928","HighSchool","2015","122","Jeff Holland","Trinity Christian Academy","Auburn","OLB","74","230","4","0.945","Jacksonville","FL","USA","30.3321838","-81.655651","12031"
"138437","-1007341","HighSchool","2015","123","Jake Fruhmorgen","Plant","Clemson","OT","77","280","4","0.945","Tampa","FL","USA","27.9477595","-82.458444","12057"
"138438","3929653","HighSchool","2015","124","John Reid","St. Joseph's","Penn State","CB","70","180","4","0.9445","Philadelphia","PA","USA","39.9527237","-75.1635262","42101"
"138439","","HighSchool","2015","125","Garrett Taylor","St. Christopher's School","Penn State","CB","73","195","4","0.9441","Richmond","VA","USA","37.5385087","-77.43428","51760"
"138440","","HighSchool","2015","126","Eric Lee","Valor Christian","Nebraska","CB","72","175","4","0.9438","Littleton","CO","USA","39.613321","-105.0166498","08005"
"138441","3915415","HighSchool","2015","127","Adam McLean","Quince Orchard","Maryland","DT","74","290","4","0.9432","Bethesda","MD","USA","38.9819845","-77.12423413116392","24031"
"138442","3929645","HighSchool","2015","128","Juwan Johnson","Glassboro","Penn State","WR","76","216","4","0.9428","Glassboro","NJ","USA","39.7027677","-75.1119434","34015"
"138443","-1034703","HighSchool","2015","129","Patrick Vahe","Trinity","Texas","OC","74.5","300","4","0.9426","Euless","TX","USA","32.8457865","-97.0667142473263","48439"
"138444","3917325","HighSchool","2015","130","Justin Dunning","Whitehouse","Texas A&M","S","75.5","204","4","0.9425","Whitehouse","TX","USA","32.2268666","-95.2259279","48423"
"138445","-1034303","HighSchool","2015","131","Jack Jones","Oakland","Tennessee","OT","77","290","4","0.9421","Murfreesboro","TN","USA","35.845999","-86.3920452","47149"
"138446","3915143","HighSchool","2015","132","Malik Lovette","Redlands East Valley","Oregon","APB","71","180","4","0.942","Redlands","CA","USA","34.055735","-117.1888961","06071"
"138447","-1026371","HighSchool","2015","133","Josh Barajas","Andrean","Notre Dame","OLB","75","215","4","0.9413","Merrillville","IN","USA","41.4828144","-87.3328139","18089"
"138448","3915525","HighSchool","2015","134","Dre'Mont Jones","St. Ignatius","Ohio State","SDE","75","266","4","0.9409","Cleveland","OH","USA","41.5051613","-81.6934446","39035"
"138449","3915188","HighSchool","2015","135","Rashad Roundtree","Lakeside","Georgia","S","73","195","4","0.9405","Evans","GA","USA","33.5143065","-82.1387819734912","13073"
"138450","","HighSchool","2015","136","James Lockhart","Ennis","Texas A&M","SDE","74","251","4","0.9404","Ennis","TX","USA","32.3293111","-96.6252679","48139"
"138451","-1027444","HighSchool","2015","137","P.J. Mbanasor","Hendrickson","Oklahoma","CB","72.5","176","4","0.9402","Pflugerville","TX","USA","30.4393696","-97.6200043","48453"
"138452","3929844","HighSchool","2015","138","John Burt","Lincoln","Texas","WR","75","180","4","0.9392","Tallahassee","FL","USA","30.4380832","-84.2809332","12073"
"138453","","HighSchool","2015","139","Marcus Lewis","Gonzaga","Florida State","ATH","73","187","4","0.9381","Washington","DC","USA","38.8949855","-77.0365708","11001"
"138454","3916945","HighSchool","2015","140","Darius Slayton","Greater Atlanta Christian School","Auburn","WR","73","182","4","0.9379","Norcross","GA","USA","33.9412127","-84.2135309","13135"
"138455","3915778","HighSchool","2015","141","Josh Smith","Oakland","Vanderbilt","ILB","75","228","4","0.9378","Murfreesboro","TN","USA","35.845999","-86.3920452","47149"
"138456","","HighSchool","2015","142","Keenan Walker","Chaparral","Arizona","OT","78","280","4","0.9363","Paradise Valley","AZ","USA","33.5428006","-111.9556001","04013"
"138457","3915182","HighSchool","2015","143","Rico McGraw","Ensworth","Georgia","CB","72","190","4","0.9361","Nashville","TN","USA","36.1622296","-86.7743531","47037"
"138458","","HighSchool","2015","144","Hjalte Froholdt","IMG Academy","Arkansas","DT","76","282","4","0.9356","Bradenton","FL","USA","27.4989278","-82.5748194","12081"
"138459","3925348","HighSchool","2015","145","Hale Hentges","Helias","Alabama","TE","77","230","4","0.935","Jefferson City","MO","USA","38.577359","-92.1724265","29051"
"138460","","HighSchool","2015","146","Desherrius Flowers","Vigor","Alabama","RB","72.5","204","4","0.9348","Mobile","AL","USA","30.6943566","-88.0430541","01097"
"138461","3924353","HighSchool","2015","147","Shameik Blackshear","Bluffton","South Carolina","WDE","77","240","4","0.9343","Bluffton","SC","USA","32.2371465","-80.8603868","45013"
"138462","3912547","HighSchool","2015","148","Sam Darnold","San Clemente","USC","DUAL","75.5","208","4","0.9338","San Clemente","CA","USA","33.4270275","-117.6124179","06059"
"138463","3917910","HighSchool","2015","149","Jahvoni Simmons","Ocean Lakes","Virginia","ILB","73","225","4","0.9337","Virginia Beach","VA","USA","36.8529841","-75.9774183","51810"
"138464","3915186","HighSchool","2015","150","Chauncey Rivers","Stephenson","Georgia","WDE","74.5","247","4","0.9333","Stone Mountain","GA","USA","33.8080924","-84.1706273","13089"
"138465","3705353","HighSchool","2015","151","Rodney Anderson","Katy","Oklahoma","APB","72.5","204","4","0.9332","Katy","TX","USA","29.7857853","-95.8243956","48157"
"138466","","HighSchool","2015","152","Stanley Norman","Junipero Serra","Arizona State","ATH","72","180","4","0.9332","Gardena","CA","USA","33.8963593","-118.3053037","06037"
"138467","","HighSchool","2015","153","K.J. Hill","North Little Rock","Ohio State","WR","72","188","4","0.933","North Little Rock","AR","USA","34.769536","-92.2670941","05119"
"138468","-1012866","HighSchool","2015","154","Fred Ulu-Perry","St. Louis","UCLA","OC","74","300","4","0.9329","Honolulu","HI","USA","21.304547","-157.8556764","15003"
"138469","","HighSchool","2015","155","Will Sunderland","Midwest City","Oklahoma","S","75","195","4","0.9328","Oklahoma City","OK","USA","35.4729886","-97.5170536","40109"
"138470","3863182","HighSchool","2015","156","Jerry Tillery","Evangel Christian Academy","Notre Dame","OT","78","308","4","0.9325","Shreveport","LA","USA","32.5221828","-93.7651944","22017"
"138471","-1042737","HighSchool","2015","157","Tyrek Cole","Miramar","West Virginia","CB","71.5","170","4","0.932","Hollywood","FL","USA","26.0112014","-80.1494901","12011"
"138472","","HighSchool","2015","158","Larry Pryor","Sulphur Springs","Texas A&M","S","71.5","196","4","0.932","Sulphur Springs","TX","USA","33.1384886","-95.6010143","48223"
"138473","","HighSchool","2015","159","Jovon Durante","Miramar","West Virginia","WR","72","162","4","0.9314","Miami","FL","USA","25.7742658","-80.1936589","12086"
"138474","3886477","HighSchool","2015","160","Darrin Kirkland Jr.","Lawrence Central","Tennessee","ILB","73","223","4","0.9306","Indianapolis","IN","USA","39.7683331","-86.1583502","18097"
"138475","","HighSchool","2015","161","Ryan Bates","Archbishop Wood","Penn State","OT","77","275","4","0.9303","Warminster","PA","USA","40.2067751","-75.0996159","42017"
"138476","3917795","HighSchool","2015","162","Ben Humphreys","Mater Dei","Duke","OLB","73","200","4","0.9301","Santa Ana","CA","USA","33.7494951","-117.8732213","06059"
"138477","3932442","HighSchool","2015","163","Equanimeous St. Brown","Servite","Notre Dame","WR","77","205","4","0.9298","Anaheim","CA","USA","33.8347516","-117.911732","06059"
"138478","-1006248","HighSchool","2015","164","Carlos Strickland","Skyline","California","WR","77","194","4","0.9292","Dallas","TX","USA","32.7762719","-96.7968559","48113"
"138479","3886598","HighSchool","2015","165","Jauan Jennings","Blackman","Tennessee","DUAL","76","188","4","0.9289","Murfreesboro","TN","USA","35.845999","-86.3920452","47149"
"138480","3925342","HighSchool","2015","166","Shawn Burgess-Becker","Monarch","Alabama","ATH","73","185","4","0.9283","Pompano Beach","FL","USA","26.2378597","-80.1247667","12011"
"138481","","HighSchool","2015","167","Derrick Dillon","Pine","LSU","WR","71","173","4","0.9271","Franklinton","LA","USA","30.8471283","-90.153141","22117"
"138482","-1003640","HighSchool","2015","168","Jordan Colbert","Griffin","Auburn","S","74","205","4","0.927","Griffin","GA","USA","33.2467807","-84.2640904","13255"
"138483","","HighSchool","2015","169","Fletcher Adams","Brandon","Mississippi State","SDE","75","260","4","0.9269","Brandon","MS","USA","32.2731475","-89.9868058","28121"
"138484","","HighSchool","2015","170","Anfernee Jennings","Dadeville","Alabama","WDE","75","256","4","0.9268","Dadeville","AL","USA","32.831238","-85.7635692","01123"
"138485","","HighSchool","2015","171","Kirk Merritt","Destrehan","Oregon","APB","71","206","4","0.9265","Destrehan","LA","USA","29.960933","-90.3705407077716","22089"
"138486","3706968","HighSchool","2015","172","Bobby Evans","Allen","Oklahoma","OT","76","280","4","0.926","Allen","TX","USA","33.1031744","-96.6705503","48085"
"138487","3916937","HighSchool","2015","173","Darrell Williams","Hoover","Auburn","OLB","75","226","4","0.9259","Hoover","AL","USA","33.3848933","-86.8070484","01073"
"138488","3925359","HighSchool","2015","174","Adonis Thomas","Central Gwinnett","Alabama","OLB","75.5","229","4","0.9251","Lawrenceville","GA","USA","33.9562149","-83.9879625","13135"
"138489","","HighSchool","2015","175","JF Thomas","South Oak Cliff","Texas Tech","WR","76","185","4","0.9248","Dallas","TX","USA","32.7762719","-96.7968559","48113"
"138490","3929924","HighSchool","2015","176","Zach Gentry","Eldorado","Michigan","PRO","79","230","4","0.9248","Albuquerque","NM","USA","35.0841034","-106.6509851","35001"
"138491","3843856","HighSchool","2015","177","Xavier Lewis","East St. John","LSU","CB","71","188","4","0.9242","Reserve","LA","USA","30.0538131","-90.5517534","20013"
"138492","-1024770","HighSchool","2015","178","Tommy Hatton","St. Joseph Regional","North Carolina","OC","75","280","4","0.9239","Montvale","NJ","USA","41.0467635","-74.0229173","34003"
"138493","3916946","HighSchool","2015","179","Ryan Davis","Lakewood","Auburn","WR","70.5","172","4","0.9235","St. Petersburg","FL","USA","27.7703796","-82.6695085","12103"
"138494","-1035067","HighSchool","2015","180","Keaton Sutherland","Marcus","Texas A&M","OT","77","293","4","0.9232","Flower Mound","TX","USA","33.0283854","-97.0867203","48121"
"138495","3929830","HighSchool","2015","181","Kyonta Stallworth","Martin Luther King","Michigan State","OG","76","275","4","0.9231","Detroit","MI","USA","42.3315509","-83.0466403","26163"
"138496","","HighSchool","2015","182","Asmar Bilal","Ben Davis","Notre Dame","ILB","74","205","4","0.9231","Indianapolis","IN","USA","39.7683331","-86.1583502","18097"
"138497","","HighSchool","2015","183","Blake Lynch","Gilmer","Baylor","WR","75","195","4","0.923","Gilmer","TX","USA","32.7312256","-94.9469309","48459"
"138498","3843406","HighSchool","2015","184","Nick Brossette","University Lab","LSU","RB","72","207","4","0.9224","Baton Rouge","LA","USA","30.4459596","-91.18738","22033"
"138499","-1035055","HighSchool","2015","185","Connor Lanfear","Hays","Texas A&M","OT","77.5","295","4","0.9223","Buda","TX","USA","30.082475","-97.8417144","48209"
"138500","3728307","HighSchool","2015","186","Jackson Harris","Columbia Central","Georgia","TE","78","250","4","0.922","Columbia","TN","USA","35.6150716","-87.0352831","47119"
"138501","3701669","HighSchool","2015","187","Cameron Smith","Granite Bay","USC","ILB","75","225","4","0.922","Granite Bay","CA","USA","38.7632346","-121.1638361","06061"
"138502","-1023276","HighSchool","2015","188","Jalin Barnett","Lawton","Nebraska","OG","76","315","4","0.9219","Lawton","OK","USA","34.6086854","-98.3903305","40031"
"138503","3675701","HighSchool","2015","189","Jason Lewis","Ocean Lakes","Arizona State","ATH","74","247","4","0.9219","Virginia Beach","VA","USA","36.8529841","-75.9774183","51810"
"138504","-1013541","HighSchool","2015","190","Gabe Megginson","Jacksonville","Illinois","OT","77","295","4","0.9218","Jacksonville","IL","USA","39.7343037","-90.2288356","12031"
"138505","3929846","HighSchool","2015","191","DeShon Elliott","Rockwall-Heath","Texas","S","73","200","4","0.9218","Rockwall","TX","USA","32.9312336","-96.4597089","48397"
"138506","3728267","HighSchool","2015","192","Garrett Williams","The First Academy","Clemson","TE","76","220","4","0.9218","Orlando","FL","USA","28.5421109","-81.3790304","12095"
"138507","3929926","HighSchool","2015","193","Tyree Kinnel","Wayne","Michigan","S","72","205","4","0.9212","Dayton","OH","USA","39.7589478","-84.1916069","39113"
"138508","3932423","HighSchool","2015","194","Miles Boykin","Providence Catholic","Notre Dame","WR","76","220","4","0.9209","New Lenox","IL","USA","41.5119761","-87.9656098","17197"
"138509","3859006","HighSchool","2015","195","Ronnie Harrison","Florida State University School","Alabama","S","75","205","4","0.9206","Tallahassee","FL","USA","30.4380832","-84.2809332","12073"
"138510","3924358","HighSchool","2015","196","Jalen Christian","Damascus","South Carolina","ATH","70","165","4","0.9205","Damascus","MD","USA","39.2884381","-77.2038717","24031"
"138511","","HighSchool","2015","197","Cheyenne O'Grady","Fayetteville","Arkansas","TE","76","230","4","0.9204","Fayetteville","AR","USA","36.0625843","-94.1574328","05143"
"138512","","HighSchool","2015","198","Roney Elam","Newton","Texas A&M","CB","74","173","4","0.9203","Newton","TX","USA","30.8491127","-93.7574139","48351"
"138513","","HighSchool","2015","199","Marquise Overton","Jenks","Oklahoma","DT","73","301","4","0.9199","Jenks","OK","USA","36.0228734","-95.9683278","40143"
"138514","","HighSchool","2015","200","Will Gragg","Dumas","Arkansas","TE","76","245","4","0.9196","Dumas","AR","USA","33.8870477","-91.4917899","05041"
"138515","-1010890","HighSchool","2015","201","Darvin Taylor II","Thomas Dale","Florida State","DT","74","295","4","0.9196","Chester","VA","USA","37.3569086","-77.4421818","51041"
"138516","","HighSchool","2015","202","Richard McBryde","Charles Henderson","Auburn","OLB","74","210","4","0.9194","Troy","AL","USA","31.8087678","-85.969951","01109"
"138517","3929101","HighSchool","2015","203","Jordan Stevenson","South Oak Cliff","Nebraska","RB","68","210","4","0.9192","Dallas","TX","USA","32.7762719","-96.7968559","48113"
"138518","3728253","HighSchool","2015","204","Austin Bryant","Thomas County Central","Clemson","WDE","77","250","4","0.919","Thomasville","GA","USA","30.8365815","-83.9787808","13275"
"138519","","HighSchool","2015","205","David Ducre","Lakeshore","LSU","FB","71","238","4","0.9187","Mandeville","LA","USA","30.3582305","-90.0657477","22103"
"138520","","HighSchool","2015","206","Devonaire Clarington","Booker T. Washington","Texas","TE","77","238","4","0.9179","Miami","FL","USA","25.7742658","-80.1936589","12086"
"138521","","HighSchool","2015","207","Raequan Williams","DePaul College Prep","Michigan State","DT","76","280","4","0.9176","Chicago","IL","USA","41.8755616","-87.6244212","17031"
"138522","","HighSchool","2015","208","Corey Dauphine","Memorial","Texas Tech","RB","72","185","4","0.9169","Port Arthur","TX","USA","29.8988618","-93.9288723","48245"
"138523","-1011616","HighSchool","2015","209","Pat Allen","Franklin","Georgia","OT","77","286","4","0.9166","Reisterstown","MD","USA","39.4695489","-76.8294213","24005"
"138524","3672862","HighSchool","2015","210","Jaquan Johnson","Killian","Miami","S","70","182","4","0.9163","Miami","FL","USA","25.7742658","-80.1936589","12086"
"138525","-1029046","HighSchool","2015","211","Sterling Jenkins","Baldwin","Penn State","OT","80","305","4","0.9159","Pittsburgh","PA","USA","40.4416941","-79.9900861","42003"
"138526","3912557","HighSchool","2015","212","Tyler Petite","Campolindo","USC","TE","77","225","4","0.9155","Moraga","CA","USA","37.834897","-122.12883","06013"
"138527","3873927","HighSchool","2015","213","Nick Conner","Dublin Scioto","Ohio State","ILB","75","225","4","0.9147","Dublin","OH","USA","40.0992294","-83.1140771","39049"
"138528","-1019656","HighSchool","2015","214","Bar Milo","Chaminade","Miami","OT","78","270","4","0.9144","West Hills","CA","USA","34.2032325","-118.645476","06037"
"138529","-1025006","HighSchool","2015","215","Emanuel McGirt","Hillside","NC State","OT","78","275","4","0.9141","Durham","NC","USA","35.996653","-78.9018053","37063"
"138530","","HighSchool","2015","216","Jamario Bell","Junction City","Arkansas","SDE","78","225","4","0.9137","Junction City","AR","USA","33.0162501","-92.7243243","05139"
"138531","-1038207","HighSchool","2015","217","Andre James","Herriman","UCLA","OT","77","275","4","0.9136","Herriman","UT","USA","40.5140894","-112.0328198","49035"
"138532","3791117","HighSchool","2015","218","Malik Dear","Murrah","Mississippi State","ATH","69.5","226","4","0.9135","Jackson","MS","USA","32.2990384","-90.1847691","28049"
"138533","","HighSchool","2015","219","Benning Potoa'e","Lakes","Washington","WDE","76","270","4","0.9129","Lakewood","WA","USA","47.1714085","-122.5164","53053"
"138534","-1020363","HighSchool","2015","220","Grant Newsome","The Lawrenceville School","Michigan","OT","78","290","4","0.9129","Trenton","NJ","USA","40.2170575","-74.7429463","34021"
"138535","-1031080","HighSchool","2015","221","Desean Holmes","Bishop Alemany","San Diego State","WR","70.5","170","4","0.9127","Pasadena","CA","USA","34.1476452","-118.1444779","06037"
"138536","-1000844","HighSchool","2015","222","Dallas Warmack","Mays","Alabama","OG","73.5","306","4","0.9121","Atlanta","GA","USA","33.7490987","-84.3901849","13121"
"138537","-1003601","HighSchool","2015","223","Tyler Carr","Southside","Auburn","OG","77","311","4","0.912","Gadsden","AL","USA","34.010929","-85.9989596","01055"
"138538","","HighSchool","2015","224","Ryan Newsome","Aledo","Texas","WR","68","170","4","0.9119","Aledo","TX","USA","32.69900905","-97.60396629774493","48367"
"138539","3886621","HighSchool","2015","225","Ty Storey","Charleston","Arkansas","PRO","75","216","4","0.9119","Charleston","AR","USA","38.3505995","-81.6332812","54039"
"138540","","HighSchool","2015","226","Jordan Davis","Clear Lake","Texas A&M","TE","76.5","255","4","0.9117","Houston","TX","USA","29.7589382","-95.3676974","48201"
"138541","","HighSchool","2015","227","Cordell Broadus","Bishop Gorman","UCLA","WR","74","195","4","0.9117","Las Vegas","NV","USA","36.1672559","-115.1485163","32003"
"138542","","HighSchool","2015","228","Marquel Harrell","Creekside","Auburn","OG","75","295","4","0.9116","Fairburn","GA","USA","33.5670562","-84.5810418","13121"
"138543","","HighSchool","2015","229","Josh Woods","Upland","UCLA","ILB","72","220","4","0.9116","Upland","CA","USA","34.09751","-117.6483876","06071"
"138544","","HighSchool","2015","230","JaMycal Hasty","Longview","Baylor","APB","68","185","4","0.9115","Longview","TX","USA","32.5007031","-94.74049","48183"
"138545","-1038277","HighSchool","2015","231","Tevita Halalilo","Rancho Verde","UCLA","OG","76","315","4","0.9113","Moreno Valley","CA","USA","33.937517","-117.2305944","06065"
"138546","3886820","HighSchool","2015","232","Austin Joyner","Marysville Pilchuck","Washington","CB","71","186","4","0.9113","Marysville","WA","USA","48.0517429","-122.1768209","53061"
"138547","3931398","HighSchool","2015","233","Bryce Love","Wake Forest","Stanford","APB","70","180","4","0.9113","Wake Forest","NC","USA","35.9803138","-78.5103731","37183"
"138548","3915393","HighSchool","2015","234","Quart'e Sapp","Milton","Tennessee","OLB","73.5","200","4","0.911","Alpharetta","GA","USA","34.0709576","-84.2747329","13121"
"138549","4035459","HighSchool","2015","235","Chad Smith","Dominion","Clemson","OLB","75.5","213","4","0.9104","Sterling","VA","USA","39.0016194","-77.4032011","51107"
"138550","3895830","HighSchool","2015","236","William Sweet","First Coast","North Carolina","OT","77","280","4","0.9098","Jacksonville","FL","USA","30.3321838","-81.655651","12031"
"138551","","HighSchool","2015","237","Armani Linton","Walnut Attendance Center","Ole Miss","S","75","203","4","0.9097","Walnut","MS","USA","34.1489999","-90.3989834","28119"
"138552","-1002194","HighSchool","2015","238","Jalen Merrick","New Smyrna Beach","Arkansas","OG","77","295","4","0.9096","New Smyrna Beach","FL","USA","29.0258132","-80.9271271","12127"
"138553","3915373","HighSchool","2015","239","Micah Abernathy","Greater Atlanta Christian School","Tennessee","CB","73","187","4","0.9095","Atlanta","GA","USA","33.7490987","-84.3901849","13121"
"138554","-1028410","HighSchool","2015","240","Zach Okun","Newbury Park","Oregon","OG","75","340","4","0.9093","Newbury Park","CA","USA","34.183671","-118.9118302","06111"
"138555","4030854","HighSchool","2015","241","Kamonte Carter","Gaithersburg","Penn State","ATH","76","243","4","0.9093","Gaithersburg","MD","USA","39.1434406","-77.2013705","24031"
"138556","","HighSchool","2015","242","Michael Barnett","Woodland","Georgia","SDE","77","258","4","0.9091","Dorchester","SC","USA","32.8496198","-79.9881442","45019"
"138557","-1035093","HighSchool","2015","243","Trevor Elbert","Rockwall-Heath","Texas A&M","OT","77","290","4","0.9089","Rockwall","TX","USA","32.9312336","-96.4597089","48397"
"138558","","HighSchool","2015","244","Zach Robertson","St. John Bosco","Arizona State","OG","77","322","4","0.9088","Bellflower","CA","USA","33.8825705","-118.1167679","06037"
"138559","3925353","HighSchool","2015","245","Joshua McMillon","Whitehaven","Alabama","OLB","75","239","4","0.9084","Memphis","TN","USA","35.1490215","-90.0516285","47157"
"138560","3929634","HighSchool","2015","246","Ryan Buchholz","Great Valley","Penn State","SDE","78","240","4","0.9083","Malvern","PA","USA","40.034444","-75.514444","01061"
"138561","-1031959","HighSchool","2015","247","Zack Bailey","Summerville","South Carolina","OG","77","315","4","0.9082","Summerville","SC","USA","33.0206179","-80.1747537","45035"
"138562","3915190","HighSchool","2015","248","Jayson Stanley","Creekside","Georgia","WR","74","198","4","0.9081","Fairburn","GA","USA","33.5670562","-84.5810418","13121"
"138563","","HighSchool","2015","249","Kyahva Tezino","Salesian","San Diego State","OLB","72","207","4","0.908","Los Angeles","CA","USA","34.0536909","-118.2427666","06037"
"138564","","HighSchool","2015","250","Henry Roberts","Bellevue","Washington","OT","77.5","274","4","0.9079","Bellevue","WA","USA","47.6144219","-122.1923372","53033"
"138565","3929859","HighSchool","2015","251","Cameron Townsend","Ridge Point","Texas","OLB","72.5","195","4","0.9076","Missouri City","TX","USA","29.6185669","-95.5377215","48157"
"138566","-1042342","HighSchool","2015","252","Thomas Toki","St. Francis","Washington State","DT","71","308","4","0.9075","Mountain View","CA","USA","37.3893889","-122.0832101","06085"
"138567","-1034317","HighSchool","2015","253","Sheriron Jones","Rancho Verde","Tennessee","DUAL","74.5","191","4","0.9075","Moreno Valley","CA","USA","33.937517","-117.2305944","06065"
"138568","3722362","HighSchool","2015","254","Brett Rypien","Shadle Park","Boise State","PRO","74","185","4","0.9075","Spokane","WA","USA","47.6579425","-117.4212265","53063"
"138569","-1018734","HighSchool","2015","255","Quarvez Boulware","Friendship Academy","Maryland","OG","74.5","283","4","0.907","Washington","DC","USA","38.8949855","-77.0365708","11001"
"138570","3929632","HighSchool","2015","256","Manny Bowen","Barnegat","Penn State","OLB","74","206","4","0.9069","Barnegat","NJ","USA","39.755746200000004","-74.22071740889322","34029"
"138571","","HighSchool","2015","257","Noah Jefferson","Desert Oasis","USC","SDE","77","271","4","0.9068","Las Vegas","NV","USA","36.1672559","-115.1485163","32003"
"138572","3929654","HighSchool","2015","258","Andre Robinson","Bishop McDevitt","Penn State","RB","69","205","4","0.9068","Harrisburg","PA","USA","40.2663107","-76.8861122","42043"
"138573","-1032996","HighSchool","2015","259","Cameron Scarlett","Central Catholic","Stanford","ATH","73","210","4","0.9066","Portland","OR","USA","45.5202471","-122.6741949","41051"
"138574","-1035770","HighSchool","2015","260","Conner Dyer","Horn","Texas Tech","OT","76","276","4","0.9066","Mesquite","TX","USA","32.7666103","-96.599472","48113"
"138575","3919607","HighSchool","2015","261","Darrion Daniels","Bishop Dunne","Oklahoma State","DT","75.5","290","4","0.9063","Dallas","TX","USA","32.7762719","-96.7968559","48113"
"138576","3929047","HighSchool","2015","262","Tristan Payton","First Coast","UCF","WR","72","182","4","0.9063","Jacksonville","FL","USA","30.3321838","-81.655651","12031"
"138577","3915535","HighSchool","2015","263","Denzel Ward","Nordonia","Ohio State","CB","71","165","4","0.9062","Macedonia","OH","USA","41.313667","-81.50845","39153"
"138578","","HighSchool","2015","264","Quinten Dormady","Boerne","Tennessee","PRO","76","200","4","0.906","Boerne","TX","USA","29.7946641","-98.7319703","48259"
"138579","3921564","HighSchool","2015","265","Auden Tate","Wharton","Florida State","WR","76.5","215","4","0.9054","Tampa","FL","USA","27.9477595","-82.458444","12057"
"138580","","HighSchool","2015","266","Kaleb Kim","Mill Creek","Auburn","OC","75","280","4","0.9054","Hoschton","GA","USA","34.096496","-83.7612839","13157"
"138581","","HighSchool","2015","267","D'Anfernee McGriff","Tallahassee Leon","Florida","RB","73","230","4","0.9052","Tallahassee","FL","USA","30.4380832","-84.2809332","12073"
"138582","-1030325","HighSchool","2015","268","Marques Ford","East Bay","Rutgers","SDE","76","230","4","0.9052","Gibsonton","FL","USA","27.8536365","-82.3825931","12057"
"138583","","HighSchool","2015","269","Jaylinn Hawkins","Buena Park","California","WR","73","180","4","0.905","Buena Park","CA","USA","33.870413","-117.9962165","06059"
"138584","","HighSchool","2015","270","Eli Brown","Warren East","Kentucky","OLB","74","190","4","0.9047","Bowling Green","KY","USA","36.9903199","-86.4436018","21227"
"138585","-1035108","HighSchool","2015","271","Jay Bradford","Splendora","Texas A&M","RB","70","190","4","0.9047","Splendora","TX","USA","30.2329914","-95.1610438","48339"
"138586","","HighSchool","2015","272","Madison Akamnonu","Bowie","Texas Tech","OT","77","278","4","0.904","Arlington","TX","USA","32.701938999999996","-97.10562379033699","48439"
"138587","3916936","HighSchool","2015","273","Montavious Atkinson","Langston Hughes","Auburn","ILB","73","200","4","0.904","Fairburn","GA","USA","33.5670562","-84.5810418","13121"
"138588","","HighSchool","2015","274","Arrington Farrar","Woodward Academy","Wisconsin","S","74","195","4","0.9039","Atlanta","GA","USA","33.7490987","-84.3901849","13121"
"138589","-1034315","HighSchool","2015","275","Andrew Butcher","Alpharetta","Tennessee","SDE","74","242","4","0.9037","Alpharetta","GA","USA","34.0709576","-84.2747329","13121"
"138590","","HighSchool","2015","276","Darrell Taylor","Hopewell","Tennessee","WDE","76","230","4","0.9035","Hopewell","VA","USA","36.7468036","-79.4639158","51143"
"138591","","HighSchool","2015","277","Stephen Johnson","San Leandro","UCLA","ATH","71","180","4","0.9033","San Leandro","CA","USA","37.7249296","-122.1560768","06001"
"138592","-1033558","HighSchool","2015","278","Deshawn Raymond","East Jefferson","TCU","CB","73","190","4","0.9032","Metairie","LA","USA","30.001852","-90.1767149159888","22051"
"138593","-1041371","HighSchool","2015","279","Austin Clark","Rockbridge County","Virginia Tech","OT","78","297","4","0.903","Lexington","VA","USA","37.7840208","-79.4428157","51678"
"138594","","HighSchool","2015","280","CJ Sanders","Notre Dame","Notre Dame","WR","69","177","4","0.9028","Sherman Oaks","CA","USA","34.1508718","-118.4489865","06037"
"138595","-1011317","HighSchool","2015","281","L.J. Reed","Cosumnes Oaks","Fresno State","WR","75","200","4","0.9025","Elk Grove","CA","USA","38.4087993","-121.3716178","06067"
"138596","3843216","HighSchool","2015","282","Tim Irvin","Westminster Christian School","Auburn","ATH","68.5","194","4","0.9025","Miami","FL","USA","25.7742658","-80.1936589","12086"
"138597","","HighSchool","2015","283","Kemah Siverand","Cy Ridge","Texas A&M","WR","72","187","4","0.9025","Houston","TX","USA","29.7589382","-95.3676974","48201"
"138598","","HighSchool","2015","284","Ty'Son Williams","Crestwood","North Carolina","RB","71","200","4","0.9024","Sumter","SC","USA","33.9204354","-80.3414693","45085"
"138599","-1010912","HighSchool","2015","285","Sh'mar Kilby-Lane","Hallandale","Florida State","OLB","73","209","4","0.9023","Hallandale","FL","USA","25.985600599999998","-80.13999671464335","12011"
"138600","3915230","HighSchool","2015","286","CJ Conrad","Keystone","Kentucky","TE","77","225","4","0.9018","LaGrange","OH","USA","41.2373401","-82.1198013","39093"
"138601","4035499","HighSchool","2015","287","Javaris Davis","Ed White","Auburn","RB","69.5","173","4","0.9017","Jacksonville","FL","USA","30.3321838","-81.655651","12031"
"138602","-1020386","HighSchool","2015","288","Alex Malzone","Brother Rice","Michigan","PRO","73.5","200","4","0.9015","Bloomfield Hills","MI","USA","42.583645","-83.2454883","26125"
"138603","3843603","HighSchool","2015","289","Jazz Ferguson","West Feliciana","LSU","WR","77","205","4","0.9015","Saint Francisville","LA","USA","30.7881","-91.3768","29045"
"138604","-1027412","HighSchool","2015","290","Dru Samia","San Ramon Valley","Oklahoma","OT","77","296","4","0.9014","Danville","CA","USA","37.8215929","-121.9999606","06013"
"138605","3929849","HighSchool","2015","291","Davante Davis","Booker T. Washington","Texas","CB","75","200","4","0.9009","Homestead","FL","USA","25.4718946","-80.4759905","12086"
"138606","4386504","HighSchool","2015","292","Khaylan Kearse-Thomas","Etiwanda","Arizona State","OLB","74","210","4","0.9009","Rancho Cucamonga","CA","USA","34.1033192","-117.5751735","06071"
"138607","","HighSchool","2015","293","Natereace Strong","East St. Louis","","RB","73","210","4","0.9006","East St. Louis","IL","USA","38.6244952","-90.1509429","17163"
"138608","3895788","HighSchool","2015","294","Darrin Hall","Fitch","Pittsburgh","RB","72","205","4","0.9005","Youngstown","OH","USA","41.1035786","-80.6520161","39099"
"138609","","HighSchool","2015","295","Joe Burrow","Athens","Ohio State","DUAL","76","200","4","0.9003","The Plains","OH","USA","39.3700911","-82.1323674","39009"
"138610","","HighSchool","2015","296","Alex Stump","St. Edward","Ohio State","WR","75.5","195","4","0.9002","Lakewood","OH","USA","41.4819932","-81.7981908","39035"
"138611","3929636","HighSchool","2015","297","Irvin Charles","Paul VI","Penn State","WR","76","212","4","0.9001","Haddonfield","NJ","USA","39.8915022","-75.0376707","34007"
"138612","-1019660","HighSchool","2015","298","Tyree St. Louis","IMG Academy","Miami","OT","77","300","4","0.9001","Bradenton","FL","USA","27.4989278","-82.5748194","12081"
"138613","3707417","HighSchool","2015","299","Kahlil Haughton","Midway","Oklahoma","S","74","175","4","0.9001","Waco","TX","USA","31.549333","-97.1466695","48309"
"138614","3932420","HighSchool","2015","300","Josh Adams","Central Bucks South","Notre Dame","RB","74","208","4","0.9001","Warrington","PA","USA","40.2492741","-75.1340604","42017"
"138615","","HighSchool","2015","301","Ahmad Wagner","Wayne","","WR","79","190","4","0.9","Dayton","OH","USA","39.7589478","-84.1916069","39113"
"138616","513256","HighSchool","2015","302","Octavis Johnson","Clinch County","South Carolina","ATH","73","181","4","0.8999","Homerville","GA","USA","31.0365983","-82.7470849","13065"
"138617","","HighSchool","2015","303","John Kolar","Norman North","Oklahoma State","DUAL","75","195","4","0.8999","Norman","OK","USA","35.2225717","-97.4394816","40027"
"138618","3862861","HighSchool","2015","304","Te'von Coney","Palm Beach Gardens","Notre Dame","ILB","73","222","4","0.8995","Palm Beach Gardens","FL","USA","26.8418256","-80.13590694666684","12099"
"138619","","HighSchool","2015","305","DeAndre McNeal","Poteet","Texas","ATH","74","228","4","0.8995","Mesquite","TX","USA","32.7666103","-96.599472","48113"
"138620","3929940","HighSchool","2015","306","Dwayne Lawson","Hillsborough","Virginia Tech","PRO","78","207","4","0.8993","Tampa","FL","USA","27.9477595","-82.458444","12057"
"138621","3915776","HighSchool","2015","307","Kyle Shurmur","La Salle College","Vanderbilt","PRO","76","215","4","0.8992","Glenside","PA","USA","40.1023326","-75.1521195","42091"
"138622","3693281","HighSchool","2015","308","Calvin Brewton","Miami Central","Florida State","S","71.5","172","4","0.8988","Miami","FL","USA","25.7742658","-80.1936589","12086"
"138623","-1000834","HighSchool","2015","309","Brandon Kennedy","Wetumpka","Alabama","OG","74.5","295","4","0.8987","Wetumpka","AL","USA","32.5437448","-86.2119127","01051"
"138624","3678292","HighSchool","2015","310","Sherrod Pittman","First Coast","South Carolina","OLB","72.5","224","4","0.8987","Jacksonville","FL","USA","30.3321838","-81.655651","12031"
"138625","3929922","HighSchool","2015","311","Tyrone Wheatley Jr.","Canisius","Michigan","TE","78","260","4","0.8983","Manlius","NY","USA","43.0020107","-75.9768632","36067"
"138626","","HighSchool","2015","312","Ke'Shawn Vaughn","Pearl-Cohn","Illinois","RB","70.5","210","4","0.8982","Nashville","TN","USA","36.1622296","-86.7743531","47037"
"138627","3916388","HighSchool","2015","313","Dee Smith","Florence","Louisville","OLB","74","198","4","0.8978","Florence","AL","USA","34.79981","-87.677251","01077"
"138628","3929652","HighSchool","2015","314","Brandon Polk","Briar Woods","Penn State","WR","69","163","4","0.8977","Ashburn","VA","USA","39.0437192","-77.4874899","51107"
"138629","3932443","HighSchool","2015","315","Elijah Taylor","Archbishop Moeller","Notre Dame","DT","75","285","4","0.8975","Cincinnati","OH","USA","39.1014537","-84.5124602","39061"
"138631","3728244","HighSchool","2015","316","Van Smith","Hough","Clemson","ATH","71","180","4","0.8969","Charlotte","NC","USA","35.2272","-80.843083","37119"
"138630","","HighSchool","2015","316","Trey Adams","Wenatchee","Washington","OT","79","270","4","0.8969","Wenatchee","WA","USA","47.4234599","-120.3103494","53007"
"138632","3698664","HighSchool","2015","318","Avery Anderson","Pine Creek","Nebraska","ATH","72","170","4","0.8966","Colorado Springs","CO","USA","38.8339578","-104.8253485","08041"
"138633","","HighSchool","2015","319","Gary McCrae","Randolph Clay","Georgia","OLB","76","220","4","0.8966","Cuthbert","GA","USA","31.7712748","-84.7893658","13243"
"138634","","HighSchool","2015","320","David Dowell","St. Edward","Michigan State","S","73","180","4","0.8964","Lakewood","OH","USA","41.4819932","-81.7981908","39035"
"138635","-1032966","HighSchool","2015","321","Nick Wilson","Milton","Stanford","OG","74.5","285","4","0.8962","Alpharetta","GA","USA","34.0709576","-84.2747329","13121"
"138636","-1020051","HighSchool","2015","322","Kendrell McFadden","Miramar","Miami (OH)","S","75.5","193","4","0.8949","Hollywood","FL","USA","26.0112014","-80.1494901","12011"
"138637","4362029","HighSchool","2015","323","Kai Locksley","Gilman","Texas","ATH","75","188","4","0.8947","Baltimore","MD","USA","39.2908816","-76.610759","24510"
"138638","","HighSchool","2015","324","Nick Gibson","Pinson Valley","Mississippi State","RB","71","197","4","0.8945","Pinson","AL","USA","33.706205","-86.67007895992774","01073"
"138639","","HighSchool","2015","325","Tommy Champion","Callaway","","OT","77","285","4","0.8944","Jackson","MS","USA","32.2990384","-90.1847691","28049"
"138640","","HighSchool","2015","325","Tim Lynott","Regis Jesuit","Colorado","OG","76","290","4","0.8944","Aurora","CO","USA","39.729432","-104.8319196","08005"
"138641","","HighSchool","2015","327","Josh Butler","West Mesquite","Michigan State","CB","71","175","4","0.8942","Mesquite","TX","USA","32.7666103","-96.599472","48113"
"138643","","HighSchool","2015","328","Clayton Bradley","Servite","USC","OT","78","281","4","0.8942","Anaheim","CA","USA","33.8347516","-117.911732","06059"
"138644","3932236","HighSchool","2015","328","Colin Samuel","Long Beach Poly","UCLA","CB","74.5","186","4","0.8942","Mission Hills","CA","USA","34.687584","-120.43901754304565","06083"
"138642","3843217","HighSchool","2015","328","Chandler Cox","Apopka","Auburn","FB","72.5","222","4","0.8942","Apopka","FL","USA","28.6779683","-81.5115214","12095"
"138645","3924320","HighSchool","2015","331","AJ Harris","Blue Valley","Missouri","OG","76","297","4","0.894","Stilwell","KS","USA","38.7691755","-94.6563454","20091"
"138646","3894849","HighSchool","2015","332","James Daniels","Warren G Harding","Iowa","OC","76","304","4","0.8939","Warren","OH","USA","41.237557","-80.818417","39155"
"138647","3864457","HighSchool","2015","333","Semisi Uluave","Punahou","California","OG","77","315","4","0.8936","Honolulu","HI","USA","21.304547","-157.8556764","15003"
"138648","3916923","HighSchool","2015","334","Carlton Davis","Norland","Auburn","CB","74","184","4","0.8934","Miami","FL","USA","25.7742658","-80.1936589","12086"
"138649","3676004","HighSchool","2015","335","Jay Jay Wilson","Valencia","Arizona State","ATH","75","228","4","0.8931","Valencia","CA","USA","34.1466768","-117.2725427","06071"
"138650","3886608","HighSchool","2015","336","Jon Dietzen","Seymour","Wisconsin","OT","77","345","4","0.8929","Seymour","WI","USA","44.514988","-88.3303798","55087"
"138652","3886828","HighSchool","2015","337","Isaiah Renfro","Sierra Canyon","Washington","WR","74","185","4","0.8928","Chatsworth","CA","USA","34.2595715","-118.6023247","06037"
"138651","","HighSchool","2015","337","Du'Vonta Lampkin","Cy Falls","Texas","DT","75","291","4","0.8928","Houston","TX","USA","29.7589382","-95.3676974","48201"
"138653","","HighSchool","2015","339","Jamel Dean","Cocoa","Ohio State","CB","74","195","4","0.8927","Cocoa","FL","USA","28.3553873","-80.7318827","12009"
"138654","3931394","HighSchool","2015","340","Ben Edwards","Trinity Christian Academy","Stanford","S","72","196","4","0.8927","Jacksonville","FL","USA","30.3321838","-81.655651","12031"
"138655","3917849","HighSchool","2015","341","Lawrence Cager","Calvert Hall College","Miami","WR","77","195","4","0.8926","Towson","MD","USA","39.4018552","-76.602388","24005"
"138656","3886611","HighSchool","2015","342","Kyle Penniston","Mater Dei","Wisconsin","TE","77","232","4","0.8925","Santa Ana","CA","USA","33.7494951","-117.8732213","06059"
"138657","3916417","HighSchool","2015","343","Devante Peete","St. Thomas Aquinas","Louisville","WR","77.5","195","4","0.8923","Pompano Beach","FL","USA","26.2378597","-80.1247667","12011"
"138658","3929818","HighSchool","2015","344","Andrew Dowell","St. Edward","Michigan State","RB","73","211","4","0.892","Lakewood","OH","USA","41.4819932","-81.7981908","39035"
"138659","-1001910","HighSchool","2015","345","Marshall Wallace","John Curtis","Arizona State","OLB","77","213","4","0.8919","New Orleans","LA","USA","29.9499323","-90.0701156","22071"
"138660","","HighSchool","2015","346","Carlos Davis","Blue Springs","Nebraska","SDE","74","260","4","0.8919","Blue Springs","MO","USA","39.017316","-94.282265","29095"
"138661","-1031397","HighSchool","2015","347","Taeon Mason","John Muir","San José State","CB","72","170","4","0.8917","Pasadena","CA","USA","34.1476452","-118.1444779","06037"
"138662","","HighSchool","2015","348","Kanya Bell","Long Beach Poly","San José State","WR","72","160","4","0.8915","Diamond Bar","CA","USA","34.0286226","-117.8103367","06037"
"138663","3917007","HighSchool","2015","349","Chad President","Temple","Tulsa","WR","75","195","4","0.8914","Temple","TX","USA","31.098207","-97.3427847","48027"
"138664","","HighSchool","2015","350","Steven Gonzalez","Union City","Penn State","OG","75","328","4","0.8911","Union City","NJ","USA","40.7795455","-74.0237512","34017"
"138665","3915097","HighSchool","2015","351","Antonio Callaway","Booker T. Washington","Florida","WR","71","185","4","0.8901","Miami","FL","USA","25.7742658","-80.1936589","12086"
"138667","3915416","HighSchool","2015","352","D.J. Moore","Imhotep Institute","Maryland","WR","72","180","3","0.89","Philadelphia","PA","USA","39.9527237","-75.1635262","42101"
"138666","-1038900","HighSchool","2015","352","Roy Hemsley","Windward School","USC","OT","78","280","3","0.89","Los Angeles","CA","USA","34.0536909","-118.2427666","06037"
"138668","3929856","HighSchool","2015","354","Kirk Johnson","Valley Christian","Texas","ATH","72","205","3","0.8898","San Jose","CA","USA","37.3361905","-121.8905833","06085"
"138669","-1020398","HighSchool","2015","355","Shelton Johnson","Atlantic","Michigan","SDE","77","220","3","0.8897","Delray Beach","FL","USA","26.4614625","-80.0728201","12099"
"138670","-1018739","HighSchool","2015","356","E.J. Donahue","Linganore","Maryland","OG","77","315","3","0.8895","Frederick","MD","USA","39.4142186","-77.4109269","24021"
"138672","3895792","HighSchool","2015","357","Anthony McKee","Marion-Franklin","Pittsburgh","OLB","74","190","3","0.8894","Columbus","OH","USA","39.9622601","-83.0007065","39049"
"138671","-1002220","HighSchool","2015","357","Zach Rogers","Hebron","Arkansas","OG","74","297","3","0.8894","Carrollton","TX","USA","32.9537349","-96.8902816","48113"
"138673","","HighSchool","2015","359","Brandon Martin","Prime Prep Academy","LSU","WR","76.5","200","3","0.8894","Dallas","TX","USA","32.7762719","-96.7968559","48113"
"138674","3912548","HighSchool","2015","360","Dominic Davis","Bishop Alemany","USC","RB","70","175","3","0.8893","Mission Hills","CA","USA","34.687584","-120.43901754304565","06083"
"138675","","HighSchool","2015","361","Tyriq Thompson","Martin Luther King","Michigan State","OLB","73","220","3","0.8892","Detroit","MI","USA","42.3315509","-83.0466403","26163"
"138676","3917847","HighSchool","2015","362","Kendrick Norton","Trinity Christian Academy","Miami","OG","75","305","3","0.8888","Jacksonville","FL","USA","30.3321838","-81.655651","12031"
"138677","-1021564","HighSchool","2015","363","Willie Hibbler","North Panola","Ole Miss","ATH","77","233","3","0.8887","Sardis","MS","USA","34.4370511","-89.9159227","28107"
"138678","3917322","HighSchool","2015","364","Kendall Bussey","Isidore Newman","Texas A&M","RB","68","205","3","0.8886","New Orleans","LA","USA","29.9499323","-90.0701156","22071"
"138679","3931399","HighSchool","2015","365","Justin Reid","Dutchtown","Stanford","S","72","193","3","0.8884","Geismar","LA","USA","30.2043633","-91.0226013","22005"
"138680","","HighSchool","2015","366","Jordan Cronkrite","Westminster Christian School","Florida","ATH","71","198","3","0.8884","Miami","FL","USA","25.7742658","-80.1936589","12086"
"138681","3932246","HighSchool","2015","367","Rick Wade","Santa Margarita Catholic","UCLA","SDE","78","225","3","0.8883","Rancho Santa Margarita","CA","USA","33.6408845","-117.6029341","06059"
"138682","","HighSchool","2015","368","Kieffer Longson","Dougherty Valley","BYU","OG","79","300","3","0.8878","San Ramon","CA","USA","37.7799273","-121.9780153","06013"
"138683","","HighSchool","2015","369","Tim Washington","Yazoo City","Mississippi State","OLB","75","200","3","0.8872","Yazoo City","MS","USA","32.8551326","-90.4056469","28163"
"138684","-1019645","HighSchool","2015","370","Venzell Boulware","Creekside","Tennessee","OT","76","290","3","0.8872","Union City","GA","USA","33.5870558","-84.5424299","13121"
"138685","3915167","HighSchool","2015","371","Michael Chigbu","Holy Cross","Georgia","WR","74","211","3","0.8869","New Orleans","LA","USA","29.9499323","-90.0701156","22071"
"138687","3932430","HighSchool","2015","371","Jalen Guyton","Allen","Notre Dame","WR","73","190","3","0.8869","Allen","TX","USA","33.1031744","-96.6705503","48085"
"138686","","HighSchool","2015","371","A.J. Turner","Centreville","South Carolina","RB","71","180","3","0.8869","Clifton","VA","USA","38.7802204","-77.3864722","51059"
"138688","3892693","HighSchool","2015","374","Tyler Queen","North Cobb","Auburn","PRO","74","229","3","0.8864","Kennesaw","GA","USA","34.0234337","-84.6154897","13067"
"138689","-1031967","HighSchool","2015","375","Christian Pellage","Nature Coast Tech","South Carolina","OT","79","282","3","0.8863","Brooksville","FL","USA","28.5552719","-82.3878709","12053"
"138690","-1035127","HighSchool","2015","376","Richard Moore","Cedar Hill","Texas A&M","OLB","72.5","210","3","0.8863","Cedar Hill","TX","USA","32.5888072","-96.9553675","48113"
"138691","","HighSchool","2015","377","Elijah Sullivan","Tucker","Kansas State","OLB","73","215","3","0.8861","Tucker","GA","USA","33.8532701","-84.2200729","13089"
"138692","-1023322","HighSchool","2015","377","Lavan Alston","St. Bonaventure","Nebraska","WR","72","170","3","0.8861","Ventura","CA","USA","34.3435092","-119.29560423163717","06111"
"138693","3931400","HighSchool","2015","379","Quenton Meeks","Del Norte","Stanford","CB","74","195","3","0.8861","Crescent City","CA","USA","41.8528065","-124.14986198309553","06015"
"138694","-1006246","HighSchool","2015","380","Lonny Powell","Sacramento","California","RB","73","230","3","0.8858","Sacramento","CA","USA","38.5815719","-121.4943996","06067"
"138695","","HighSchool","2015","381","Christian Folau","East","Oregon State","ILB","73","240","3","0.8858","Salt Lake City","UT","USA","40.7596198","-111.8867975","49035"
"138696","3675229","HighSchool","2015","382","Terrell Chatman","Central","Arizona State","WR","75","180","3","0.8852","Baton Rouge","LA","USA","30.4459596","-91.18738","22033"
"138697","-1043779","HighSchool","2015","383","Kevin Estes","San Marcos","Wisconsin","OT","78","275","3","0.885","San Marcos","CA","USA","33.1433723","-117.1661449","06073"
"138698","3915775","HighSchool","2015","384","Donovan Sheffield","Ensworth","Vanderbilt","CB","71","170","3","0.8846","Nashville","TN","USA","36.1622296","-86.7743531","47037"
"138699","-1027475","HighSchool","2015","385","John Humphrey","Clear Falls","Oklahoma","ATH","70","165","3","0.8844","League City","TX","USA","29.5074538","-95.0949303","48167"
"138700","-1010930","HighSchool","2015","386","De'Andre Johnson","First Coast","Florida State","DUAL","72","175","3","0.8843","Jacksonville","FL","USA","30.3321838","-81.655651","12031"
"138701","3928935","HighSchool","2015","387","Pooh Stricklin","Midway","Baylor","WR","75","180","3","0.8834","Waco","TX","USA","31.549333","-97.1466695","48309"
"138702","","HighSchool","2015","388","Tyson Smith","St. Mary's","Michigan State","CB","71","175","3","0.8833","Orchard Lake","MI","USA","42.5869558","-83.36895696372882","26125"
"138703","-1007342","HighSchool","2015","389","Noah Green","Boiling Springs","Clemson","OT","77","275","3","0.8832","Boiling Springs","SC","USA","35.04136","-81.97882024148419","45083"
"138704","3914636","HighSchool","2015","390","Tyreik Gray","Lamar","Houston","RB","71","187","3","0.883","Houston","TX","USA","29.7589382","-95.3676974","48201"
"138705","","HighSchool","2015","391","David Moorman","Northville","Wisconsin","OT","77","275","3","0.8828","Pinckney","MI","USA","42.4567013","-83.9463359","26093"
"138706","-1020746","HighSchool","2015","392","Cassius Peat","Corona del Sol","Michigan State","OLB","76","235","3","0.8823","Scottsdale","AZ","USA","33.4942189","-111.9260184","04013"
"138707","-1010887","HighSchool","2015","393","David Robbins","Glenelg","Florida State","OG","77","305","3","0.8822","Glenelg","MD","USA","39.2644382","-76.9899134","24027"
"138708","-1009713","HighSchool","2015","394","Tyler Jordan","Bishop Kenny","Florida","OC","76","280","3","0.8822","Jacksonville","FL","USA","30.3321838","-81.655651","12031"
"138709","","HighSchool","2015","395","Brian Lewerke","Pinnacle","Michigan State","PRO","75","180","3","0.8819","Phoenix","AZ","USA","33.4484367","-112.0741417","04013"
"138710","3895828","HighSchool","2015","396","Anthony Ratliff-Williams","Butler","North Carolina","DUAL","73","205","3","0.8819","Matthews","NC","USA","35.1170873","-80.723718","37119"
"138711","3886818","HighSchool","2015","396","Myles Gaskin","O'Dea","Washington","RB","69","185","3","0.8819","Seattle","WA","USA","47.6038321","-122.3300624","53033"
"138712","3916387","HighSchool","2015","398","Lamar Jackson","Boynton Beach Community","Louisville","DUAL","75","185","3","0.8819","Boynton Beach","FL","USA","26.5256179","-80.0666026","12099"
"138713","3921565","HighSchool","2015","399","A.J. Westbrook","Mainland","Florida State","S","72","173","3","0.8817","Daytona Beach","FL","USA","29.2108147","-81.0228331","12127"
"138715","","HighSchool","2015","400","Marquise Doherty","Winnetonka","","ATH","73","190","3","0.8817","Kansas City","MO","USA","39.100105","-94.5781416","29095"
"138714","","HighSchool","2015","400","Daiquan Kelly","Union City","Penn State","ATH","74","206","3","0.8817","Union City","NJ","USA","40.7795455","-74.0237512","34017"
"138716","","HighSchool","2015","402","Ugo Amadi","Overton","","CB","70","180","3","0.8815","Nashville","TN","USA","36.1622296","-86.7743531","47037"
"138717","","HighSchool","2015","403","Juwuan Briscoe","Thomas Stone","","CB","72","182","3","0.8814","Waldorf","MD","USA","38.6263882","-76.9106581","24017"
"138718","","HighSchool","2015","404","Jarrison Stewart","Horn","","WR","71","172","3","0.8814","Mesquite","TX","USA","32.7666103","-96.599472","48113"
"138719","","HighSchool","2015","405","Cameron Ordway","Giles County","","CB","72","174","3","0.8811","Pulaski","TN","USA","35.1998023","-87.0308412","47055"
"138720","","HighSchool","2015","406","Jordan Jones","Cardinal Mooney","","OLB","74","203","3","0.8811","Youngstown","OH","USA","41.1035786","-80.6520161","39099"
"138721","","HighSchool","2015","407","Bradrick Shaw","Hoover","","RB","73","205","3","0.8811","Hoover","AL","USA","33.3848933","-86.8070484","01073"
"138722","","HighSchool","2015","408","Mike Hughes","New Bern","","CB","70","170","3","0.8808","New Bern","NC","USA","35.1084931","-77.0441143","37049"
"138724","","HighSchool","2015","408","J.W. Ketchum III","Lamar","","ATH","71.5","201","3","0.8808","Houston","TX","USA","29.7589382","-95.3676974","48201"
"138723","","HighSchool","2015","408","Kelly Bryant","Wren","","DUAL","76.25","205","3","0.8808","Piedmont","SC","USA","34.7105655","-82.4576113634228","45007"
"138725","","HighSchool","2015","411","Jamile Johnson","South Oak Cliff","","S","73","194","3","0.8808","Dallas","TX","USA","32.7762719","-96.7968559","48113"
"138726","","HighSchool","2015","412","Charles Perry","Royal Palm Beach","","ATH","73","205","3","0.8806","West Palm Beach","FL","USA","26.715364","-80.0532942","12099"
"138727","","HighSchool","2015","413","Stanley Morgan","St. Augustine","","WR","72","185","3","0.8806","New Orleans","LA","USA","29.9499323","-90.0701156","22071"
"138728","","HighSchool","2015","414","Jordan Thompson","LaSalle","","DT","75","250","3","0.8804","Cincinnati","OH","USA","39.1014537","-84.5124602","39061"
"138729","","HighSchool","2015","415","Brady Aiello","Acalanes","","OT","78","265","3","0.8804","Lafayette","CA","USA","37.8857582","-122.1180201","06013"
"138733","","HighSchool","2015","416","Adrian Magee","Franklinton","","OT","77","315","3","0.8803","Franklinton","LA","USA","30.8471283","-90.153141","22117"
"138730","","HighSchool","2015","416","Jason Pellerin","Catholic - New Iberia","","DUAL","76","215","3","0.8803","New Iberia","LA","USA","30.0035365","-91.8187285","22045"
"138731","","HighSchool","2015","416","Dedrick Young","Centennial","","ATH","73","215","3","0.8803","Peoria","AZ","USA","33.5806115","-112.2372942","04013"
"138732","","HighSchool","2015","416","Mason Veal","Ardrey Kell","","OT","78","285","3","0.8803","Charlotte","NC","USA","35.2272","-80.843083","37119"
"138734","","HighSchool","2015","420","Traveon Samuel","Central","","APB","68","180","3","0.8803","Phenix City","AL","USA","32.4709761","-85.0007653","01113"
"138735","","HighSchool","2015","421","Connor Williams","Coppell","","OT","77","275","3","0.8802","Coppell","TX","USA","32.9552598","-97.0155703","48113"
"138736","","HighSchool","2015","422","Charles Omenihu","Rowlett","","WDE","77","232","3","0.88","Rowlett","TX","USA","32.9029017","-96.56388","48113"
"138737","","HighSchool","2015","422","Cecil Cherry","Victory Christian Academy","","ILB","72","230","3","0.88","Frostproof","FL","USA","27.7458626","-81.5306313","12105"
"138738","","HighSchool","2015","424","Marcus Walker","Lake Wales","","S","72.5","176","3","0.88","Lake Wales","FL","USA","27.9014133","-81.5859099","12105"
"138739","","HighSchool","2015","425","Mook Reynolds","Northern Guilford","","CB","72","175","3","0.8799","Greensboro","NC","USA","36.0726355","-79.7919754","37081"
"138740","","HighSchool","2015","426","Darryl Williams","Bessemer City","","OC","76","304","3","0.8799","Bessemer","AL","USA","33.3823635","-86.91720475","01073"
"138741","","HighSchool","2015","427","Darrin Paulo","Grant Union","","OG","79","330","3","0.8798","Sacramento","CA","USA","38.5815719","-121.4943996","06067"
"138742","","HighSchool","2015","428","Jaelan Austin","South Grand Prairie","","WR","74.5","190","3","0.8797","Grand Prairie","TX","USA","32.657368000000005","-97.02846624175038","48113"
"138743","","HighSchool","2015","429","Trevon Hill","Salem","","WDE","76","220","3","0.8797","Virginia Beach","VA","USA","36.8529841","-75.9774183","51810"
"138744","","HighSchool","2015","430","Tony Brown","La Mirada","","WR","73","175","3","0.8795","La Mirada","CA","USA","33.9060971","-118.0107092","06037"
"138746","","HighSchool","2015","431","Chris Williamson","Gainesville","","CB","73","190","3","0.8792","Gainesville","GA","USA","34.2978794","-83.8240663","13139"
"138745","","HighSchool","2015","431","Lorenzo Nunez","Harrison","","DUAL","74.5","190","3","0.8792","Kennesaw","GA","USA","34.0234337","-84.6154897","13067"
"138747","","HighSchool","2015","433","Christian Bell","Hoover","","WDE","76","240","3","0.879","Hoover","AL","USA","33.3848933","-86.8070484","01073"
"138748","","HighSchool","2015","434","Sam Madden","Barnegat","","OT","79","345","3","0.879","Barnegat","NJ","USA","39.755746200000004","-74.22071740889322","34029"
"138749","","HighSchool","2015","435","Jaylon Lane","Nacogdoches","","CB","73","177","3","0.879","Nacogdoches","TX","USA","31.6035129","-94.6554874","48347"
"138750","","HighSchool","2015","436","Tremaine Edmunds","Dan River","","OLB","76","220","3","0.8789","Ringgold","VA","USA","36.608194","-79.2952978","51143"
"138752","","HighSchool","2015","437","Johnathon Sutton","Swansea","","OLB","72","215","3","0.8789","Swansea","SC","USA","33.7382088","-81.0978734","45063"
"138751","","HighSchool","2015","437","Chico McClatcher","Federal Way","","APB","68","165","3","0.8789","Federal Way","WA","USA","47.313494","-122.3393103","53033"
"138753","","HighSchool","2015","439","Duke Shelley","Tucker","","CB","68","165","3","0.8787","Tucker","GA","USA","33.8532701","-84.2200729","13089"
"138754","","HighSchool","2015","440","Kameron Powell","Upland","","S","71","175","3","0.8786","Upland","CA","USA","34.09751","-117.6483876","06071"
"138755","","HighSchool","2015","440","Semaj Thomas","Southwest","","ILB","72","231","3","0.8786","Fort Worth","TX","USA","32.753177","-97.3327459","48439"
"138756","","HighSchool","2015","442","Prentice McKinney","South Oak Cliff","","S","74","180","3","0.8783","Dallas","TX","USA","32.7762719","-96.7968559","48113"
"138757","","HighSchool","2015","442","Scott Patchan","IMG Academy","","SDE","77","237","3","0.8783","Tampa","FL","USA","27.9477595","-82.458444","12057"
"138758","","HighSchool","2015","444","Christian Rector","Loyola","","WDE","75.5","255","3","0.8783","Los Angeles","CA","USA","34.0536909","-118.2427666","06037"
"138759","","HighSchool","2015","445","Sage Hardin","Marist School","","OT","79","276","3","0.8782","Atlanta","GA","USA","33.7490987","-84.3901849","13121"
"138760","","HighSchool","2015","446","Landan Paulsen","Woodbury Central","","OG","77","285","3","0.8781","Moville","IA","USA","42.488796","-96.07243","19193"
"138761","","HighSchool","2015","447","George Asafo-Adjei","Lakota West","","OT","76","295","3","0.8779","West Chester","OH","USA","39.3303357","-84.408275","39017"
"138762","","HighSchool","2015","448","Markel Smith","Milford Academy","","RB","71","220","3","0.8778","St. Louis","MO","USA","38.6268039","-90.1994097","29510"
"138763","","HighSchool","2015","449","Cody Creason","Folsom","","OG","76","285","3","0.8778","Folsom","CA","USA","38.6779591","-121.1760583","06067"
"138764","","HighSchool","2015","449","Noah Listermann","Winton Woods","","OT","79","293","3","0.8778","Cincinnati","OH","USA","39.1014537","-84.5124602","39061"
"138765","","HighSchool","2015","449","Kingsley KeKe","George Ranch","Texas A&M","DT","75","290","3","0.8778","Rosenberg","TX","USA","29.5571825","-95.8085623","48157"
"138766","","HighSchool","2015","452","Bailey Sharp","Sprayberry","Auburn","OT","77","280","3","0.8777","Marietta","GA","USA","33.9528472","-84.5496148","13067"
"138767","","HighSchool","2015","453","Kevin Henry","Central","Oklahoma State","S","73","205","3","0.8777","Baton Rouge","LA","USA","30.4459596","-91.18738","22033"
"138770","","HighSchool","2015","454","Levi Paulsen","Woodbury Central","Iowa","OT","77","285","3","0.8772","Moville","IA","USA","42.488796","-96.07243","19193"
"138768","3919595","HighSchool","2015","454","Kenneth Edison-McGruder","Alief Taylor","Oklahoma State","S","74","203","3","0.8772","Houston","TX","USA","29.7589382","-95.3676974","48201"
"138769","","HighSchool","2015","454","James Morgan","Ashwaubenon","Bowling Green","PRO","76","205","3","0.8772","Green Bay","WI","USA","44.5126379","-88.0125794","55009"
"138772","","HighSchool","2015","457","Amonte Caban","Smiths Station","Louisville","ILB","74","210","3","0.8769","Smiths Station","AL","USA","32.5401394","-85.0985474","01081"
"138771","","HighSchool","2015","457","Dre Brown","De Kalb","Illinois","RB","72","195","3","0.8769","Dekalb","IL","USA","40.8925566","-82.7726802","39033"
"138773","-1033965","HighSchool","2015","459","T.J. Simmons","Lakeland Christian School","Temple","RB","71.5","195","3","0.8768","Lakeland","FL","USA","28.0394654","-81.9498042","12105"
"138774","3701017","HighSchool","2015","460","Reggie Gallaspy","Southern Guilford","NC State","RB","71","205","3","0.8767","Greensboro","NC","USA","36.0726355","-79.7919754","37081"
"138775","","HighSchool","2015","461","TD Moton","Woodlawn","Texas A&M","DT","74.5","310","3","0.8763","Shreveport","LA","USA","32.5221828","-93.7651944","22017"
"138777","-1007351","HighSchool","2015","462","Kaleb Chalmers","Greenwood","Clemson","CB","71","171","3","0.8761","Greenwood","SC","USA","34.1954001","-82.1617883","45047"
"138776","3916451","HighSchool","2015","462","Dontae Strickland","South Brunswick","Syracuse","ATH","71","180","3","0.8761","Monmouth Junction","NJ","USA","40.3789957","-74.5465436","34023"
"138780","3924369","HighSchool","2015","464","D.J. Neal","Stephenson","South Carolina","WR","76","200","3","0.8758","Stone Mountain","GA","USA","33.8080924","-84.1706273","13089"
"138779","3921572","HighSchool","2015","464","Jalen Wilkerson","Coffee","Florida State","TE","76","227","3","0.8758","Douglas","GA","USA","31.5088073","-82.8498654","13069"
"138783","","HighSchool","2015","464","Khalil Davis","Blue Springs","Nebraska","DT","74","260","3","0.8758","Blue Springs","MO","USA","39.017316","-94.282265","29095"
"138782","-1007036","HighSchool","2015","464","Grant Schmidt","Roosevelt - 03","Ohio State","OT","78","275","3","0.8758","Sioux Falls","SD","USA","43.5499749","-96.700327","46099"
"138781","-1032041","HighSchool","2015","464","Christian Owens","Griffin","South Carolina","WR","77","207","3","0.8758","Griffin","GA","USA","33.2467807","-84.2640904","13255"
"138778","3895826","HighSchool","2015","464","Juval Mollette","Randleman","North Carolina","WR","76","187","3","0.8758","Randleman","NC","USA","35.8179143","-79.8030873","37151"
"138784","-1004018","HighSchool","2015","470","Dayan Lake","Northridge","BYU","CB","70","185","3","0.8756","Layton","UT","USA","41.0751048","-111.9741925","49011"
"138785","","HighSchool","2015","470","Aaron Crawford","Stone Bridge","North Carolina","DT","73","311","3","0.8756","Ashburn","VA","USA","39.0437192","-77.4874899","51107"
"138786","3932450","HighSchool","2015","472","Mykelti Williams","Warren Central","Notre Dame","S","72","198","3","0.8755","Indianapolis","IN","USA","39.7683331","-86.1583502","18097"
"138788","","HighSchool","2015","473","Shadell Bell","Columbia","Clemson","WR","75","190","3","0.8753","Decatur","GA","USA","33.7737582","-84.296069","13089"
"138789","","HighSchool","2015","473","Paul Lucas","Mountain Pointe","Oregon State","APB","70","165","3","0.8753","Phoenix","AZ","USA","33.4484367","-112.0741417","04013"
"138787","3917320","HighSchool","2015","473","Deshawn Capers-Smith","Warren Easton","Texas A&M","ATH","71.5","173","3","0.8753","New Orleans","LA","USA","29.9499323","-90.0701156","22071"
"138790","-1016536","HighSchool","2015","476","George Brown","Winton Woods","LSU","OT","78","290","3","0.8751","Cincinnati","OH","USA","39.1014537","-84.5124602","39061"
"138791","3864450","HighSchool","2015","477","Russell Ude","Westminster School","California","SDE","75","252","3","0.875","Atlanta","GA","USA","33.7490987","-84.3901849","13121"
"138792","-1027826","HighSchool","2015","478","Louis Brown","Burton","Oklahoma State","ATH","77","215","3","0.875","Burton","TX","USA","30.1821602","-96.5955277","48477"
"138794","3699698","HighSchool","2015","479","Christian Gaylord","Baldwin","Nebraska","OT","78","275","3","0.8744","Baldwin City","KS","USA","38.775007","-95.1863603","20045"
"138793","3929927","HighSchool","2015","479","Karan Higdon","Riverview","Michigan","RB","70","190","3","0.8744","Sarasota","FL","USA","27.3364347","-82.5306527","12115"
"138796","","HighSchool","2015","479","Robert Landers","Wayne","Ohio State","DT","74","295","3","0.8744","Dayton","OH","USA","39.7589478","-84.1916069","39113"
"138795","","HighSchool","2015","479","Rasool Clemons","South Aiken","Ole Miss","WDE","78","212","3","0.8744","Aiken","SC","USA","33.5598586","-81.721952","45003"
"138797","3929817","HighSchool","2015","483","Felton Davis III","Highland Springs","Michigan State","WR","75","175","3","0.8744","Highland Springs","VA","USA","37.5460121","-77.3278441","51087"
"138802","3930071","HighSchool","2015","484","Montrell Custis","Lovejoy","Ole Miss","CB","72","175","3","0.8742","Hampton","GA","USA","33.3870578","-84.2829784","13151"
"138803","3912551","HighSchool","2015","484","Aca'Cedric Ware","Cedar Hill","USC","RB","72","196","3","0.8742","Cedar Hill","TX","USA","32.5888072","-96.9553675","48113"
"138798","-1042766","HighSchool","2015","484","David Sills V","Eastern Christian","West Virginia","PRO","75","180","3","0.8742","Elkton","MD","USA","39.6065073","-75.8330934","24015"
"138801","3929949","HighSchool","2015","484","Darius Fullwood","Our Lady of Good Counsel","Virginia Tech","WDE","76","240","3","0.8742","Olney","MD","USA","39.1532123","-77.0668408","24031"
"138799","","HighSchool","2015","484","Kareem Ali","Timber Creek","Temple","CB","70","165","3","0.8742","Sicklerville","NJ","USA","39.7173375","-74.9693329","34007"
"138800","","HighSchool","2015","484","Deshawn McClease","Oscar Smith","Virginia Tech","RB","69","175","3","0.8742","Chesapeake","VA","USA","36.7183708","-76.2466798","51550"
"138804","-1016530","HighSchool","2015","490","Isaiah Washington","Edna Karr","LSU","WDE","76","240","3","0.8739","New Orleans","LA","USA","29.9499323","-90.0701156","22071"
"138805","","HighSchool","2015","491","Trevor Ruhland","Cary-Grove Community","Notre Dame","OG","76","270","3","0.8738","Cary","IL","USA","42.2119684","-88.2381381","17111"
"138806","-1033522","HighSchool","2015","492","Sam Awolope","Fort Bend Marshall","TCU","OT","77","270","3","0.8737","Missouri City","TX","USA","29.6185669","-95.5377215","48157"
"138807","4571882","HighSchool","2015","493","Matt Jones","Hubbard","West Virginia","OT","76","290","3","0.8736","Hubbard","OH","USA","41.156446","-80.569239","39155"
"138809","3925326","HighSchool","2015","494","Quay Picou","Buford","Tennessee","DT","74","275","3","0.8736","Buford","GA","USA","34.1206564","-84.0043513","13135"
"138808","","HighSchool","2015","494","Deddrick Thomas","Memphis Central","Mississippi State","ATH","69","170","3","0.8736","Memphis","TN","USA","35.1490215","-90.0516285","47157"
"138810","","HighSchool","2015","494","Shane Lemieux","West Valley","Oregon","OG","77.5","310","3","0.8736","Yakima","WA","USA","46.601557","-120.5108421","53077"
"138812","","HighSchool","2015","497","Jason Strowbridge","Deerfield Beach","North Carolina","SDE","76","247","3","0.8733","Deerfield Beach","FL","USA","26.318342","-80.0996306","12011"
"138811","3916087","HighSchool","2015","497","Stone Wolfley","Morgantown","West Virginia","SDE","76","235","3","0.8733","Morgantown","WV","USA","39.6296809","-79.9559437","54061"
"138813","","HighSchool","2015","499","Justin Tranquill","Carroll","Western Michigan","S","71","195","3","0.8731","Fort Wayne","IN","USA","41.0799898","-85.1386015","18003"
"138817","3916942","HighSchool","2015","500","Jauntavius Johnson","Lincoln Sch","Auburn","DT","74.25","330","3","0.8728","Lincoln","AL","USA","33.6131588","-86.1183061","01121"
"138814","","HighSchool","2015","500","Gabriel Campbell","Yazoo City","","SDE","78","250","3","0.8728","Yazoo City","MS","USA","32.8551326","-90.4056469","28163"
"138815","","HighSchool","2015","500","Chason Virgil","West Mesquite","","PRO","74","170","3","0.8728","Mesquite","TX","USA","32.7666103","-96.599472","48113"
"138818","","HighSchool","2015","500","Ross Trail","Wynne","","PRO","75","200","3","0.8728","Wynne","AR","USA","35.224533","-90.7867798","05037"
"138816","3917832","HighSchool","2015","500","Christian Philpott","North Florida Christian","Georgia Tech","WR","75","203","3","0.8728","Tallahassee","FL","USA","30.4380832","-84.2809332","12073"
"138819","","HighSchool","2015","506","Kevin Feder","Don Bosco Prep","","OT","81","305","3","0.8727","Ramsey","NJ","USA","41.0573188","-74.1409771","34003"
"138820","","HighSchool","2015","507","DJ Beavers","Crespi","","OLB","72.5","200","3","0.8725","Encino","CA","USA","34.1591324","-118.5016166","06037"
"138822","","HighSchool","2015","508","A.J. Alexander","Lake Braddock","","TE","76","220","3","0.8722","Burke","VA","USA","38.7771321","-77.2754691","51059"
"138823","","HighSchool","2015","508","Buck Major","Huntsville","","OT","78","290","3","0.8722","Huntsville","TX","USA","30.7235263","-95.5507771","48471"
"138821","","HighSchool","2015","508","Brian Chaffin","Charlotte Christian","","OC","74","280","3","0.8722","Charlotte","NC","USA","35.2272","-80.843083","37119"
"138824","","HighSchool","2015","511","Rashard Causey","St. Thomas Aquinas","","CB","72","185","3","0.8722","Fort Lauderdale","FL","USA","26.1223084","-80.1433786","12011"
"138825","","HighSchool","2015","512","Joshua Norwood","Valdosta","","CB","70","175","3","0.8722","Valdosta","GA","USA","30.8327022","-83.2784851","13185"
"138826","","HighSchool","2015","513","Jalen Bates","Kaplan","","WDE","76","240","3","0.8719","Kaplan","LA","USA","29.997984","-92.2848515","22113"
"138827","","HighSchool","2015","514","Arthur McGinnis","Warren Easton","","OLB","74","226","3","0.8717","New Orleans","LA","USA","29.9499323","-90.0701156","22071"
"138828","","HighSchool","2015","514","CJ Stalker","Lakota West","","ILB","75","226","3","0.8717","West Chester","OH","USA","39.3303357","-84.408275","39017"
"138829","","HighSchool","2015","514","Marquise Blair","Wooster","","S","75","180","3","0.8717","Wooster","OH","USA","40.7991766","-81.9383187","39169"
"138830","","HighSchool","2015","517","Jake Cooper","Archbishop Wood","","ILB","73","220","3","0.8714","Warminster","PA","USA","40.2067751","-75.0996159","42017"
"138831","","HighSchool","2015","518","James Allen","North Marion","","RB","70","180","3","0.8714","Citra","FL","USA","29.4119166","-82.1098156","12083"
"138834","","HighSchool","2015","519","Nate Meadors","San Gorgonio","","ATH","73","194","3","0.8711","San Bernardino","CA","USA","34.1083449","-117.2897652","06071"
"138835","","HighSchool","2015","519","Shareef Miller","George Washington","","SDE","77","230","3","0.8711","Philadelphia","PA","USA","39.9527237","-75.1635262","42101"
"138832","","HighSchool","2015","519","Jabari Greenwood","Gonzaga","","WR","76","193","3","0.8711","Washington","DC","USA","38.8949855","-77.0365708","11001"
"138833","","HighSchool","2015","519","Andre Smith","Trinity Christian Academy","","ILB","72","230","3","0.8711","Jacksonville","FL","USA","30.3321838","-81.655651","12031"
"138836","","HighSchool","2015","523","Kyle Kearns","Foothill","","PRO","75","195","3","0.8708","Pleasanton","CA","USA","37.6624312","-121.8746789","06001"
"138837","","HighSchool","2015","523","Tavares Martin Jr.","Dwyer","","WR","73","160","3","0.8708","Lake Worth","FL","USA","26.615891","-80.0691435","12099"
"138838","","HighSchool","2015","525","Sterling Johnson","Cleveland","","DT","77","281","3","0.8708","Clayton","NC","USA","35.650711","-78.4563914","37101"
"138839","","HighSchool","2015","526","Jonathan Holland","The Bullis School","","WDE","76","240","3","0.8707","Potomac","MD","USA","39.017936","-77.2094542","24031"
"138840","","HighSchool","2015","527","Tristian Houston","North Shore","","RB","71","195","3","0.8706","Houston","TX","USA","29.7589382","-95.3676974","48201"
"138841","","HighSchool","2015","528","Dionte Austin","Calvert Hall College","","CB","72","150","3","0.8706","Towson","MD","USA","39.4018552","-76.602388","24005"
"138842","","HighSchool","2015","529","Deontai Williams","Trinity Christian Academy","","S","72","175","3","0.8705","Jacksonville","FL","USA","30.3321838","-81.655651","12031"
"138844","","HighSchool","2015","530","Shaquery Wilson","Coral Gables","","ATH","75","190","3","0.8703","Miami","FL","USA","25.7742658","-80.1936589","12086"
"138843","","HighSchool","2015","530","Keke Coutee","Lufkin","","ATH","70","185","3","0.8703","Lufkin","TX","USA","31.3386242","-94.7288558","48005"
"138849","","HighSchool","2015","530","James Proche","DeSoto","","WR","72","185","3","0.8703","DeSoto","TX","USA","32.6061241","-96.865612653687","48113"
"138848","","HighSchool","2015","530","Cole Minshew","Coffee","","OG","76","350","3","0.8703","Douglas","GA","USA","31.5088073","-82.8498654","13069"
"138847","","HighSchool","2015","530","Anree Saint-Amour","North Gwinnett","","WDE","75","225","3","0.8703","Suwanee","GA","USA","34.0514898","-84.0712997","13135"
"138846","","HighSchool","2015","530","Calvin Throckmorton","Newport","","OT","77","268","3","0.8703","Bellevue","WA","USA","47.6144219","-122.1923372","53033"
"138845","","HighSchool","2015","530","TJ Rahming","McEachern","","WR","69","155","3","0.8703","Powder Springs","GA","USA","33.8595492","-84.683824","13067"
"138851","","HighSchool","2015","537","Justin Bailey","Mayflower","","RB","71","198","3","0.87","Mayflower","AR","USA","34.9570325","-92.4273785","05045"
"138850","","HighSchool","2015","537","Cody Ford","Pineville","","OT","76","314","3","0.87","Pineville","LA","USA","31.3224044","-92.4343035","21013"
"138852","","HighSchool","2015","539","Chris Stamps","Warren Central","","CB","73","170","3","0.8698","Vicksburg","MS","USA","32.3528418","-90.8777342","28149"
"138855","","HighSchool","2015","540","Branden Bowen","Corner Canyon","","OT","79","330","3","0.8697","Draper","UT","USA","40.5246711","-111.8638226","49035"
"138854","","HighSchool","2015","540","Alex Givens","Nashville Christian School","","OT","78","300","3","0.8697","Nashville","TN","USA","36.1622296","-86.7743531","47037"
"138853","","HighSchool","2015","540","Austin Kafentzis","Jordan","","DUAL","73","200","3","0.8697","Sandy","UT","USA","40.5664878","-111.838904","49035"
"138856","","HighSchool","2015","543","Sidney Gopre","Milford Academy","","OLB","72","210","3","0.8696","Newark","NJ","USA","40.735657","-74.1723667","34013"
"138860","","HighSchool","2015","544","Brandon Tiassum","Park Tudor","","DT","77","285","3","0.8694","Indianapolis","IN","USA","39.7683331","-86.1583502","18097"
"138859","","HighSchool","2015","544","John Kelly Jr.","Oak Park","","ATH","70","208","3","0.8694","Oak Park","MI","USA","42.4595317","-83.1821445","17031"
"138858","","HighSchool","2015","544","Tyler Green","DeMatha Catholic","","S","75","195","3","0.8694","Hyattsville","MD","USA","38.9529442","-76.9408647","24033"
"138857","","HighSchool","2015","544","Breylin Mitchell","Round Rock","","SDE","75","253","3","0.8694","Round Rock","TX","USA","30.508235","-97.6788934","48491"
"138861","","HighSchool","2015","548","Jalen Julius","West Orange","","CB","70.5","170","3","0.8686","Winter Garden","FL","USA","28.5656649","-81.5856742","12095"
"138864","","HighSchool","2015","549","Joshua Alabi","Cass Technical","","SDE","77","295","3","0.8686","Detroit","MI","USA","42.3315509","-83.0466403","26163"
"138867","","HighSchool","2015","549","Dahu Green","Westmoore","","WR","76","205","3","0.8686","Oklahoma City","OK","USA","35.4729886","-97.5170536","40109"
"138866","","HighSchool","2015","549","Landis Durham","Plano East","","OLB","74","232","3","0.8686","Plano","TX","USA","33.0136764","-96.6925096","48085"
"138865","","HighSchool","2015","549","Jay Stocker","Coatesville Area","","S","74","192","3","0.8686","Coatesville","PA","USA","39.9831616","-75.8238355","42029"
"138863","","HighSchool","2015","549","Micah Dew-Treadway","Bolingbrook","","SDE","77","275","3","0.8686","Bolingbrook","IL","USA","41.7003302","-88.0717708","17197"
"138862","","HighSchool","2015","549","Rawleigh Williams III","Bishop Lynch","","RB","70.5","195","3","0.8686","Dallas","TX","USA","32.7762719","-96.7968559","48113"
"138868","","HighSchool","2015","557","Victor Alexander","Trinity Christian Academy","","ILB","70","221","3","0.8681","Jacksonville","FL","USA","30.3321838","-81.655651","12031"
"138869","","HighSchool","2015","557","Brian Bell","Lowndes","","OLB","74","218","3","0.8681","Valdosta","GA","USA","30.8327022","-83.2784851","13185"
"138870","","HighSchool","2015","557","Antoine Stephens","Kimball","","CB","73","187","3","0.8681","Dallas","TX","USA","32.7762719","-96.7968559","48113"
"138871","","HighSchool","2015","560","Morie Evans","Huntsville","","ATH","70","175","3","0.8678","Huntsville","TX","USA","30.7235263","-95.5507771","48471"
"138872","","HighSchool","2015","560","Bryce Perkins","Chandler","","DUAL","74","200","3","0.8678","Chandler","AZ","USA","33.3062223","-111.8413317","04013"
"138874","","HighSchool","2015","560","Mason Walter","Chaparral","","OT","78","265","3","0.8678","Temecula","CA","USA","33.4946353","-117.1473661","06065"
"138873","","HighSchool","2015","560","Christian Campbell","Ponchatoula","","ATH","73","185","3","0.8678","Ponchatoula","LA","USA","30.4388041","-90.4414762","22105"
"138875","","HighSchool","2015","560","Fotu Leiato","Steilacoom","","ILB","72","200","3","0.8678","Steilacoom","WA","USA","47.1703692","-122.5962874","53053"
"138876","","HighSchool","2015","565","Austin Cantrell","Roland","","TE","76.5","249","3","0.8677","Roland","OK","USA","35.4212021","-94.5146616","40135"
"138878","","HighSchool","2015","566","Jahque Alleyne","Ocean Lakes","","S","73","180","3","0.8675","Virginia Beach","VA","USA","36.8529841","-75.9774183","51810"
"138877","","HighSchool","2015","566","Zach Stewart","Coalfield School","","OT","76","315","3","0.8675","Coalfield","TN","USA","36.0289661","-84.4207643","47129"
"138879","","HighSchool","2015","566","Malik Psalms","Ruben S. Ayala","","CB","73","175","3","0.8675","Chino","CA","USA","34.0133561","-117.690075","06071"
"138880","","HighSchool","2015","569","Bowman Archibald","Pasco","","TE","77","244","3","0.8673","Dade City","FL","USA","28.3647248","-82.1959178","12101"
"138881","","HighSchool","2015","570","Garrett Thomas","Many","","OG","77.5","306","3","0.8672","Many","LA","USA","31.5687848","-93.4840645","22085"
"138890","","HighSchool","2015","571","Dion Ray","Helen Cox","","DUAL","72","185","3","0.8669","Harvey","LA","USA","29.9035387","-90.0772944","17031"
"138891","","HighSchool","2015","571","Flynn Nagel","Lemont","","WR","71","190","3","0.8669","Chicago","IL","USA","41.8755616","-87.6244212","17031"
"138892","","HighSchool","2015","571","Cole Smith","Mission Viejo","","OC","75","270","3","0.8669","Mission Viejo","CA","USA","33.5965685","-117.659405","06059"
"138887","","HighSchool","2015","571","Daniel Fennell","Grayson","","ILB","75","210","3","0.8669","Loganville","GA","USA","33.8389977","-83.9007382","13297"
"138885","","HighSchool","2015","571","Maurice Smitherman","Minor","","CB","69","178","3","0.8669","Adamsville","AL","USA","33.6009389","-86.9561059","01073"
"138884","","HighSchool","2015","571","Dontea Jones","Louisville","","WR","76","250","3","0.8669","Louisville","MS","USA","33.1237377","-89.0550624","28159"
"138883","","HighSchool","2015","571","Rob Dowdy","Westerville South","","OG","78","280","3","0.8669","Westerville","OH","USA","40.126139","-82.9295287","39049"
"138882","","HighSchool","2015","571","Rocky Reid","Concord","","RB","72","220","3","0.8669","Concord","NC","USA","35.4093772","-80.5797416","37025"
"138889","","HighSchool","2015","571","Joe Gaziano","Xaverian Brothers","","SDE","76","242","3","0.8669","Westwood","MA","USA","42.2139873","-71.2244987","25021"
"138886","","HighSchool","2015","571","Jordan Adams","Franklin","","ATH","72","170","3","0.8669","Reisterstown","MD","USA","39.4695489","-76.8294213","24005"
"138888","","HighSchool","2015","571","A.J. Gray","Washington County","","S","73","196","3","0.8669","Sandersville","GA","USA","32.9832812","-82.8116031","13303"
"138893","","HighSchool","2015","582","Terry Patterson","Middle Creek","","DT","75","282","3","0.8667","Apex","NC","USA","35.7325352","-78.8505516","37183"
"138894","","HighSchool","2015","582","Joseph Bussireth","Abraham Lincoln","","OG","75","285","3","0.8667","Brooklyn","NY","USA","40.6501038","-73.9495823","36047"
"138895","","HighSchool","2015","584","Michael Jackson","Spain Park","","CB","74","190","3","0.8667","Birmingham","AL","USA","33.5206824","-86.8024326","01073"
"138896","","HighSchool","2015","585","Tony James","Bowie","","ATH","69.5","151","3","0.8664","Arlington","TX","USA","32.701938999999996","-97.10562379033699","48439"
"138897","","HighSchool","2015","585","Ayron Monroe","St. John's College","","S","72","195","3","0.8664","Washington","DC","USA","38.8949855","-77.0365708","11001"
"138898","","HighSchool","2015","585","Darrion Flowers","Sam Houston","","WR","69","158","3","0.8664","Arlington","TX","USA","32.701938999999996","-97.10562379033699","48439"
"138901","","HighSchool","2015","588","Vaimoe Sekona","Crespi","","DT","76","285","3","0.8661","Encino","CA","USA","34.1591324","-118.5016166","06037"
"138899","","HighSchool","2015","588","Kei Beckham","Trotwood-Madison","","CB","72","173","3","0.8661","DAYTON","OH","USA","39.7589478","-84.1916069","39113"
"138900","","HighSchool","2015","588","Hunter Dale","John Curtis","","S","71","195","3","0.8661","New Orleans","LA","USA","29.9499323","-90.0701156","22071"
"138902","","HighSchool","2015","588","Keaton Anderson","Florence","","OLB","73","215","3","0.8661","Florence","AL","USA","34.79981","-87.677251","01077"
