"Id","AthleteId","RecruitType","Year","Ranking","Name","School","CommittedTo","Position","Height","Weight","Stars","Rating","City","StateProvince","Country","HometownInfo Latitude","HometownInfo Longitude","HometownInfo FipsCode"
"106192","5141741","HighSchool","2025","1","Bryce Underwood","Belleville","Michigan","QB","75.5","205","5","0.9998","Belleville","MI","USA","42.2048414","-83.4852106","17163"
"106193","5141629","HighSchool","2025","2","Keelon Russell","Duncanville","Alabama","QB","75","175","5","0.9997","Duncanville","TX","USA","32.6518004","-96.9083366","48113"
"106194","5141464","HighSchool","2025","3","Elijah Griffin","Savannah Christian Prep","Georgia","DL","77","300","5","0.9992","Savannah","GA","USA","32.0809263","-81.0911768","13051"
"106195","5141586","HighSchool","2025","4","Dakorien Moore","Duncanville","Oregon","WR","71","182","5","0.9981","Duncanville","TX","USA","32.6518004","-96.9083366","48113"
"106196","5141430","HighSchool","2025","5","Michael Fasusi","Lewisville","Oklahoma","OT","77","295","5","0.9977","Lewisville","TX","USA","33.046233","-96.994174","48121"
"106197","5141662","HighSchool","2025","6","David Sanders Jr.","Providence Day School","Tennessee","OT","78","290","5","0.9973","Charlotte","NC","USA","35.2272","-80.843083","37119"
"106198","5146824","HighSchool","2025","7","Tavien St. Clair","Bellefontaine","Ohio State","QB","76","225","5","0.9968","Bellefontaine","OH","USA","40.3611643","-83.7596557","39091"
"106199","5141635","HighSchool","2025","8","Devin Sanchez","North Shore","Ohio State","CB","74","180","5","0.9965","Houston","TX","USA","29.7589382","-95.3676974","48201"
"106200","5142611","HighSchool","2025","9","Isaiah Gibson","Warner Robins","Georgia","EDGE","75.5","270","5","0.9962","Warner Robins","GA","USA","32.6200973","-83.606568","13153"
"106201","5141717","HighSchool","2025","10","Jonah Williams","Ball","Texas","S","75","203","5","0.9962","Galveston","TX","USA","29.299328","-94.7945882","48167"
"106202","5141632","HighSchool","2025","11","DJ Pickett","Zephyrhills","LSU","CB","76","178","5","0.9943","Tampa","FL","USA","27.9477595","-82.458444","12057"
"106203","5141732","HighSchool","2025","12","Justus Terry","Manchester","Texas","DL","77","290","5","0.9939","Manchester","GA","USA","32.8598538","-84.6199251","13199"
"106204","","HighSchool","2025","13","Na'eem Offord","Parker","Oregon","CB","73","185","5","0.9936","Birmingham","AL","USA","33.5206824","-86.8024326","01073"
"106205","5141562","HighSchool","2025","14","Dijon Lee Jr.","Mission Viejo","Alabama","CB","76","190","5","0.9926","Mission Viejo","CA","USA","33.5965685","-117.659405","06059"
"106206","5122231","HighSchool","2025","15","Harlem Berry","St Martin's Episcopal School","LSU","RB","71","175","5","0.9919","Metairie","LA","USA","30.001852","-90.1767149159888","22051"
"106207","5142589","HighSchool","2025","16","Andrew Babalola","Blue Valley Northwest","Michigan","OT","78","290","5","0.9914","Overland Park","KS","USA","38.9742502","-94.6851702","20091"
"106208","5164635","HighSchool","2025","17","Michael Carroll","IMG Academy","Alabama","IOL","78","315","5","0.9909","Bradenton","FL","USA","27.4989278","-82.5748194","12081"
"106209","5141524","HighSchool","2025","18","Kaliq Lockett","Sachse","Texas","WR","74","175","5","0.9908","Sachse","TX","USA","32.9762327","-96.5952703","48113"
"106210","5148650","HighSchool","2025","19","Jerome Myles","Corner Canyon","Texas A&M","WR","75","215","5","0.9884","Draper","UT","USA","40.5246711","-111.8638226","49035"
"106211","5141671","HighSchool","2025","20","Talyn Taylor","Geneva Community","Georgia","WR","73","173","5","0.9877","Geneva","IL","USA","41.8875281","-88.3053525","17089"
"106212","5293823","HighSchool","2025","21","Lance Jackson","Pleasant Grove","Texas","EDGE","77","260","5","0.9875","Texarkana","TX","USA","33.44628645","-94.07638067493534","48037"
"106213","5141349","HighSchool","2025","22","Amare Adams","South Florence","Clemson","DL","76","315","5","0.9874","Florence","SC","USA","34.1984435","-79.7671658","45041"
"106214","5141613","HighSchool","2025","23","Quincy Porter","Bergen Catholic","Ohio State","WR","75","200","5","0.9873","Oradell","NJ","USA","40.9543943","-74.0308504","34003"
"106215","5141739","HighSchool","2025","24","Zayden Walker","Schley County","Georgia","LB","73.5","225","5","0.9871","Ellaville","GA","USA","32.2382139","-84.3090798","13249"
"106216","5141563","HighSchool","2025","25","Husan Longstreet","Centennial","USC","QB","73.5","195","5","0.9868","Corona","CA","USA","33.8752945","-117.5664449","06065"
"106217","5164640","HighSchool","2025","26","Will Black","Choate Rosemary Hall","Notre Dame","OT","79","295","5","0.9867","Wallingford","CT","USA","41.4570418","-72.8231552","09009"
"106218","5166881","HighSchool","2025","27","Kade Phillips","Hightower","Texas","CB","72.5","185","5","0.9864","Missouri City","TX","USA","29.6185669","-95.5377215","48157"
"106219","5141506","HighSchool","2025","28","Deuce Knight","George County","Auburn","QB","76.5","206","5","0.9862","Lucedale","MS","USA","30.9251869","-88.5900235","28039"
"106220","5141756","HighSchool","2025","29","Elyiss Williams","Camden County","Georgia","TE","79","235","5","0.9854","Kingsland","GA","USA","30.7999563","-81.6898261","13039"
"106221","5295811","HighSchool","2025","30","Vernell Brown III","Jones","Florida","WR","71","170","5","0.9852","Orlando","FL","USA","28.5421109","-81.3790304","12095"
"106222","","HighSchool","2025","31","Trey McNutt","Shaker Heights","Oregon","S","72","180","5","0.9843","Cleveland","OH","USA","41.5051613","-81.6934446","39035"
"106223","5224178","HighSchool","2025","32","Caleb Cunningham","Choctaw County","Ole Miss","WR","73","190","5","0.984","Ackerman","MS","USA","33.3101243","-89.1728434","28019"
"106224","5141399","HighSchool","2025","33","Isaiah Campbell","Southern","Tennessee","DL","76","280","4","0.9832","Durham","NC","USA","35.996653","-78.9018053","37063"
"106225","5159077","HighSchool","2025","34","Jahkeem Stewart","Edna Karr","USC","DL","78","270","4","0.9829","New Orleans","LA","USA","29.9499323","-90.0701156","22071"
"106226","5141723","HighSchool","2025","35","Dallas Wilson","Tampa Bay Tech","Florida","WR","75","195","4","0.9827","Tampa","FL","USA","27.9477595","-82.458444","12057"
"106227","5141425","HighSchool","2025","36","Iose Epenesa","Edwardsville","Iowa","DL","76","270","4","0.9822","Edwardsville","IL","USA","38.8114364","-89.953157","17119"
"106228","5164346","HighSchool","2025","37","Linkon Cure","Goodland","Kansas State","TE","77","223","4","0.9816","Goodland","KS","USA","39.350833","-101.7101722","20181"
"106229","5141622","HighSchool","2025","38","Lamont Rogers","Horn","Texas A&M","OT","78","325","4","0.9815","Mesquite","TX","USA","32.7666103","-96.599472","48113"
"106230","","HighSchool","2025","39","Ty Haywood","Ryan","Michigan","OT","77","285","4","0.9807","Denton","TX","USA","33.2150386","-97.1330516","48121"
"106231","5179153","HighSchool","2025","40","Brandon Finney","McDonogh School","Oregon","CB","74","185","4","0.9799","Owings Mills","MD","USA","39.4010753","-76.796299","24005"
"106232","5141738","HighSchool","2025","41","Solomon Thomas","Raines","LSU","IOL","76","315","4","0.9798","Jacksonville","FL","USA","30.3321838","-81.655651","12031"
"106233","5141630","HighSchool","2025","42","Riley Pettijohn","McKinney","Ohio State","LB","73.5","215","4","0.9793","McKinney","TX","USA","33.1976496","-96.6154471","48085"
"106234","","HighSchool","2025","43","Nathaniel Marshall","Fenwick","Michigan","EDGE","76","265","4","0.9791","Oak Park","IL","USA","41.8878145","-87.7887615","17031"
"106235","5141435","HighSchool","2025","44","Jaime Ffrench","Mandarin","Texas","WR","73","185","4","0.979","Jacksonville","FL","USA","30.3321838","-81.655651","12031"
"106236","5164652","HighSchool","2025","45","Jackson Lloyd","Carmel","Alabama","OT","79","290","4","0.9784","Carmel","CA","USA","38.75511285","-121.35330894827251","06061"
"106237","5141502","HighSchool","2025","46","Javion Hilson","Cocoa","Missouri","EDGE","75.5","235","4","0.9784","Cocoa","FL","USA","28.3553873","-80.7318827","12009"
"106238","5141696","HighSchool","2025","47","Jared Smith","Thompson","Auburn","EDGE","78.5","235","4","0.9779","Alabaster","AL","USA","33.2442813","-86.8163773","01117"
"106239","5141363","HighSchool","2025","48","Malik Autry","Opelika","Auburn","DL","77.5","330","4","0.9775","Opelika","AL","USA","32.72667","-85.39249304591837","01081"
"106240","5147934","HighSchool","2025","49","Tae Harris","Cedartown","Georgia Tech","S","70","200","4","0.977","Cedartown","GA","USA","34.0124425","-85.2559398","13233"
"106241","5159016","HighSchool","2025","50","Julian Lewis","Carrollton","Colorado","QB","72.5","185","4","0.9762","Carrollton","GA","USA","33.5801103","-85.0766113","13045"
"106242","5141587","HighSchool","2025","51","Chuck McDonald","Mater Dei","Alabama","CB","72.5","190","4","0.9745","Santa Ana","CA","USA","33.7494951","-117.8732213","06059"
"106243","5141457","HighSchool","2025","52","Juan Gaston","Westlake","Georgia","OT","79","365","4","0.974","Atlanta","GA","USA","33.7490987","-84.3901849","13121"
"106244","","HighSchool","2025","53","Akylin Dear","Quitman","Alabama","RB","73","200","4","0.9729","Quitman","MS","USA","32.0401499","-88.7281","28023"
"106245","5295812","HighSchool","2025","54","Drake Stubbs","Mandarin","Florida","S","73","190","4","0.9723","Jacksonville","FL","USA","30.3321838","-81.655651","12031"
"106246","5141428","HighSchool","2025","55","Faheem Delane","Our Lady of Good Counsel HS","Ohio State","S","74.5","195","4","0.9716","Olney","MD","USA","39.1532123","-77.0668408","24031"
"106247","5208134","HighSchool","2025","56","Malachi Goodman","Paramus Catholic","Penn State","OT","77.5","320","4","0.9702","Paramus","NJ","USA","40.9452911","-74.0735899","34003"
"106248","5201878","HighSchool","2025","57","Andrew Olesh","Southern Lehigh","Penn State","TE","76.5","215","4","0.9702","Center Valley","PA","USA","40.529266","-75.393236","42077"
"106249","5141729","HighSchool","2025","58","Michael Terry III","Alamo Heights","Texas","ATH","75","217","4","0.9697","San Antonio","TX","USA","29.4246002","-98.4951405","48029"
"106250","5295813","HighSchool","2025","59","Ben Hanks III","Booker T. Washington","Florida","CB","73","170","4","0.9695","Miami","FL","USA","25.7742658","-80.1936589","12086"
"106251","5141519","HighSchool","2025","60","Justin Hill","Winton Woods","Alabama","EDGE","75","220","4","0.9691","Cincinnati","OH","USA","39.1014537","-84.5124602","39061"
"106252","","HighSchool","2025","61","DaSaahn Brame","Derby","Tennessee","TE","77","235","4","0.9682","Derby","KS","USA","37.5455735","-97.2689331","20173"
"106253","5141728","HighSchool","2025","62","Ivan Taylor","West Orange","Alabama","S","72","174","4","0.9681","Winter Garden","FL","USA","28.5656649","-81.5856742","12095"
"106254","5141433","HighSchool","2025","63","Anquon Fegans","Thompson","Auburn","S","73","180","4","0.9674","Alabaster","AL","USA","33.2442813","-86.8163773","01117"
"106255","5141376","HighSchool","2025","64","Dorian Brew","Conroe","Oregon","CB","72","200","4","0.9674","Conroe","TX","USA","30.3118769","-95.4560512","48339"
"106256","5198245","HighSchool","2025","65","Graceson Littleton","Wiregrass Ranch","Texas","CB","72","180","4","0.9672","Tampa","FL","USA","27.9477595","-82.458444","12057"
"106257","5141441","HighSchool","2025","66","Madden Faraimo","JSerra Catholic","Notre Dame","LB","75","230","4","0.9663","San Juan Capistrano","CA","USA","33.5016932","-117.6625509","06059"
"106258","","HighSchool","2025","67","Jaron-Keawe Sagapolutele","James Campbell","Oregon","QB","74.5","217","4","0.9662","Ewa Beach","HI","USA","21.315603","-158.008804","15003"
"106259","5142590","HighSchool","2025","68","Elijah Barnes","Skyline","Texas","LB","73.5","220","4","0.9661","Dallas","TX","USA","32.7762719","-96.7968559","48113"
"106260","5141422","HighSchool","2025","69","Gideon Davidson","Liberty Christian Academy","Clemson","RB","72","193","4","0.9657","Lynchburg","VA","USA","37.4137536","-79.1422464","51680"
"106261","5141398","HighSchool","2025","70","Christopher Burgess Jr.","Simeon","Notre Dame","DL","75","265","4","0.9654","Chicago","IL","USA","41.8755616","-87.6244212","17031"
"106262","5148599","HighSchool","2025","71","Carius Curne","Marion","LSU","IOL","76","301","4","0.9649","Marion","AR","USA","35.2145337","-90.1964836","05035"
"106263","5141633","HighSchool","2025","72","Josh Petty","Fellowship Christian School","Georgia Tech","OT","77","265","4","0.9638","Roswell","GA","USA","34.02332","-84.360022","13121"
"106264","5141404","HighSchool","2025","73","Bryce Davis","Grimsley","Duke","EDGE","75","260","4","0.9636","Greensboro","NC","USA","36.0726355","-79.7919754","37081"
"106265","5141568","HighSchool","2025","74","Carter Lowe","Whitmer","Ohio State","OT","77","325","4","0.9633","Toledo","OH","USA","41.6786754","-83.5127283","39095"
"106266","5149474","HighSchool","2025","75","Hayden Lowe","Oaks Christian","Miami","EDGE","76.5","250","4","0.9633","Westlake Village","CA","USA","34.1460234","-118.8061794","06037"
"106267","5141560","HighSchool","2025","76","Ousmane Kromah","Lee County","Florida State","RB","72","205","4","0.9622","Leesburg","GA","USA","31.7324556","-84.1711966","13177"
"106268","5167702","HighSchool","2025","77","Mariyon Dye","Elkhart","Tennessee","DL","77","270","4","0.9605","Elkhart","IN","USA","41.6819935","-85.9766671","18039"
"106269","5141400","HighSchool","2025","78","Adonyss Currie","Quartz Hill","Texas A&M","CB","73","170","4","0.9601","Lancaster","CA","USA","34.6981064","-118.1366153","06037"
"106270","5195292","HighSchool","2025","79","Lagonza Hayward","Toombs County","Florida","S","73","200","4","0.9599","Lyons","GA","USA","32.2043546","-82.321791","13279"
"106271","5141614","HighSchool","2025","80","Dramodd Odoms","Lamar","SMU","OT","78","300","4","0.9591","Houston","TX","USA","29.7589382","-95.3676974","48201"
"106272","5141481","HighSchool","2025","81","Zion Grady","Enterprise","Ohio State","EDGE","76","235","4","0.958","Enterprise","AL","USA","31.3151708","-85.8552161","01031"
"106273","5161809","HighSchool","2025","82","J'Vari Flowers","Northwestern","Florida","CB","70.5","165","4","0.9568","Miami","FL","USA","25.7742658","-80.1936589","12086"
"106274","5141769","HighSchool","2025","83","Eric Winters","Enterprise","Auburn","S","74","200","4","0.9566","Enterprise","AL","USA","31.3151708","-85.8552161","01031"
"106275","5155173","HighSchool","2025","84","Kevin Wynn","Greene County","Florida State","DL","74","340","4","0.9566","Greensboro","GA","USA","33.5756831","-83.1823789","13133"
"106276","5179135","HighSchool","2025","85","Travis Smith Jr.","Westlake","Tennessee","WR","75.5","199","4","0.9551","Atlanta","GA","USA","33.7490987","-84.3901849","13121"
"106277","5141366","HighSchool","2025","86","Bryce Baker","East Forsyth","North Carolina","QB","74.5","195","4","0.9549","Kernersville","NC","USA","36.1198589","-80.0736533","37067"
"106278","5141733","HighSchool","2025","87","Douglas Utu","Bishop Gorman","Oregon","IOL","76","317","4","0.9548","Las Vegas","NV","USA","36.1672559","-115.1485163","32003"
"106279","5141437","HighSchool","2025","88","Shamari Earls","Thomas Dale","Michigan","CB","74","180","4","0.9544","Chester","VA","USA","37.3569086","-77.4421818","51041"
"106280","5142606","HighSchool","2025","89","Devin Harper","Calvary Baptist Academy","Ole Miss","IOL","76","305","4","0.9541","Shreveport","LA","USA","32.5221828","-93.7651944","22017"
"106281","5195299","HighSchool","2025","90","Nick Townsend","Dekaney","Texas","TE","75","235","4","0.9539","Houston","TX","USA","29.7589382","-95.3676974","48201"
"106282","5141749","HighSchool","2025","91","CJ Wiley","Milton","Georgia","WR","76","195","4","0.953","Alpharetta","GA","USA","34.0709576","-84.2747329","13121"
"106283","5141465","HighSchool","2025","92","Dallas Golden","Berkeley Prep","Notre Dame","ATH","72","176","4","0.953","Tampa","FL","USA","27.9477595","-82.458444","12057"
"106284","5195300","HighSchool","2025","93","Matt Zollers","Spring-Ford","Missouri","QB","75.5","205","4","0.9527","Royersford","PA","USA","40.1842688","-75.5379639","42091"
"106285","5195293","HighSchool","2025","94","Darren Ikinnagbon","Hillside","Georgia","DL","77","251","4","0.9521","Hillside","NJ","USA","40.701213","-74.2301459","34039"
"106286","5141582","HighSchool","2025","95","Donovan Olugbode","IMG Academy","Missouri","WR","73","200","4","0.9517","Bradenton","FL","USA","27.4989278","-82.5748194","12081"
"106287","","HighSchool","2025","96","Kainoa Winston","Gonzaga","Michigan","S","70","185","4","0.9508","Washington","DC","USA","38.8949855","-77.0365708","11001"
"106288","","HighSchool","2025","97","Anthony Rogers","Carver","Ohio State","RB","68","190","4","0.9505","Montgomery","AL","USA","32.3669656","-86.3006485","01101"
"106289","5141638","HighSchool","2025","98","DJ Sanders","Bellville","Texas A&M","DL","76","290","4","0.9504","Bellville","TX","USA","29.9502253","-96.2571858","48015"
"106290","5141695","HighSchool","2025","99","Malik Washington","Archbishop Spalding","Maryland","QB","76","215","4","0.9503","Severn","MD","USA","39.1278864","-76.6869128","24003"
"106291","5142595","HighSchool","2025","100","Zaydrius Rainey-Sale","Bethel","Washington","LB","74","220","4","0.95","Spanaway","WA","USA","47.0979462","-122.4243422","53053"
"106292","5296124","HighSchool","2025","101","Chad Woodfork","Summer Creek","TCU","EDGE","76","220","4","0.9499","Humble","TX","USA","29.9988312","-95.2621553","48201"
"106293","5141718","HighSchool","2025","102","Matai Tagoa'i","San Clemente","USC","LB","75","190","4","0.9495","San Clemente","CA","USA","33.4270275","-117.6124179","06059"
"106294","","HighSchool","2025","103","Daylan McCutcheon","Lovejoy","Texas","WR","71","175","4","0.9488","Lucas","TX","USA","33.0842854","-96.5766577","48085"
"106295","5201880","HighSchool","2025","104","Smith Orogbo","Alief Hastings","Texas","EDGE","76","220","4","0.9485","Houston","TX","USA","29.7589382","-95.3676974","48201"
"106296","5160501","HighSchool","2025","105","RJ Sermons","Rancho Cucamonga","USC","CB","72","185","4","0.9483","Rancho Cucamonga","CA","USA","34.1033192","-117.5751735","06071"
"106297","5202117","HighSchool","2025","106","Malik Clark","Rock Hill","South Carolina","WR","74.5","183","4","0.948","Rock Hill","SC","USA","34.9248667","-81.0250784","45091"
"106298","5149472","HighSchool","2025","107","Jamar Beal-Goines","Desert Edge","Texas A&M","CB","72","170","4","0.9475","Phoenix","AZ","USA","33.4484367","-112.0741417","04013"
"106299","","HighSchool","2025","108","Derick Smith","Southside","Auburn","ATH","73","185","4","0.9472","Selma","AL","USA","32.4078632","-87.0207473","01047"
"106300","","HighSchool","2025","109","Alai Kalaniuvalu","Bishop Gorman","BYU","IOL","76","300","4","0.9471","Las Vegas","NV","USA","36.1672559","-115.1485163","32003"
"106301","5141350","HighSchool","2025","110","Ziyare Addison","Carrollwood Day","Oregon","OT","77","290","4","0.947","Tampa","FL","USA","27.9477595","-82.458444","12057"
"106302","5141469","HighSchool","2025","111","Jaylen Gilchrist","Salem","Maryland","IOL","76.5","295","4","0.9466","Virginia Beach","VA","USA","36.8529841","-75.9774183","51810"
"106303","5141411","HighSchool","2025","112","Daryus Dixson","Mater Dei","Penn State","CB","72","180","4","0.9466","Santa Ana","CA","USA","33.7494951","-117.8732213","06059"
"106304","5141599","HighSchool","2025","113","Cortez Mills","Homestead","Nebraska","WR","72.5","165","4","0.9463","Homestead","FL","USA","25.4718946","-80.4759905","12086"
"106305","5195701","HighSchool","2025","114","Ryan Fodje","Bridgeland","Oklahoma","OT","77","300","4","0.9458","Cypress","TX","USA","29.9691116","-95.6971686","48201"
"106306","5141407","HighSchool","2025","115","Myron Charles","Port Charlotte","Texas","DL","76","295","4","0.9453","Port Charlotte","FL","USA","26.9761707","-82.0906448","12015"
"106307","5141764","HighSchool","2025","116","Blake Woodby","St. Frances Academy","Auburn","CB","70.5","175","4","0.9452","Baltimore","MD","USA","39.2908816","-76.610759","24510"
"106308","5141572","HighSchool","2025","117","Andrew Marsh","Katy Jordan","Michigan","WR","73","175","4","0.9448","Fulshear","TX","USA","29.690292","-95.8996261","48157"
"106309","5212631","HighSchool","2025","118","Chase Linton","North Atlanta","Georgia","EDGE","76","215","4","0.9445","Atlanta","GA","USA","33.7490987","-84.3901849","13121"
"106310","5177084","HighSchool","2025","119","Kamario Taylor","Noxubee County","Mississippi State","QB","75.5","205","4","0.9444","Macon","MS","USA","33.1054039","-88.5608767","28103"
"106311","5141734","HighSchool","2025","120","Jordan Young","Monroe","Michigan","ATH","72","180","4","0.9442","Monroe","NC","USA","34.9854275","-80.5495112","37179"
"106312","5195297","HighSchool","2025","121","Dawson Merritt","Blue Valley","Nebraska","LB","75","215","4","0.9442","Stilwell","KS","USA","38.7691755","-94.6563454","20091"
"106313","5141719","HighSchool","2025","122","Elijah Thomas","Checotah","Oklahoma","ATH","73","185","4","0.9441","Checotah","OK","USA","35.4700993","-95.5230356","40091"
"106314","5141583","HighSchool","2025","123","Zahir Mathis","Imhotep Institute","Maryland","EDGE","78","225","4","0.9441","Philadelphia","PA","USA","39.9527237","-75.1635262","42101"
"106315","5141356","HighSchool","2025","124","Seuseu Alofaituli","Bishop Gorman","Miami","IOL","75","280","4","0.9437","Las Vegas","NV","USA","36.1672559","-115.1485163","32003"
"106316","5141593","HighSchool","2025","125","Joshua Moore","West Broward","Miami","WR","76","205","4","0.9435","Pembroke Pines","FL","USA","26.02322025","-80.34123906625615","12011"
"106317","5143923","HighSchool","2025","126","Derek Meadows","Bishop Gorman","Alabama","WR","77","200","4","0.9434","Las Vegas","NV","USA","36.1672559","-115.1485163","32003"
"106318","5142596","HighSchool","2025","127","James Flanigan","Notre Dame Academy","Notre Dame","TE","76.5","235","4","0.9434","Green Bay","WI","USA","44.5126379","-88.0125794","55009"
"106319","5141596","HighSchool","2025","128","Noah Mikhail","Bonita","Texas A&M","LB","74.5","225","4","0.9433","La Verne","CA","USA","34.1008426","-117.7678355","06037"
"106320","5141358","HighSchool","2025","129","Kiotti Armstrong","Jasper","Texas A&M","TE","77","265","4","0.9425","Jasper","TX","USA","30.9201995","-93.9965759","48241"
"106321","5293576","HighSchool","2025","130","Duke Johnson","Dodge County","Alabama","LB","73","200","4","0.9418","Eastman","GA","USA","32.1976729","-83.1776514","13091"
"106322","","HighSchool","2025","131","Elijah Dotson","Belleville","Michigan","S","74","180","4","0.9417","Detroit","MI","USA","42.3315509","-83.0466403","26163"
"106323","5141602","HighSchool","2025","132","Ryan Montgomery","Findlay","Georgia","QB","75","215","4","0.9408","Findlay","OH","USA","41.0413873","-83.6503982","39063"
"106324","5201881","HighSchool","2025","133","Charles Ross II","North Shore","LSU","LB","73","195","4","0.9405","Houston","TX","USA","29.7589382","-95.3676974","48201"
"106325","5179199","HighSchool","2025","134","Carde Smith","Williamson","Colorado","OT","77","293","4","0.9402","Mobile","AL","USA","30.6943566","-88.0430541","01097"
"106326","5195295","HighSchool","2025","135","Jack Lange","Eureka","Missouri","OT","79","295","4","0.94","Eureka","MO","USA","38.5025537","-90.6279044","29189"
"106327","5214492","HighSchool","2025","136","Jaiden Braker","South Gwinnett","LSU","LB","75","212","4","0.9398","Snellville","GA","USA","33.857328","-84.0199108","13135"
"106328","5167180","HighSchool","2025","137","Ty Jackson","Seminole Ridge","Florida","LB","73","200","4","0.9393","Loxahatchee","FL","USA","26.8116033","-80.1567274","12099"
"106329","","HighSchool","2025","138","Bryce Fitzgerald","Columbus","Miami","S","72.5","172","4","0.9391","Miami","FL","USA","25.7742658","-80.1936589","12086"
"106330","5141747","HighSchool","2025","139","Jalen Wiggins","Rickards","Florida","DL","76.5","255","4","0.9389","Tallahassee","FL","USA","30.4380832","-84.2809332","12073"
"106331","5201879","HighSchool","2025","140","Dylan Robinson Jr.","Bonita","Washington","ATH","75","190","4","0.938","La Verne","CA","USA","34.1008426","-117.7678355","06037"
"106332","5293826","HighSchool","2025","141","Trystan Haynes","Carl Albert","Oklahoma","CB","74","175","4","0.938","Oklahoma City","OK","USA","35.4729886","-97.5170536","40109"
"106333","5141766","HighSchool","2025","142","Jayden Woods","Mill Valley","Florida","EDGE","75","240","4","0.9379","Shawnee","KS","USA","39.0416718","-94.7202376","20091"
"106334","5141540","HighSchool","2025","143","Marco Jones","San Ramon Valley","Texas A&M","EDGE","77","245","4","0.9379","Danville","CA","USA","37.8215929","-121.9999606","06013"
"106335","","HighSchool","2025","144","TJ Alford","Vero Beach","Ohio State","LB","74","210","4","0.9377","Vero Beach","FL","USA","27.6387163","-80.3975399","12061"
"106336","5141620","HighSchool","2025","145","Nathaniel Owusu-Boateng","IMG Academy","Michigan","LB","72.5","205","4","0.9371","Bradenton","FL","USA","27.4989278","-82.5748194","12081"
"106337","5199859","HighSchool","2025","146","Dalen Penson","Sandy Creek","Georgia Tech","ATH","70","165","4","0.9368","Tyrone","GA","USA","33.4713249","-84.5972005","13113"
"106338","5214395","HighSchool","2025","147","Shekai Mills-Knight","Baylor School","Ole Miss","RB","73","217","4","0.9366","Chattanooga","TN","USA","35.0457219","-85.3094883","47065"
"106339","5179640","HighSchool","2025","148","Tyler Lockhart","Winona","Mississippi State","LB","75","200","4","0.9364","Winona","MS","USA","33.4820678","-89.7281369","28097"
"106340","5164331","HighSchool","2025","149","Girard Pringle Jr.","Armwood","Miami","RB","70","182","4","0.9359","Seffner","FL","USA","27.998541000000003","-82.27488400114905","12057"
"106341","5141499","HighSchool","2025","150","Dierre Hill","Althoff Catholic","Oregon","RB","71","180","4","0.9356","Belleville","IL","USA","38.5200504","-89.9839935","17163"
"106342","5141571","HighSchool","2025","151","George MacIntyre","Brentwood Academy","Tennessee","QB","77.5","190","4","0.9355","Brentwood","TN","USA","36.0325687","-86.7825235","47187"
"106343","5209688","HighSchool","2025","152","JT Lindsey","Alexandria","LSU","RB","71","185","4","0.9353","Alexandria","LA","USA","31.311248","-92.4449087","27041"
"106344","5141444","HighSchool","2025","153","J.J. Faulk","Highland Home","Auburn","LB","75","225","4","0.935","Highland Home","AL","USA","31.953702","-86.3142945","01041"
"106345","5207842","HighSchool","2025","154","Jalen Cooper","Steele","SMU","WR","73.5","165","4","0.935","Cibolo","TX","USA","29.5707831","-98.2330927","48187"
"106346","","HighSchool","2025","155","JaDon Blair","Mount Tabor","Notre Dame","S","76","190","4","0.9349","Winston Salem","NC","USA","36.0998131","-80.2440518","37067"
"106347","5141509","HighSchool","2025","156","Karle Lacey Jr.","Saraland","Texas","QB","72","175","4","0.9336","Saraland","AL","USA","30.820742","-88.0705556","01097"
"106348","5141536","HighSchool","2025","157","Christian Jones","Westside","Nebraska","LB","74.5","215","4","0.9332","Omaha","NE","USA","41.2587459","-95.9383758","31055"
"106349","5141699","HighSchool","2025","158","Cortez Smith","Parkview","Georgia","IOL","75","310","4","0.9331","Lilburn","GA","USA","33.8901036","-84.1429719","13135"
"106350","5141597","HighSchool","2025","159","Cooper Perry","Notre Dame Preparatory","Oregon","WR","73","185","4","0.9329","Scottsdale","AZ","USA","33.4942189","-111.9260184","04013"
"106351","5141456","HighSchool","2025","160","TaRon Francis","Edna Karr","LSU","WR","74","200","4","0.9329","New Orleans","LA","USA","29.9499323","-90.0701156","22071"
"106352","5141517","HighSchool","2025","161","Bo Jackson","Villa Angela-St. Joseph","Ohio State","RB","72","205","4","0.932","Cleveland","OH","USA","41.5051613","-81.6934446","39035"
"106353","5141420","HighSchool","2025","162","Marquise Davis","Cleveland Heights","Missouri","RB","72","210","4","0.9319","Cleveland","OH","USA","41.5051613","-81.6934446","39035"
"106354","5142591","HighSchool","2025","163","Kaleb Edwards","Oak Ridge","Alabama","TE","78","255","4","0.9318","El Dorado Hills","CA","USA","38.6561185","-121.0743265","06017"
"106355","5141397","HighSchool","2025","164","Jourdin Crawford","Parker","Auburn","DL","73.5","300","4","0.9317","Birmingham","AL","USA","33.5206824","-86.8024326","01073"
"106356","5200374","HighSchool","2025","165","Donovan Murph","Irmo","South Carolina","WR","73.5","188","4","0.9316","Columbia","SC","USA","34.0007493","-81.0343313","45079"
"106357","5295321","HighSchool","2025","166","Aaron Dunn","Spanish Fork","USC","OT","79.5","290","4","0.9315","Spanish Fork","UT","USA","40.114955","-111.654923","49049"
"106358","5214475","HighSchool","2025","167","Zac Stascausky","Central Catholic","Oregon","OT","78","275","4","0.931","Portland","OR","USA","45.5202471","-122.6741949","41051"
"106359","5141496","HighSchool","2025","168","Jaedon Harmon","Rome","Tennessee","LB","73","217","4","0.931","Rome","GA","USA","34.257038","-85.1646726","13115"
"106360","5141371","HighSchool","2025","169","Ethan Barbour","Milton","Georgia","TE","75","235","4","0.9306","Alpharetta","GA","USA","34.0709576","-84.2747329","13121"
"106361","5141584","HighSchool","2025","170","Naeshaun Montgomery","Miami Central","Florida","WR","73","165","4","0.9304","Miami","FL","USA","25.7742658","-80.1936589","12086"
"106362","5211410","HighSchool","2025","171","Maison Dunn","Tupelo","Ole Miss","CB","74.5","180","4","0.9303","Tupelo","MS","USA","34.2576067","-88.7033859","28081"
"106363","5141423","HighSchool","2025","172","Jordon Davison","Mater Dei","Oregon","RB","72","216","4","0.9299","Santa Ana","CA","USA","33.7494951","-117.8732213","06059"
"106364","5147846","HighSchool","2025","173","Christian Garrett","Prince Avenue Christian School","Georgia Tech","DL","75.5","285","4","0.9299","Bogart","GA","USA","33.949281","-83.534608","13219"
"106365","5141686","HighSchool","2025","174","James Simon","Calvary Baptist Academy","Texas","RB","71","200","4","0.9298","Shreveport","LA","USA","32.5221828","-93.7651944","22017"
"106366","5141720","HighSchool","2025","175","Trent Wilson","Dr. Henry Wise","Oklahoma","DL","75","270","4","0.9297","Upper Marlboro","MD","USA","38.8165274","-76.7519753","24033"
"106367","5143922","HighSchool","2025","176","Elijah Melendez","Osceola","Auburn","LB","74","225","4","0.9296","Kissimmee","FL","USA","28.2918995","-81.4075838","12097"
"106368","5167175","HighSchool","2025","177","Rylon Dillard-Allen","Mountain Pointe","Washington","S","71","165","4","0.9296","Phoenix","AZ","USA","33.4484367","-112.0741417","04013"
"106369","5141526","HighSchool","2025","178","Brayden Jacobs","Milton","Clemson","OT","79","310","4","0.9293","Alpharetta","GA","USA","34.0709576","-84.2747329","13121"
"106370","5164350","HighSchool","2025","179","Jayvan Boggs","Cocoa","Florida State","WR","72.5","200","4","0.9288","Cocoa","FL","USA","28.3553873","-80.7318827","12009"
"106371","5141745","HighSchool","2025","180","Tavion Wallace","Appling County","Arkansas","LB","73","215","4","0.9285","Baxley","GA","USA","31.7782514","-82.3484618","13001"
"106372","5141770","HighSchool","2025","181","Mark Zackery IV","Ben Davis","Notre Dame","CB","70.5","164","4","0.9285","Indianapolis","IN","USA","39.7683331","-86.1583502","18097"
"106373","5164658","HighSchool","2025","182","Alex Payne","Gainesville","USC","OT","77","265","4","0.9284","Gainesville","GA","USA","34.2978794","-83.8240663","13139"
"106374","","HighSchool","2025","183","Marquise Henderson","Belton-Honea Path","Clemson","RB","70","170","4","0.9283","Honea Path","SC","USA","34.4478795","-82.39460552446766","45007"
"106375","","HighSchool","2025","184","Jaboree Antoine","Westgate","Miami","CB","73","170","4","0.9277","New Iberia","LA","USA","30.0035365","-91.8187285","22045"
"106376","5141394","HighSchool","2025","185","Lotzeir Brooks","Millville","Alabama","WR","69","170","4","0.9276","Millville","NJ","USA","39.4020593","-75.0393368","34011"
"106377","5141612","HighSchool","2025","186","CJ Nickson","Weatherford","Oklahoma","EDGE","77","220","4","0.9276","Weatherford","OK","USA","35.5261633","-98.7075744","40039"
"106378","5141473","HighSchool","2025","187","AJ Hill","Houston County","Memphis","QB","76.5","220","4","0.9272","Warner Robins","GA","USA","32.6200973","-83.606568","13153"
"106379","5141608","HighSchool","2025","188","Gavin Nix","IMG Academy","Oregon","LB","72","225","4","0.9268","Bradenton","FL","USA","27.4989278","-82.5748194","12081"
"106380","5215542","HighSchool","2025","189","Bradley Gompers","Central Catholic","Duke","ATH","77","215","4","0.9265","Pittsburgh","PA","USA","40.4416941","-79.9900861","42003"
"106381","5141659","HighSchool","2025","190","Akili Smith Jr.","Lincoln","Oregon","QB","77","200","4","0.9264","San Diego","CA","USA","32.7174209","-117.1627714","06073"
"106382","5164655","HighSchool","2025","191","Tyler Miller","Laurel","LSU","OT","77","315","4","0.9262","Laurel","MS","USA","31.74096","-89.13382003619111","28067"
"106383","5141730","HighSchool","2025","192","Nasir Wyatt","Mater Dei","Oregon","LB","74","220","4","0.9261","Santa Ana","CA","USA","33.7494951","-117.8732213","06059"
"106384","5296075","HighSchool","2025","193","Spike Sowells","Louisville Male","NC State","IOL","74","305","4","0.9257","Louisville","KY","USA","38.2542376","-85.759407","21111"
"106385","5164648","HighSchool","2025","194","Kelshaun Johnson","Hitchcock","Texas A&M","WR","71","160","4","0.9257","Hitchcock","TX","USA","29.3482905","-95.0160368","48167"
"106386","5295969","HighSchool","2025","195","Brady Hart","Cocoa","Texas A&M","QB","76","180","4","0.9254","Cocoa","FL","USA","28.3553873","-80.7318827","12009"
"106387","","HighSchool","2025","196","JonAnthony Hall","Fishers","Stanford","WR","73","170","4","0.9254","Fishers","IN","USA","39.9555928","-86.0138729","18057"
"106388","5141565","HighSchool","2025","197","Byron Louis","American Heritage","Florida","RB","71","200","4","0.9253","Fort Lauderdale","FL","USA","26.1223084","-80.1433786","12011"
"106389","5167747","HighSchool","2025","198","Jarquez Carter","Newberry","Ohio State","DL","74","284","4","0.9253","Newberry","FL","USA","29.6463535","-82.6065023","12001"
"106390","5214386","HighSchool","2025","199","Donovan Starr","Ravenwood","Auburn","CB","72","176","4","0.9252","Brentwood","TN","USA","36.0325687","-86.7825235","47187"
"106391","","HighSchool","2025","200","Jacob Washington","Archbishop Shaw","Michigan","WR","75","180","4","0.9251","Marrero","LA","USA","29.8993723","-90.1003506","22051"
"106392","5141592","HighSchool","2025","201","London Merritt","IMG Academy","Colorado","EDGE","74.5","250","4","0.9246","Bradenton","FL","USA","27.4989278","-82.5748194","12081"
"106393","5195199","HighSchool","2025","202","Christian Gass","Eastside","Tennessee","LB","74.5","215","4","0.9242","Covington","GA","USA","33.5967815","-83.8601827","13217"
"106394","5141656","HighSchool","2025","203","Nate Roberts","Washington","Ohio State","TE","76","235","4","0.9233","Washington","OK","USA","35.0589697","-97.4845861","40087"
"106395","5141673","HighSchool","2025","204","Damien Shanklin","Warren Central","LSU","EDGE","76","230","4","0.9233","Indianapolis","IN","USA","39.7683331","-86.1583502","18097"
"106396","","HighSchool","2025","205","Micah DeBose","Theodore","Alabama","IOL","77","315","4","0.9231","Mobile","AL","USA","30.6943566","-88.0430541","01097"
"106397","5143924","HighSchool","2025","206","Broderick Shull","Bixby","Auburn","OT","77","275","4","0.9227","Bixby","OK","USA","35.9420431","-95.8833235","40143"
"106398","5209177","HighSchool","2025","207","Todd Robinson","Valdosta","Georgia","ATH","71","195","4","0.9225","Valdosta","GA","USA","30.8327022","-83.2784851","13185"
"106399","5201877","HighSchool","2025","208","Vander Ploog","Troy","Oregon","TE","78","223","4","0.9218","Fullerton","CA","USA","33.8708215","-117.9294165","06059"
"106400","5141750","HighSchool","2025","209","Ari Watford","Maury","Clemson","EDGE","77","220","4","0.9218","Norfolk","VA","USA","36.8462923","-76.2929252","51710"
"106401","5207618","HighSchool","2025","210","Aidan Anding","Ruston","LSU","CB","71","165","4","0.9216","Ruston","LA","USA","32.5232053","-92.637927","22061"
"106402","5141516","HighSchool","2025","211","Alvin Henderson","Elba","Auburn","RB","69","200","4","0.9214","Elba","AL","USA","31.4146108","-86.0677243","01031"
"106403","5141643","HighSchool","2025","212","Adam Schobel","Columbus","TCU","QB","76.5","190","4","0.921","Columbus","TX","USA","29.7066181","-96.539699","48089"
"106404","5208372","HighSchool","2025","213","Jaquavious Dodd","Eastside","South Carolina","EDGE","77","225","4","0.9209","Taylors","SC","USA","34.90869135","-82.29585133163584","45045"
"106405","5218646","HighSchool","2025","214","Donovan Darden","Havelock","South Carolina","EDGE","76","225","4","0.9207","Havelock","NC","USA","34.8785","-76.9014457","37049"
"106406","5212635","HighSchool","2025","215","Mikkel Skinner","Riverside","Kentucky","TE","75.5","220","4","0.9207","Greer","SC","USA","34.9381361","-82.2272119","45045"
"106407","5141707","HighSchool","2025","216","Owen Strebig","Catholic Memorial","Notre Dame","OT","80","295","4","0.9207","Waukesha","WI","USA","43.0116784","-88.2314813","55133"
"106408","","HighSchool","2025","217","LA Jesse Harrold","Gaither","Florida State","EDGE","77","215","4","0.9202","Tampa","FL","USA","27.9477595","-82.458444","12057"
"106409","5194304","HighSchool","2025","218","Josiah Sharma","Folsom","Texas","DL","76.5","325","4","0.9202","Folsom","CA","USA","38.6779591","-121.1760583","06067"
"106410","5141731","HighSchool","2025","219","Ethan Utley","Ensworth","Tennessee","DL","75.5","265","4","0.9199","Nashville","TN","USA","36.1622296","-86.7743531","47037"
"106411","5141651","HighSchool","2025","220","Landon Rink","Cy-Fair","Texas A&M","DL","74","280","4","0.9195","Cypress","TX","USA","29.9691116","-95.6971686","48201"
"106412","5195298","HighSchool","2025","221","Mason Posa","La Cueva","Wisconsin","LB","75","221","4","0.9194","Albuquerque","NM","USA","35.0841034","-106.6509851","35001"
"106413","5149470","HighSchool","2025","222","Rashad Johnson Jr.","South Sumter","Texas A&M","S","74","200","4","0.9191","Bushnell","FL","USA","28.6644827","-82.1117399","12119"
"106414","5167708","HighSchool","2025","223","Tylon Lee","Pace","Florida State","DL","76","245","4","0.9189","Milton","FL","USA","30.6324149","-87.0396881","12113"
"106415","5216050","HighSchool","2025","224","Terry Shelton","Ranchview","TCU","WR","76","200","4","0.9187","Carrollton","TX","USA","32.9537349","-96.8902816","48113"
"106416","5209350","HighSchool","2025","225","Jordon Gidron","Ridge View","South Carolina","WR","74","185","4","0.9184","Columbia","SC","USA","34.0007493","-81.0343313","45079"
"106417","5198303","HighSchool","2025","226","Nicolas Clayton","Buchholz","Wisconsin","EDGE","76.5","215","4","0.9182","Gainesville","FL","USA","29.6519684","-82.3249846","12001"
"106418","5214514","HighSchool","2025","227","Chace Sims","Randle","Texas A&M","DL","75","280","4","0.9181","Richmond","TX","USA","29.5821811","-95.7607832","48157"
"106419","5141528","HighSchool","2025","228","Andrew Maddox","Oak Grove","Ole Miss","DL","75","265","4","0.9177","Hattiesburg","MS","USA","31.3271189","-89.2903392","28035"
"106420","","HighSchool","2025","229","Jayden Sanders","Kilgore","Michigan","CB","74","172","4","0.9176","Kilgore","TX","USA","32.3860733","-94.8758518","48183"
"106421","5141463","HighSchool","2025","230","Jontae Gilbert","Douglass","Georgia","S","73","185","4","0.9175","Atlanta","GA","USA","33.7490987","-84.3901849","13121"
"106422","5142593","HighSchool","2025","231","Antonio Coleman","Saraland","Auburn","DL","74","275","4","0.9174","Saraland","AL","USA","30.820742","-88.0705556","01097"
"106423","5141605","HighSchool","2025","232","Luke Nickel","Milton","Miami","QB","74","205","4","0.9171","Alpharetta","GA","USA","34.0709576","-84.2747329","13121"
"106424","5201870","HighSchool","2025","233","Daeden Hopkins","Hermann","Missouri","EDGE","78","210","4","0.917","Hermann","MO","USA","","",""
"106425","5205100","HighSchool","2025","234","Tyshun Willis","Velma Jackson","Mississippi State","EDGE","73","230","4","0.917","Camden","MS","USA","32.7823557","-89.8386923","28089"
"106426","5295821","HighSchool","2025","235","TJ Dice Jr.","Langston Hughes","Florida","OT","76","295","4","0.9169","Fairburn","GA","USA","33.5670562","-84.5810418","13121"
"106427","5141658","HighSchool","2025","236","Anthony Sacca","St. Joseph's Prep","Notre Dame","LB","75","225","4","0.9168","Philadelphia","PA","USA","39.9527237","-75.1635262","42101"
"106428","5166804","HighSchool","2025","237","Trestin Castro","Upland","USC","CB","74","177","4","0.9166","Upland","CA","USA","34.09751","-117.6483876","06071"
"106429","5214513","HighSchool","2025","238","Herbert Scroggins III","Benedictine Military School","Miami","EDGE","74","235","4","0.9166","Savannah","GA","USA","32.0809263","-81.0911768","13051"
"106430","5141380","HighSchool","2025","239","Nick Brooks","Grayson","Texas","OT","79","345","4","0.9161","Loganville","GA","USA","33.8389977","-83.9007382","13297"
"106431","5141556","HighSchool","2025","240","TJ Lateef","Orange Lutheran","Nebraska","QB","73.5","185","4","0.9158","Orange","CA","USA","33.7872568","-117.8503088","06059"
"106432","5159041","HighSchool","2025","241","Zelus Hicks","Carrollton","Texas","S","74","190","4","0.9156","Carrollton","GA","USA","33.5801103","-85.0766113","13045"
"106433","5295127","HighSchool","2025","242","Chris Ewald Jr.","Chaminade-Madonna","Miami","CB","72","165","4","0.9153","Hollywood","FL","USA","26.0112014","-80.1494901","12011"
"106434","5207942","HighSchool","2025","243","Kaleb Burns","Cy Falls","Baylor","LB","72","220","4","0.9149","Houston","TX","USA","29.7589382","-95.3676974","48201"
"106435","","HighSchool","2025","244","Demetres Samuel Jr.","Heritage","Syracuse","S","72","185","4","0.9149","Palm Bay","FL","USA","28.0330075","-80.6433552","12009"
"106436","5295814","HighSchool","2025","245","Tramell Jones Jr.","Mandarin","Florida","QB","72","196","4","0.9146","Jacksonville","FL","USA","30.3321838","-81.655651","12031"
"106437","5141545","HighSchool","2025","246","Peyton Joseph","Houston County","Georgia Tech","IOL","75","309","4","0.9142","Warner Robins","GA","USA","32.6200973","-83.606568","13153"
"106438","5236220","HighSchool","2025","247","Kellen Wiley Jr.","Armwood","Miami","LB","76","225","4","0.9142","Seffner","FL","USA","27.998541000000003","-82.27488400114905","12057"
"106439","5141548","HighSchool","2025","248","Jahmir Joseph","St. Joseph Regional","Penn State","CB","72","185","4","0.914","Montvale","NJ","USA","41.0467635","-74.0229173","34003"
"106440","","HighSchool","2025","249","Thomas Blackshear","Calvary Day School","Georgia","WR","73","197","4","0.9137","Savannah","GA","USA","32.0809263","-81.0911768","13051"
"106441","5141681","HighSchool","2025","250","Mason Short","Evans","Georgia","IOL","77.5","305","4","0.9137","Evans","GA","USA","33.5143065","-82.1387819734912","13073"
"106442","5215045","HighSchool","2025","251","Cameron Dyer","La Cueva","Arizona State","ATH","76","202","4","0.9135","Albuquerque","NM","USA","35.0841034","-106.6509851","35001"
"106443","5177825","HighSchool","2025","252","Burke Gautcher","Sycamore","Iowa","LB","75","200","4","0.9134","Sycamore","IL","USA","41.9889173","-88.6867538","17037"
"106444","","HighSchool","2025","253","Epi Sitanilei","St. John Bosco","Ohio State","EDGE","77","220","4","0.9131","Bellflower","CA","USA","33.8825705","-118.1167679","06037"
"106445","5221980","HighSchool","2025","254","Joseph Mbatchou","Grayson","Florida","DL","76.5","275","4","0.9129","Loganville","GA","USA","33.8389977","-83.9007382","13297"
"106446","5141667","HighSchool","2025","255","Cobey Sellers","Shadow Creek","Texas A&M","CB","71.5","175","4","0.9127","Pearland","TX","USA","29.5639758","-95.2864299","48039"
"106447","5208978","HighSchool","2025","256","Damola Ajidahun","Duluth","South Carolina","OT","78","280","4","0.9125","Duluth","GA","USA","34.0028569","-84.1441046","13135"
"106448","5141654","HighSchool","2025","257","Omarion Robinson","Parkview Magnet","Oklahoma","S","72","171","4","0.9125","Little Rock","AR","USA","34.7464809","-92.2895948","05119"
"106449","5210001","HighSchool","2025","258","Byron Baldwin Jr.","St. Frances Academy","Indiana","S","73.5","190","4","0.9124","Baltimore","MD","USA","39.2908816","-76.610759","24510"
"106450","5141388","HighSchool","2025","259","Martels Carter Jr.","Paducah Tilghman","Kentucky","S","72.5","190","4","0.9123","Paducah","KY","USA","37.0833893","-88.6000478","21145"
"106451","5199950","HighSchool","2025","260","Nic Moore","Jefferson County","Tennessee","IOL","74.5","300","4","0.9118","Dandridge","TN","USA","36.0153693","-83.4148895","47089"
"106452","5141674","HighSchool","2025","261","Cortez Thomas","Holmes County","Ole Miss","S","72.5","180","4","0.9115","Lexington","MS","USA","33.1131834","-90.0531408","28051"
"106453","5214985","HighSchool","2025","262","Logan Anderson","Fyffe","Clemson","LB","74","218","4","0.9115","Fyffe","AL","USA","34.4470207","-85.9039621","01049"
"106454","5141760","HighSchool","2025","263","Jaylen Williams","Palatine","Wisconsin","DL","78","265","4","0.9115","Palatine","IL","USA","42.1105779","-88.0336888","17031"
"106455","5234984","HighSchool","2025","264","Tobi Haastrup","Mayde Creek","Oregon","EDGE","74.5","232","4","0.9114","Houston","TX","USA","29.7589382","-95.3676974","48201"
"106456","5142604","HighSchool","2025","265","Brock Schott","Leo","Miami","TE","75","215","4","0.9113","Leo","IN","USA","33.8334972","-79.6150625","45041"
"106457","5141697","HighSchool","2025","266","Winston Watkins Jr.","Venice","Ole Miss","WR","70","172","4","0.9113","Venice","FL","USA","27.0999188","-82.4543597","12115"
"106458","5141386","HighSchool","2025","267","Tory Blaylock","Atascocita","Oklahoma","RB","70","195","4","0.9112","Humble","TX","USA","29.9988312","-95.2621553","48201"
"106459","5195481","HighSchool","2025","268","Radarious Jackson","Sheffield","Tennessee","WR","74","195","4","0.9111","Memphis","TN","USA","35.1490215","-90.0516285","47157"
"106460","5142597","HighSchool","2025","269","Thomas Meyer","Clear Lake","Iowa","TE","77","210","4","0.9109","Clear Lake","IA","USA","43.1380915","-93.3792003","19033"
"106461","5198318","HighSchool","2025","270","Isaiah Mizell","Boone","Arizona","WR","72","160","4","0.9106","Orlando","FL","USA","28.5421109","-81.3790304","12095"
"106462","5141649","HighSchool","2025","271","Malcolm Simpson","Hitchcock","Nebraska","DL","75","255","4","0.9105","Hitchcock","TX","USA","29.3482905","-95.0160368","48167"
"106463","","HighSchool","2025","272","Madden Iamaleava","Long Beach Poly","Arkansas","QB","74","200","4","0.9105","Long Beach","CA","USA","33.7690164","-118.1916048","06037"
"106464","5293621","HighSchool","2025","273","Jaylan Morgan","Rockvale","Georgia","S","72","180","4","0.9103","Rockvale","TN","USA","","",""
"106465","5195480","HighSchool","2025","274","Marcus Garcia","Ryan","Texas A&M","OT","77","270","4","0.9097","Denton","TX","USA","33.2150386","-97.1330516","48121"
"106466","5141384","HighSchool","2025","275","Phillip Bell","Mission Viejo","Ohio State","WR","74","195","4","0.9093","Mission Viejo","CA","USA","33.5965685","-117.659405","06059"
"106467","5214399","HighSchool","2025","276","Javeon Campbell","Western Hills","Kentucky","DL","77","265","4","0.9092","Frankfort","KY","USA","38.2009055","-84.8732836","21073"
"106468","5141487","HighSchool","2025","277","Ty Hawkins","IMG Academy","SMU","QB","72.5","195","4","0.9091","Bradenton","FL","USA","27.4989278","-82.5748194","12081"
"106469","","HighSchool","2025","278","Je'rel Bolder","Forest Hills","NC State","WR","72","192","4","0.9091","Marshville","NC","USA","34.988486","-80.3670085","37179"
"106470","5141453","HighSchool","2025","279","Avery Gach","Wylie E. Groves","Michigan","IOL","77","290","4","0.909","Franklin","MI","USA","42.5222567","-83.3060432","26125"
"106471","","HighSchool","2025","280","Nelson McGuire","Midlothian","Texas A&M","IOL","76","320","4","0.9083","Midlothian","TX","USA","32.482361","-96.9944489","48139"
"106472","5295724","HighSchool","2025","281","Michael Turner","Richland","Baylor","RB","71.5","200","4","0.9077","North Richland Hills","TX","USA","32.8342952","-97.2289029","48439"
"106473","5167174","HighSchool","2025","282","Ladarian Clardy","Escambia","Ole Miss","S","70.5","175","4","0.9076","Pensacola","FL","USA","30.421309","-87.2169149","12033"
"106474","5216345","HighSchool","2025","283","Bodpegn Miller","Ontario","Ohio State","ATH","76","180","4","0.9076","Mansfield","OH","USA","40.75839","-82.5154471","39139"
"106475","","HighSchool","2025","284","Jasper Parker","Archbishop Shaw","Michigan","RB","72","189","4","0.9075","Marrero","LA","USA","29.8993723","-90.1003506","22051"
"106476","5164343","HighSchool","2025","285","Marshall Pritchett","Rabun Gap-Nacoochee","Alabama","TE","77","211","4","0.9075","Rabun Gap","GA","USA","34.97479","-83.30549","13241"
"106477","5141687","HighSchool","2025","286","Carter Smith","Bishop Verot","Wisconsin","QB","74.5","185","4","0.9073","Fort Myers","FL","USA","26.640628","-81.8723084","12071"
"106478","5176116","HighSchool","2025","287","Luke Metz","Mill Creek","Alabama","LB","75","220","4","0.9072","Hoschton","GA","USA","34.096496","-83.7612839","13157"
"106479","5211759","HighSchool","2025","288","Jayden Loftin","Somerville","Tennessee","EDGE","76","250","4","0.9071","Somerville","NJ","USA","40.5742696","-74.60988","34035"
"106480","5141529","HighSchool","2025","289","Bryce Jenkins","Friendship Collegiate Academy","Maryland","DL","77","315","4","0.907","Washington","DC","USA","38.8949855","-77.0365708","11001"
"106481","5148601","HighSchool","2025","290","Karson Cox","Oak Hills","UCLA","RB","72","190","4","0.9068","Hesperia","CA","USA","34.4263886","-117.3008784","06071"
"106482","5141603","HighSchool","2025","291","Deyjhon Pettaway","Paetow","Texas A&M","S","70","175","4","0.9067","Katy","TX","USA","29.7857853","-95.8243956","48157"
"106483","5237359","HighSchool","2025","292","Chaz Coleman","Warren G Harding","Penn State","EDGE","77","225","4","0.9065","Warren","OH","USA","41.237557","-80.818417","39155"
"106484","5196816","HighSchool","2025","293","Carson Cooney","Oswego","Iowa","LB","75","215","4","0.9065","Oswego","IL","USA","41.6789932","-88.3550216","17093"
"106485","5217771","HighSchool","2025","294","Dennis Uzochukwu","Peachtree Ridge","Georgia","OT","78","285","4","0.9063","Suwanee","GA","USA","34.0514898","-84.0712997","13135"
"106486","5141742","HighSchool","2025","295","Jabree Coleman","Imhotep Institute","Penn State","RB","72","205","4","0.9061","Philadelphia","PA","USA","39.9527237","-75.1635262","42101"
"106487","5141478","HighSchool","2025","296","Jarcoby Hopson","Lake Cormorant","Ole Miss","LB","73","205","4","0.9061","Lake Cormorant","MS","USA","34.9042635","-90.2145395","28033"
"106488","5141533","HighSchool","2025","297","Matthew Johnson","De La Salle","Oregon","DL","77","265","4","0.9057","Concord","CA","USA","37.9768525","-122.0335624","06013"
"106489","","HighSchool","2025","298","Jeremiah McCloud","Lee County","Florida","DL","75","280","4","0.9056","Leesburg","GA","USA","31.7324556","-84.1711966","13177"
"106490","5239157","HighSchool","2025","299","Quentin Gibson","North Crowley","Colorado","WR","69","156","4","0.9053","Fort Worth","TX","USA","32.753177","-97.3327459","48439"
"106491","5214534","HighSchool","2025","300","Andrew Purcell","Enterprise","Kentucky","CB","70","185","4","0.9052","Enterprise","AL","USA","31.3151708","-85.8552161","01031"
"106492","5195617","HighSchool","2025","301","Shaun Terry II","Ironton","Missouri","WR","70","170","4","0.9051","Ironton","OH","USA","38.5367471","-82.6829406","39087"
"106493","5189515","HighSchool","2025","302","Nolan James Jr.","DePaul Catholic","Notre Dame","RB","70","200","4","0.9051","Wayne","NJ","USA","40.9491723","-74.2376802","34031"
"106494","5207896","HighSchool","2025","303","Jacob Bradford","Baton Rouge Catholic","LSU","S","71.5","190","4","0.905","Baton Rouge","LA","USA","30.4459596","-91.18738","22033"
"106495","5164316","HighSchool","2025","304","Alex Manske","Algona","Iowa State","QB","75","205","4","0.9049","Algona","IA","USA","43.0699663","-94.233019","19109"
"106496","5215017","HighSchool","2025","305","Landon Roldan","North Oconee","Georgia","WR","72","180","4","0.9049","Bogart","GA","USA","33.949281","-83.534608","13219"
"106497","5141595","HighSchool","2025","306","Kamauryn Morgan","South Oak Cliff","Baylor","EDGE","76","230","4","0.9048","Dallas","TX","USA","32.7762719","-96.7968559","48113"
"106498","","HighSchool","2025","307","Adrian Wilson","Weiss","Colorado","WR","72","170","4","0.9048","Pflugerville","TX","USA","30.4393696","-97.6200043","48453"
"106499","","HighSchool","2025","308","Tariq Hayer","St. John's College","Rutgers","S","73","190","4","0.9046","Washington","DC","USA","38.8949855","-77.0365708","11001"
"106500","5141665","HighSchool","2025","309","Micah Strickland","Brownsboro","TCU","CB","72","175","4","0.9044","Brownsboro","TX","USA","32.3023706","-95.6135715","48213"
"106501","5208136","HighSchool","2025","310","Matt Outten","I.C. Norcom","Penn State","ATH","72","200","4","0.9041","Portsmouth","VA","USA","36.8354258","-76.2982742","51740"
"106502","5141668","HighSchool","2025","311","Taevion Swint","Osceola","UCF","RB","69","185","4","0.9038","Kissimmee","FL","USA","28.2918995","-81.4075838","12097"
"106503","5141675","HighSchool","2025","312","Abduall Sanders Jr.","Mater Dei","Alabama","LB","73.5","225","4","0.9037","Santa Ana","CA","USA","33.7494951","-117.8732213","06059"
"106504","5148665","HighSchool","2025","313","Messiah Delhomme","Warwick","Maryland","S","73","196","4","0.9034","Newport News","VA","USA","36.9786449","-76.4321089","51700"
"106505","5295815","HighSchool","2025","314","Duke Clark","Plant","Florida","RB","73","194","4","0.9032","Tampa","FL","USA","27.9477595","-82.458444","12057"
"106506","5213238","HighSchool","2025","315","Yvan Kemajou","Paint Branch","Penn State","DL","75","230","4","0.9031","Burtonsville","MD","USA","39.1112193","-76.9324752","24031"
"106507","5214556","HighSchool","2025","316","LaVar Arrington II","Charter Oak","Penn State","LB","75.5","215","4","0.9028","Covina","CA","USA","34.1024","-117.85486499999999","06037"
"106508","5141644","HighSchool","2025","317","Kendarius Reddick","Thomas County Central","USC","S","71","170","4","0.9027","Thomasville","GA","USA","30.8365815","-83.9787808","13275"
"106509","5293827","HighSchool","2025","318","Manny Choice","Lancaster","Oklahoma","WR","76","195","4","0.9027","Lancaster","TX","USA","32.5920798","-96.7561083","48113"
"106510","5141607","HighSchool","2025","319","Isaiah Mozee","Lee's Summit North","Nebraska","WR","73","185","4","0.9026","Lee's Summit","MO","USA","38.9107156","-94.3821295","29095"
"106511","","HighSchool","2025","320","Dontrell Glover","Langston Hughes","Georgia","IOL","74","315","4","0.9025","Fairburn","GA","USA","33.5670562","-84.5810418","13121"
"106512","5211862","HighSchool","2025","321","Matt Henderson","Powhatan","Penn State","TE","77","210","4","0.9024","Powhatan","VA","USA","37.5420237","-77.9190619","51145"
"106513","5164639","HighSchool","2025","322","Cam Herron","Warren Central","Notre Dame","IOL","75","275","4","0.9023","Indianapolis","IN","USA","39.7683331","-86.1583502","18097"
"106514","5195545","HighSchool","2025","323","Zymear Smith","North Caroline","Maryland","ATH","71.5","170","4","0.9023","Ridgely","MD","USA","38.9480656","-75.8848665","24011"
"106515","5172095","HighSchool","2025","324","Bo Walker","Rabun Gap-Nacoochee","Georgia","RB","68.5","205","4","0.9021","Ellenwood","GA","USA","33.6101096","-84.287978","13063"
"106516","","HighSchool","2025","325","Brody Lennon","Gilmour Academy","Ohio State","TE","76","220","4","0.902","Gates Mills","OH","USA","41.517779","-81.403788","39035"
"106517","5141579","HighSchool","2025","326","Kevin Oatis","Hattiesburg","Arkansas","DL","74","295","4","0.9019","Hattiesburg","MS","USA","31.3271189","-89.2903392","28035"
"106518","5195702","HighSchool","2025","327","Alex Tatsch","Greater Latrobe","Penn State","LB","74","213","4","0.9018","Latrobe","PA","USA","40.317287","-79.3840301","42129"
"106519","5217105","HighSchool","2025","328","Travis Moten","Fern Creek Traditional","Michigan","DL","77","250","4","0.9017","Louisville","KY","USA","38.2542376","-85.759407","21111"
"106520","5148659","HighSchool","2025","329","Carson Lawrence","McCallie School","Vanderbilt","S","74","194","4","0.9014","Chattanooga","TN","USA","35.0457219","-85.3094883","47065"
"106521","5179385","HighSchool","2025","330","Hollis Davidson III","McIntosh","Auburn","TE","77","238","4","0.9013","Peachtree City","GA","USA","33.3967829","-84.5957629","13113"
"106522","5148664","HighSchool","2025","331","Corey Simms","Christian Brothers College","USC","WR","75","205","4","0.9012","St. Louis","MO","USA","38.6268039","-90.1994097","29510"
"106523","5141601","HighSchool","2025","332","Shamarius Peterkin","Mount Tabor","Virginia Tech","WR","74","172","4","0.9011","Winston Salem","NC","USA","36.0998131","-80.2440518","37067"
"106524","5141480","HighSchool","2025","333","AJ Ia","Orange Lutheran","Arizona State","TE","77","240","4","0.9008","Orange","CA","USA","33.7872568","-117.8503088","06059"
"106525","5144161","HighSchool","2025","334","CJ Bass III","East St. Louis","Missouri","CB","73","190","4","0.9008","East St. Louis","IL","USA","38.6244952","-90.1509429","17163"
"106526","5201873","HighSchool","2025","335","Emmanuel Karmo","Robbinsdale Cooper","Minnesota","LB","75.5","222","4","0.9008","Minneapolis","MN","USA","44.9772995","-93.2654692","27053"
"106527","5209464","HighSchool","2025","336","Brian Rowe Jr.","Jay M. Robinson","South Carolina","WR","70","175","4","0.9007","Concord","NC","USA","35.4093772","-80.5797416","37025"
"106528","5217149","HighSchool","2025","337","Zach Weeks","Oconee County","LSU","LB","74","215","4","0.9007","Watkinsville","GA","USA","33.8628959","-83.4087709","13219"
"106529","5174651","HighSchool","2025","338","Dawayne Galloway Jr.","Marion-Franklin","West Virginia","CB","73","175","4","0.9006","Columbus","OH","USA","39.9622601","-83.0007065","39049"
"106530","","HighSchool","2025","339","Anthony Kruah","Marietta","Georgia","LB","74","210","4","0.9006","Marietta","GA","USA","33.9528472","-84.5496148","13067"
"106531","5141724","HighSchool","2025","340","Champ Taulealea","Valley Christian","Washington","IOL","76","325","4","0.9005","San Jose","CA","USA","37.3361905","-121.8905833","06085"
"106532","5294071","HighSchool","2025","341","Zae Thomas","American Heritage","Florida State","CB","74","190","4","0.9005","Fort Lauderdale","FL","USA","26.1223084","-80.1433786","12011"
"106533","5141443","HighSchool","2025","342","Jeff Exinor Jr.","McDonogh School","Penn State","TE","74","220","4","0.9004","Owings Mills","MD","USA","39.4010753","-76.796299","24005"
"106534","5142601","HighSchool","2025","343","Kendall Daniels Jr.","Maury","South Carolina","S","75","190","4","0.9004","Norfolk","VA","USA","36.8462923","-76.2929252","51710"
"106535","5181572","HighSchool","2025","344","Trynae Washington","Carl Albert","Oklahoma","ATH","75","195","4","0.9003","Oklahoma City","OK","USA","35.4729886","-97.5170536","40109"
"106536","5141600","HighSchool","2025","345","Jonte Newman","Bridgeland","Texas A&M","IOL","76","275","4","0.9003","Cypress","TX","USA","29.9691116","-95.6971686","48201"
"106537","5141653","HighSchool","2025","346","Daylon Singleton","DeSoto","SMU","WR","70","165","4","0.9003","DeSoto","TX","USA","32.6061241","-96.865612653687","48113"
"106538","5141393","HighSchool","2025","347","Dayshaun Burnett","Imani Christian Academy","Penn State","EDGE","74.5","215","4","0.9","Pittsburgh","PA","USA","40.4416941","-79.9900861","42003"
"106539","5167714","HighSchool","2025","347","Cedric Works","Frederick Douglass","Kentucky","EDGE","76","220","4","0.9","Lexington","KY","USA","38.0464066","-84.4970393","21067"
"106540","5141561","HighSchool","2025","349","Jamarion Morrow","Melrose","Texas A&M","ATH","69","180","4","0.8999","Memphis","TN","USA","35.1490215","-90.0516285","47157"
"106541","5148622","HighSchool","2025","350","Dante McClellan","McKinley","Missouri","LB","72.5","210","4","0.8998","Canton","OH","USA","40.7989522","-81.3784445","39151"
"106542","","HighSchool","2025","351","Tae'shaun Gelsey","Riverside","Florida State","TE","76","215","4","0.8997","Jacksonville","FL","USA","30.3321838","-81.655651","12031"
"106543","5141467","HighSchool","2025","352","Luka Gilbert","Lakota West","Miami","TE","79","233","4","0.8997","West Chester","OH","USA","39.3303357","-84.408275","39017"
"106544","5141498","HighSchool","2025","353","Marcus Harris","Mater Dei","Washington","WR","72.5","185","4","0.8996","Santa Ana","CA","USA","33.7494951","-117.8732213","06059"
"106545","5209113","HighSchool","2025","354","Jhase Thomas","Destrehan","LSU","S","73","183","4","0.8995","Destrehan","LA","USA","29.960933","-90.3705407077716","22089"
"106546","5201872","HighSchool","2025","355","Romero Ison","Milford Mill Academy","USC","WR","71","170","4","0.8994","Gwynn Oak","MD","USA","39.3265775","-76.7181764750945","24005"
"106547","","HighSchool","2025","356","Maxwell Roy","St. Joseph's Prep","Ohio State","DL","75","285","4","0.8994","Philadelphia","PA","USA","39.9527237","-75.1635262","42101"
"106548","5141389","HighSchool","2025","357","Max Buchanan","Seminole","Miami","IOL","76","275","4","0.8994","Sanford","FL","USA","28.8117297","-81.2680345","12117"
"106549","5159175","HighSchool","2025","358","Malachi Toney","American Heritage","Miami","WR","70.5","182","4","0.8993","Fort Lauderdale","FL","USA","26.1223084","-80.1433786","12011"
"106550","5141557","HighSchool","2025","359","Onis Konanbanny","Heathwood Hall Episcopal School","Florida","CB","73","180","4","0.8991","Columbia","SC","USA","34.0007493","-81.0343313","45079"
"106551","5141765","HighSchool","2025","360","Zion Williams","Lufkin","LSU","DL","76","295","4","0.8991","Lufkin","TX","USA","31.3386242","-94.7288558","48005"
"106552","","HighSchool","2025","361","Benny Patterson","Castle","Michigan","DL","76","245","4","0.8989","Newburgh","IN","USA","37.9456824","-87.4046571","18173"
"106553","","HighSchool","2025","362","Rasean Dinkins","Warner Robins","Georgia","S","70.5","175","4","0.8988","Warner Robins","GA","USA","32.6200973","-83.606568","13153"
"106554","","HighSchool","2025","363","Noah King","Hamilton","Kansas State","CB","75","195","4","0.8985","Hamilton","OH","USA","39.3995067","-84.5613428","39017"
"106555","5195618","HighSchool","2025","364","Mal Waldrep","Central","Alabama","OT","77","320","4","0.8985","Phenix City","AL","USA","32.4709761","-85.0007653","01113"
"106556","5149005","HighSchool","2025","365","Hardy Watts","Dexter Southfield","Wisconsin","IOL","78","290","4","0.8983","Brookline","MA","USA","42.3317642","-71.1211635","25021"
"106557","5172263","HighSchool","2025","365","Tristian Gentry","Stephenville","Texas Tech","WR","71","165","4","0.8983","Stephenville","TX","USA","32.2191836","-98.2130634","48143"
"106558","","HighSchool","2025","367","Cameron Smith","St. Joseph's Prep","Penn State","LB","72","200","4","0.8983","Philadelphia","PA","USA","39.9527237","-75.1635262","42101"
"106559","5141758","HighSchool","2025","368","Devin Williams","Buford","Auburn","CB","70","165","4","0.8982","Buford","GA","USA","34.1206564","-84.0043513","13135"
"106560","5141494","HighSchool","2025","369","De'Zie Jones","DePaul Catholic","Ohio State","WR","72","180","4","0.8981","Wayne","NJ","USA","40.9491723","-74.2376802","34031"
"106561","5293821","HighSchool","2025","370","Scrap Richardson","Greenville","Notre Dame","ATH","72","175","4","0.8978","Greenville","GA","USA","33.0287373","-84.7129848","13199"
"106562","5214502","HighSchool","2025","371","Kyle Johnson","Bunkie","Mississippi State","CB","71","165","4","0.8977","Bunkie","LA","USA","30.9532472","-92.1826258","22009"
"106563","5214503","HighSchool","2025","372","Jeremiah Jones","Murray","Nebraska","ATH","76","200","4","0.8975","Murray","KY","USA","36.6103334","-88.314761","21035"
"106566","5208133","HighSchool","2025","373","Dominick Kelly","IMG Academy","Georgia","CB","73","175","4","0.8975","Bradenton","FL","USA","27.4989278","-82.5748194","12081"
"106565","5141744","HighSchool","2025","373","Jack Van Dorselaer","Southlake Carroll","Tennessee","ATH","77","230","4","0.8975","Southlake","TX","USA","32.9412363","-97.1341783","48439"
"106564","5141445","HighSchool","2025","373","Quanell Farrakhan Jr.","North Shore","Colorado","WR","71.5","185","4","0.8975","Houston","TX","USA","29.7589382","-95.3676974","48201"
"106567","5214515","HighSchool","2025","376","Derrick Simmons","Frankenmuth","Michigan State","DL","75","270","4","0.8974","Frankenmuth","MI","USA","43.331787","-83.738054","26145"
"106568","5164637","HighSchool","2025","377","Jake Cook","Westerville North","Ohio State","IOL","77","295","4","0.8973","Westerville","OH","USA","40.126139","-82.9295287","39049"
"106569","5141722","HighSchool","2025","378","Michael Thomas III","Donovan Catholic","Rutgers","WR","71","200","4","0.8973","Toms River","NJ","USA","39.9537359","-74.1979576","34029"
"106570","5179136","HighSchool","2025","379","Deshawn Stewart","DePaul Catholic","Ohio State","S","74","185","4","0.8973","Wayne","NJ","USA","40.9491723","-74.2376802","34031"
"106571","5141559","HighSchool","2025","380","Chris Lawson","Archbishop Riordan","Washington","WR","73","175","4","0.8973","San Francisco","CA","USA","37.7790262","-122.4199061","06075"
"106572","","HighSchool","2025","381","McKay Madsen","Clovis North","BYU","ATH","73","230","4","0.8973","Clovis","CA","USA","36.8252277","-119.7029194","06019"
"106573","5169550","HighSchool","2025","382","Lex Cyrus","Susquehanna Township","South Carolina","WR","71","175","4","0.8972","Harrisburg","PA","USA","40.2663107","-76.8861122","42043"
"106574","5204395","HighSchool","2025","383","Bradley Martino","First Baptist Academy","Minnesota","ATH","75","165","4","0.8971","Naples","FL","USA","26.1421976","-81.7942944","12021"
"106575","5201876","HighSchool","2025","384","Kade Pietrzak","Sheyenne","Nebraska","DL","76","250","4","0.897","West Fargo","ND","USA","46.874967","-96.900362","38017"
"106576","5144799","HighSchool","2025","385","Blake Hebert","Brunswick School","Notre Dame","QB","75","215","4","0.8968","Greenwich","CT","USA","41.0264862","-73.6284598","09001"
"106577","5155562","HighSchool","2025","386","Marcus Wimberly","Bauxite","Oklahoma","S","73","200","4","0.8968","Bauxite","AR","USA","34.5556489","-92.5212702","05125"
"106578","5141532","HighSchool","2025","387","CJ Jimcoily","Lipscomb Academy","LSU","LB","75","205","4","0.8967","Nashville","TN","USA","36.1622296","-86.7743531","47037"
"106579","5141623","HighSchool","2025","388","Jamarion Parker","Cardinal Ritter College Prep","Nebraska","RB","72","185","4","0.8963","St. Louis","MO","USA","38.6268039","-90.1994097","29510"
"106580","5167701","HighSchool","2025","389","Darryll Desir","Norland","Florida State","EDGE","76.5","240","4","0.8959","Miami","FL","USA","25.7742658","-80.1936589","12086"
"106583","5207928","HighSchool","2025","390","Courtland Guillory","Klein Oak","Oklahoma","CB","72","175","4","0.8958","Spring","TX","USA","30.0798826","-95.4172549","48201"
"106581","5141552","HighSchool","2025","390","Jayvon McFadden","Riverdale Baptist","Ohio State","IOL","77","300","4","0.8958","Upper Marlboro","MD","USA","38.8165274","-76.7519753","24033"
"106582","5141550","HighSchool","2025","390","JD LaFleur","Sulphur","LSU","TE","78","220","4","0.8958","Sulphur","LA","USA","30.2365943","-93.3773783","40099"
"106584","5141641","HighSchool","2025","390","Logan Powell","Brophy College Preparatory","Wisconsin","IOL","76","280","4","0.8958","Phoenix","AZ","USA","33.4484367","-112.0741417","04013"
"106585","5164630","HighSchool","2025","394","Owen Aliciene","Avon Old Farms","Penn State","OT","79","275","4","0.8956","Avon","CT","USA","41.8098209","-72.8306541","09003"
"106586","","HighSchool","2025","395","Jaimier Scott","Mt. Healthy","Wisconsin","ATH","73","177","4","0.8956","Cincinnati","OH","USA","39.1014537","-84.5124602","39061"
"106587","5209336","HighSchool","2025","396","Daniel Jennings","Princeton","Penn State","EDGE","74","220","4","0.8956","Princeton","WV","USA","37.366328","-81.1026607","54055"
"106588","5141648","HighSchool","2025","397","Kelvion Riggins","Forney","Texas A&M","LB","71.5","205","4","0.8955","Forney","TX","USA","32.747893","-96.4719289","48257"
"106589","5238020","HighSchool","2025","398","Brendon Haygood","Sachse","Missouri","RB","69","180","4","0.8955","Sachse","TX","USA","32.9762327","-96.5952703","48113"
"106590","5149484","HighSchool","2025","399","Phillip Wright","Destrehan","LSU","WR","71","175","4","0.8954","Destrehan","LA","USA","29.960933","-90.3705407077716","22089"
"106591","5294064","HighSchool","2025","400","Austin Howard","Bartlett","Vanderbilt","LB","73.5","226","4","0.8953","Bartlett","TN","USA","35.2045329","-89.8739753","47157"
"106592","5142615","HighSchool","2025","401","Demetris Dean II","Jasper","Houston","OT","76","280","4","0.8953","Jasper","TX","USA","30.9201995","-93.9965759","48241"
"106593","5156441","HighSchool","2025","402","Keon Young","Lakeland","Ole Miss","S","72","171","4","0.8951","Lakeland","FL","USA","28.0394654","-81.9498042","12105"
"106595","5141564","HighSchool","2025","403","Keylan Moses","University Lab","LSU","LB","74","210","4","0.895","Baton Rouge","LA","USA","30.4459596","-91.18738","22033"
"106594","5141685","HighSchool","2025","403","Amari Wallace","Miami Central","Miami","S","70","172","4","0.895","Miami","FL","USA","25.7742658","-80.1936589","12086"
"106600","5141762","HighSchool","2025","403","Tony Williams","Miami Central","UCF","S","73","190","4","0.895","Miami","FL","USA","25.7742658","-80.1936589","12086"
"106599","5164345","HighSchool","2025","403","Chase Loftin","Millard South","Florida State","TE","78","215","4","0.895","Omaha","NE","USA","41.2587459","-95.9383758","31055"
"106597","5181316","HighSchool","2025","403","Easton Ware","Liberty Christian Academy","Clemson","IOL","77","280","4","0.895","Lynchburg","VA","USA","37.4137536","-79.1422464","51680"
"106596","5141637","HighSchool","2025","403","Tre Poteat","Verona Area","Tennessee","CB","72","175","4","0.895","Verona","WI","USA","41.215285","-88.50465218777931","17063"
"106598","5199856","HighSchool","2025","403","Julius Holly","Alpharetta","Michigan","EDGE","75","230","4","0.895","Alpharetta","GA","USA","34.0709576","-84.2747329","13121"
"106601","5207830","HighSchool","2025","410","Tai Buster","A.L. Brown","Auburn","IOL","75","280","4","0.895","Kannapolis","NC","USA","35.4874708","-80.621438","37025"
"106602","5164361","HighSchool","2025","411","Lyrick Samuel","Erasmus Hall","Penn State","WR","75.5","180","4","0.8948","Brooklyn","NY","USA","40.6501038","-73.9495823","36047"
"106603","5141546","HighSchool","2025","412","DJ McClary","Henry Snyder","Rutgers","LB","73","211","4","0.8947","Jersey City","NJ","USA","40.7281575","-74.0776417","34017"
"106604","5215011","HighSchool","2025","413","J.P. Powell","Miller County","Georgia Tech","RB","71","185","4","0.8947","Colquitt","GA","USA","31.1712947","-84.7336278","13201"
"106605","5164657","HighSchool","2025","414","Mario Nash Jr.","Kemper County","Florida State","IOL","76","280","4","0.8945","De Kalb","MS","USA","32.767633","-88.6508784","28069"
"106606","5215323","HighSchool","2025","415","Taylor Brown","Dr. Henry Wise","West Virginia","DL","75","250","4","0.8944","Upper Marlboro","MD","USA","38.8165274","-76.7519753","24033"
"106607","5141594","HighSchool","2025","416","Jadon Perlotte","Buford","Tennessee","LB","74.5","202","4","0.8943","Buford","GA","USA","34.1206564","-84.0043513","13135"
"106608","5141468","HighSchool","2025","417","Alex Graham","Cass Technical","USC","CB","73","186","4","0.8942","Detroit","MI","USA","42.3315509","-83.0466403","26163"
"106609","5141706","HighSchool","2025","418","Rickey Stewart Jr.","Chapel Hill","Texas","RB","70","180","4","0.8942","Tyler","TX","USA","32.3512601","-95.3010624","48423"
"106610","5141598","HighSchool","2025","418","Daune Morris","Oakland","Tennessee","RB","70","185","4","0.8942","Murfreesboro","TN","USA","35.845999","-86.3920452","47149"
"106611","5141661","HighSchool","2025","420","Kevin Sperry","Guyer","Florida State","QB","73","200","4","0.8939","Denton","TX","USA","33.2150386","-97.1330516","48121"
"106612","5214409","HighSchool","2025","421","Jeffrey Overton Jr.","Hayfield","Virginia Tech","RB","70.5","192","4","0.8935","Alexandria","VA","USA","38.8051095","-77.0470229","51510"
"106613","","HighSchool","2025","422","Mason Alexander","Hamilton Southeastern","Pittsburgh","CB","72","180","4","0.8935","Fishers","IN","USA","39.9555928","-86.0138729","18057"
"106614","5148657","HighSchool","2025","423","Jalil Hall","Monsignor Bonner","Purdue","WR","76","185","4","0.8934","Drexel Hill","PA","USA","39.9470567","-75.2921301","42045"
"106617","5141387","HighSchool","2025","424","Brandon Brown","Eau Gallie","LSU","DL","73.5","286","4","0.8933","Melbourne","FL","USA","28.0836269","-80.6081089","12009"
"106615","","HighSchool","2025","424","Bear Bachmeier","Murrieta Valley","Stanford","QB","73.5","225","4","0.8933","Murrieta","CA","USA","33.577752399999994","-117.18845420205307","06065"
"106618","5148652","HighSchool","2025","424","Grant Beerman","Lakota West","Illinois","LB","76","220","4","0.8933","West Chester","OH","USA","39.3303357","-84.408275","39017"
"106616","5141975","HighSchool","2025","424","Tanook Hines","Dekaney","USC","WR","73","185","4","0.8933","Houston","TX","USA","29.7589382","-95.3676974","48201"
"106619","5141489","HighSchool","2025","428","Tikey Hayes","Aliquippa","Penn State","RB","70","185","4","0.8933","Aliquippa","PA","USA","40.6102386","-80.267726","42007"
"106620","5141360","HighSchool","2025","429","Shamar Arnoux","Carrollton","Florida State","CB","74","175","4","0.8932","Carrollton","GA","USA","33.5801103","-85.0766113","13045"
"106621","5217704","HighSchool","2025","430","Michael Dever","Lubbock-Cooper","Texas Tech","WR","71.5","170","4","0.8931","Lubbock","TX","USA","33.5635206","-101.879336","48303"
"106622","5198104","HighSchool","2025","431","Elijah Burress","DePaul Catholic","Notre Dame","WR","73","170","4","0.8929","Wayne","NJ","USA","40.9491723","-74.2376802","34031"
"106624","5205096","HighSchool","2025","432","Henry Fenuku","North Crowley","Missouri","IOL","75","265","4","0.8928","Fort Worth","TX","USA","32.753177","-97.3327459","48439"
"106623","","HighSchool","2025","432","Jae'on Young","Sierra Canyon","California","CB","71.5","167","4","0.8928","Chatsworth","CA","USA","34.2595715","-118.6023247","06037"
"106625","5207860","HighSchool","2025","434","Bryson Webber","Ridge Point","Nebraska","CB","74.5","175","4","0.8927","Missouri City","TX","USA","29.6185669","-95.5377215","48157"
"106626","5149003","HighSchool","2025","435","Samari Reed","Monarch","Ole Miss","WR","74","185","4","0.8926","Pompano Beach","FL","USA","26.2378597","-80.1247667","12011"
"106627","5210557","HighSchool","2025","436","Travis Buhake","Mansfield Summit","Houston","DL","74","255","4","0.8925","Arlington","TX","USA","32.701938999999996","-97.10562379033699","48439"
"106628","5212636","HighSchool","2025","437","Shedrick Sarratt Jr.","Gaffney","South Carolina","OT","76","300","4","0.8925","Gaffney","SC","USA","35.0717945","-81.6498195","45021"
"106636","5198561","HighSchool","2025","438","Sam Turner","Southwest DeKalb","Auburn","WR","73","195","4","0.8925","Decatur","GA","USA","33.7737582","-84.296069","13089"
"106630","5141508","HighSchool","2025","438","Jadyn Hudson","Pittsburg","UCLA","S","73","180","4","0.8925","Pittsburg","CA","USA","38.0181745","-121.8901232","06013"
"106631","5236219","HighSchool","2025","438","Christian Ingram","Newton","South Carolina","DL","78","290","4","0.8925","Conyers","GA","USA","33.6676103","-84.0176904","13247"
"106632","5141439","HighSchool","2025","438","Jonathan Epperson Jr.","Auburn Riverside","Washington","LB","72","210","4","0.8925","Auburn","WA","USA","47.3075369","-122.2301808","53033"
"106633","5141440","HighSchool","2025","438","Kalen Edwards","Dyersburg","Kentucky","DL","76","315","4","0.8925","Dyersburg","TN","USA","36.0345159","-89.3856281","47045"
"106634","5164332","HighSchool","2025","438","Nate Sheppard","Mandeville","Duke","RB","70","180","4","0.8925","Mandeville","LA","USA","30.3582305","-90.0657477","22103"
"106635","5195409","HighSchool","2025","438","Bryson Jones","Lone Star","Texas Tech","WR","73.5","175","4","0.8925","Frisco","TX","USA","33.1506744","-96.8236116","48085"
"106629","5141647","HighSchool","2025","438","Deondrae Riden Jr.","DeSoto","Texas A&M","RB","70","195","4","0.8925","DeSoto","TX","USA","32.6061241","-96.865612653687","48113"
"106637","5201869","HighSchool","2025","446","Charles House","North Mecklenburg","Tennessee","DL","75","288","4","0.8925","Huntersville","NC","USA","35.410845","-80.8429094","37119"
"106638","5141504","HighSchool","2025","447","Cortez Harris","Riverdale Baptist","Penn State","EDGE","74","200","4","0.8925","Upper Marlboro","MD","USA","38.8165274","-76.7519753","24033"
"106639","5214453","HighSchool","2025","448","Darrin Strey","Paw Paw","Kentucky","OT","79","300","4","0.8921","Paw Paw","MI","USA","42.2178171","-85.8911246","26159"
"106640","5148627","HighSchool","2025","449","Matty Augustine","Brunswick School","Notre Dame","OT","79","290","4","0.8921","Greenwich","CT","USA","41.0264862","-73.6284598","09001"
"106641","5141477","HighSchool","2025","450","Chauncey Gooden","Lipscomb Academy","Colorado","IOL","76","320","4","0.8921","Nashville","TN","USA","36.1622296","-86.7743531","47037"
"106642","5148602","HighSchool","2025","451","Christian Hudson","Mainland","Colorado","DL","73","280","4","0.8919","Daytona Beach","FL","USA","29.2108147","-81.0228331","12127"
"106643","5141507","HighSchool","2025","452","Justin Hasenhuetl","Rabun Gap-Nacoochee","California","IOL","77","260","4","0.8919","Germany","GERM","USA","","",""
"106644","5207927","HighSchool","2025","453","Dramekco Green","Conroe","SMU","RB","71.5","190","4","0.8918","Conroe","TX","USA","30.3118769","-95.4560512","48339"
"106646","5164325","HighSchool","2025","454","Jackson Kollock","Laguna Beach","Minnesota","QB","75.5","215","4","0.8917","Laguna Beach","CA","USA","33.5426975","-117.7853665","06059"
"106647","5150377","HighSchool","2025","454","Tyler Williams","Armwood","Georgia","WR","73","205","4","0.8917","Seffner","FL","USA","27.998541000000003","-82.27488400114905","12057"
"106645","5146970","HighSchool","2025","454","Tyson Terry","Omaha North","Nebraska","DL","74","279","4","0.8917","Omaha","NE","USA","41.2587459","-95.9383758","31055"
"106648","5265527","HighSchool","2025","457","Greg Ard","McKinney North","Boise State","RB","69","190","4","0.8917","McKinney","TX","USA","33.1976496","-96.6154471","48085"
"106649","","HighSchool","2025","458","Juju Marks","Olathe South","Nebraska","OT","78","290","4","0.8916","Olathe","KS","USA","38.8838856","-94.81887","20091"
"106650","5195290","HighSchool","2025","459","Chastan Brown","Northside","Florida State","OT","79","270","4","0.8916","Warner Robins","GA","USA","32.6200973","-83.606568","13153"
"106651","5216799","HighSchool","2025","460","Kilian Registe","Keller","TCU","OT","77.5","300","4","0.8915","Keller","TX","USA","32.9299655","-97.2271249","48439"
"106652","5141419","HighSchool","2025","461","Harry Dalton III","Dinwiddie County","USC","RB","70","205","4","0.8913","Dinwiddie","VA","USA","37.0779278","-77.586655","51053"
"106653","5141535","HighSchool","2025","462","Lloyd Jones III","Hitchcock","Texas Tech","QB","74.5","210","4","0.8911","Hitchcock","TX","USA","29.3482905","-95.0160368","48167"
"106654","5200482","HighSchool","2025","462","Ed Small","Anderson","TCU","WR","71.5","205","4","0.8911","Austin","TX","USA","30.2711286","-97.7436995","48453"
"106655","5212641","HighSchool","2025","464","Weston Bryan","Lee County","Georgia Southern","ATH","75","240","4","0.8911","Leesburg","GA","USA","31.7324556","-84.1711966","13177"
"106656","","HighSchool","2025","465","Ta'Khyian Whitset","Antioch","NC State","OT","77","265","4","0.8911","Antioch","TN","USA","36.0806394","-83.7799037","47093"
"106657","5148660","HighSchool","2025","466","Micah Matthews","Turner Ashby","Virginia Tech","ATH","74","205","4","0.8908","Bridgewater","VA","USA","38.3820655","-78.9766975","51165"
"106658","5164656","HighSchool","2025","467","John Mills","St. Ignatius College Preparatory","Washington","OT","78","320","4","0.8908","San Francisco","CA","USA","37.7790262","-122.4199061","06075"
"106659","5167752","HighSchool","2025","467","Walter Mathis","Calvary Day School","LSU","DL","75","285","4","0.8908","Savannah","GA","USA","32.0809263","-81.0911768","13051"
"106660","5217869","HighSchool","2025","469","Bariate Kara","Loganville Christian Academy","Duke","DL","76.5","260","4","0.8907","Loganville","GA","USA","33.8389977","-83.9007382","13297"
"106661","5205094","HighSchool","2025","470","Connor Carty","Prosper","Texas Tech","IOL","76","290","4","0.8906","Prosper","TX","USA","33.2385763","-96.7866058","48085"
"106662","5215155","HighSchool","2025","471","Jaquel Holman","Blackville-Hilda","South Carolina","ATH","73","193","4","0.8905","Blackville","SC","USA","33.3579297","-81.2706606","45011"
"106663","5167189","HighSchool","2025","472","Cyrus Polu","Desert HIlls","Utah","LB","74","205","4","0.8905","St. George","UT","USA","37.104153","-113.5841313","49053"
"106666","","HighSchool","2025","473","Jahmari DeLoatch","Oscar Smith","Virginia Tech","S","70","160","4","0.8903","Chesapeake","VA","USA","36.7183708","-76.2466798","51550"
"106664","5295723","HighSchool","2025","473","Caden Knighten","Pauls Valley","Baylor","RB","70.5","205","4","0.8903","Pauls Valley","OK","USA","34.7400809","-97.2222451","40049"
"106665","5164365","HighSchool","2025","473","Daylyn Upshaw","Central","Miami","WR","71.5","180","4","0.8903","Phenix City","AL","USA","32.4709761","-85.0007653","01113"
"106667","5141525","HighSchool","2025","476","Koby Howard","Chaminade-Madonna","Penn State","WR","71","185","4","0.89","Hollywood","FL","USA","26.0112014","-80.1494901","12011"
"106671","5141736","HighSchool","2025","477","Christian Thatcher","Arbor View","Utah","LB","74","205","3","0.89","Las Vegas","NV","USA","36.1672559","-115.1485163","32003"
"106672","5141359","HighSchool","2025","477","Dillon Alfred","Saraland","Ole Miss","WR","71","175","3","0.89","Saraland","AL","USA","30.820742","-88.0705556","01097"
"106673","5155759","HighSchool","2025","477","Bryce Deas","St. Frances Academy","Auburn","LB","74.5","215","3","0.89","Baltimore","MD","USA","39.2908816","-76.610759","24510"
"106670","5141530","HighSchool","2025","477","Donovan Johnson","IMG Academy","Michigan","RB","72","205","3","0.89","Bradenton","FL","USA","27.4989278","-82.5748194","12081"
"106675","5244226","HighSchool","2025","477","Caleb Haack","Iowa Valley","Northern Illinois","TE","80","210","3","0.89","Marengo","IA","USA","","",""
"106674","","HighSchool","2025","477","Landon Dulaney","Brandon Valley","South Dakota State","WR","74","195","3","0.89","Brandon","SD","USA","43.594727","-96.572128","46099"
"106668","5294561","HighSchool","2025","477","Austin Alexander","Cooper","North Carolina","DL","75","243","3","0.89","Burlington","KY","USA","39.02756","-84.7241133","21015"
"106669","5196378","HighSchool","2025","477","Raycine Guillory","Aledo","Utah","RB","70","180","3","0.89","Aledo","TX","USA","32.69900905","-97.60396629774493","48367"
"106676","5215547","HighSchool","2025","485","Jakarrion Kenan","Marlboro County","Clemson","S","72.5","177","3","0.8897","Bennettsville","SC","USA","34.6173803","-79.6847814","45069"
"106677","5141646","HighSchool","2025","486","Logan Schram","Boerne","TCU","IOL","78","328","3","0.8894","Boerne","TX","USA","29.7946641","-98.7319703","48259"
"106680","","HighSchool","2025","486","Charles White","St. Mary's","Michigan State","LB","75","202","3","0.8894","Orchard Lake","MI","USA","42.5869558","-83.36895696372882","26125"
"106681","5164362","HighSchool","2025","486","Raiden Vines-Bright","IMG Academy","Washington","WR","72","190","3","0.8894","Tempe","AZ","USA","33.4255056","-111.9400125","04013"
"106679","5142592","HighSchool","2025","486","CJ May","Highland Home","Louisville","EDGE","76","225","3","0.8894","Highland Home","AL","USA","31.953702","-86.3142945","01041"
"106678","5195698","HighSchool","2025","486","Jace Clarizio","East Lansing","Michigan State","RB","72","190","3","0.8894","East Lansing","MI","USA","42.7355416","-84.4852469","26065"
"106682","5214824","HighSchool","2025","491","Braxton Kyle","North Gwinnett","Rutgers","DL","76","320","3","0.8894","Suwanee","GA","USA","34.0514898","-84.0712997","13135"
"106683","5161835","HighSchool","2025","492","Jaylen McGill","Mountain View Preparatory","North Carolina","RB","70","215","3","0.8893","Spartanburg","SC","USA","34.9498007","-81.9320157","45083"
"106689","5167177","HighSchool","2025","493","Jonathan Cunningham","North Crowley","Texas","LB","74","195","3","0.8892","Fort Worth","TX","USA","32.753177","-97.3327459","48439"
"106690","","HighSchool","2025","493","Joseph Reiff","York","Notre Dame","DL","77","245","3","0.8892","Elmhurst","IL","USA","41.8994745","-87.9403418","17043"
"106686","5294137","HighSchool","2025","493","DJ Miller","Cardinal Ritter College Prep","Kentucky","WR","75","195","3","0.8892","St. Louis","MO","USA","38.6268039","-90.1994097","29510"
"106685","5148610","HighSchool","2025","493","Cree Thomas","Brophy College Preparatory","Notre Dame","S","73","180","3","0.8892","Phoenix","AZ","USA","33.4484367","-112.0741417","04013"
"106691","5213298","HighSchool","2025","493","Christian Evans","Stone Bridge","Virginia Tech","DL","74.5","280","3","0.8892","Ashburn","VA","USA","39.0437192","-77.4874899","51107"
"106687","5167754","HighSchool","2025","493","Derry Norris Jr.","Spruce Creek","Georgia Tech","DL","75","265","3","0.8892","Port Orange","FL","USA","29.101628050000002","-81.01059617608054","12127"
"106684","5141415","HighSchool","2025","493","Jason Dowell","Althoff Catholic","Missouri","DL","76","290","3","0.8892","Belleville","IL","USA","38.5200504","-89.9839935","17163"
"106688","5209681","HighSchool","2025","493","Anthony Addison","Sumter","South Carolina","EDGE","75","210","3","0.8892","Sumter","SC","USA","33.9204354","-80.3414693","45085"
"106692","5164649","HighSchool","2025","501","Dominik Hulak","Immaculate Conception","Notre Dame","EDGE","75","225","3","0.8886","Elmhurst","IL","USA","41.8994745","-87.9403418","17043"
"106693","5164654","HighSchool","2025","502","Demetri Manning","Bellevue","Oregon","IOL","78.5","336","3","0.8886","Bellevue","WA","USA","47.6144219","-122.1923372","53033"
"106695","5214831","HighSchool","2025","502","Michael Clayton","Northside","Rutgers","CB","73","170","3","0.8886","Warner Robins","GA","USA","32.6200973","-83.606568","13153"
"106694","5148663","HighSchool","2025","502","Darrion Smith","St. Frances Academy","Auburn","DL","74","265","3","0.8886","Baltimore","MD","USA","39.2908816","-76.610759","24510"
"106696","","HighSchool","2025","505","Tristan Ti'a","Amador Valley","Oregon State","QB","75","190","3","0.8885","Pleasanton","CA","USA","37.6624312","-121.8746789","06001"
"106698","5141505","HighSchool","2025","506","Eugene Hilton Jr.","Zionsville","Wisconsin","WR","74","195","3","0.8883","Zionsville","IN","USA","39.950724","-86.2616968","18011"
"106699","5295733","HighSchool","2025","506","Taz Williams Jr.","Red Oak","Baylor","WR","72","190","3","0.8883","Red Oak","TX","USA","32.5117104","-96.80836332870047","48139"
"106697","5294072","HighSchool","2025","506","Ethan Pritchard","Seminole","Florida State","LB","74","205","3","0.8883","Sanford","FL","USA","28.8117297","-81.2680345","12117"
"106701","","HighSchool","2025","506","Robert McDaniel","Hughson","UCLA","QB","73","195","3","0.8883","Hughson","CA","USA","","",""
"106700","5166886","HighSchool","2025","506","Timothy Merritt","Parker","Tennessee","CB","74","180","3","0.8883","Birmingham","AL","USA","33.5206824","-86.8024326","01073"
"106702","5199942","HighSchool","2025","511","Caleb Bell","Milton","Arkansas","DL","75","270","3","0.8881","Alpharetta","GA","USA","34.0709576","-84.2747329","13121"
"106703","5142236","HighSchool","2025","512","Grayson Wilson","Conway","Arkansas","QB","75","205","3","0.888","Maumelle","AR","USA","34.8667565","-92.4043219","05119"
"106707","5207596","HighSchool","2025","513","London Simmons","Hartfield Academy","Alabama","DL","75","295","3","0.8878","Flowood","MS","USA","32.3095903","-90.1389757","28121"
"106704","5141555","HighSchool","2025","513","Cameron Miller","Winslow Township","Kentucky","WR","71","165","3","0.8878","Atco","NJ","USA","39.769838","-74.8873855","34007"
"106705","5214510","HighSchool","2025","513","Steve Miller","Greene County","USC","S","74","185","3","0.8878","Greensboro","GA","USA","33.5756831","-83.1823789","13133"
"106706","5211769","HighSchool","2025","513","Brayden Trimble","Mt. Zion","Illinois","WR","74","170","3","0.8878","Mt. Zion","IL","USA","","",""
"106708","5200108","HighSchool","2025","517","Jaivon Solomon","Jones County","Duke","WR","73","170","3","0.8875","Gray","GA","USA","33.0095802","-83.5337816","13169"
"106710","5141554","HighSchool","2025","518","Bobby Kanka","Howell","Michigan","DL","76","285","3","0.8875","Howell","MI","USA","42.6072552","-83.9293952","26093"
"106709","5141713","HighSchool","2025","518","Kaden Strayhorn","IMG Academy","Michigan","IOL","74.5","285","3","0.8875","Bradenton","FL","USA","27.4989278","-82.5748194","12081"
"106711","5167183","HighSchool","2025","518","Ethan Long","Brunswick School","Notre Dame","S","74","185","3","0.8875","Greenwich","CT","USA","41.0264862","-73.6284598","09001"
"106712","5141714","HighSchool","2025","521","Kamran Williams","Jefferson","UNLV","RB","70","180","3","0.8874","Jefferson","TX","USA","32.7573626","-94.3451926","48315"
"106713","5195570","HighSchool","2025","522","Cody Haddad","St Ignatius","Ohio State","S","73","175","3","0.887","Cleveland","OH","USA","41.5051613","-81.6934446","39035"
"106719","5295613","HighSchool","2025","523","TJ Branch","Northwestern","Colorado","S","74","172","3","0.8869","Miami","FL","USA","25.7742658","-80.1936589","12086"
"106718","5141409","HighSchool","2025","523","Deandre Desinor","Atlantic","NC State","RB","68.5","175","3","0.8869","Delray Beach","FL","USA","26.4614625","-80.0728201","12099"
"106715","5195615","HighSchool","2025","523","Trajen Odom","Weddington","Ohio State","DL","76","285","3","0.8869","Matthews","NC","USA","35.1170873","-80.723718","37119"
"106716","5148628","HighSchool","2025","523","Logan Brooking","Savannah Christian Prep","Clemson","TE","77","220","3","0.8869","Savannah","GA","USA","32.0809263","-81.0911768","13051"
"106717","5214470","HighSchool","2025","523","Keiton Jones","Field Kindley","Missouri","IOL","76","315","3","0.8869","Coffeyville","KS","USA","37.0372999","-95.6163634","20125"
"106720","","HighSchool","2025","523","Stephon Shivers","Brentwood Academy","Florida","DL","76.5","365","3","0.8869","Brentwood","TN","USA","36.0325687","-86.7825235","47187"
"106714","","HighSchool","2025","523","Kamar Archie","Hun School","Rutgers","LB","73","225","3","0.8869","Trenton","NJ","USA","40.2170575","-74.7429463","34021"
"106721","5211208","HighSchool","2025","530","Brian Kortovich","Villa Angela-St. Joseph","Penn State","TE","76","224","3","0.8868","Cleveland","OH","USA","41.5051613","-81.6934446","39035"
"106722","5141569","HighSchool","2025","531","Ezekiel Marcelin Jr.","Miami Central","Miami","LB","71.5","208","3","0.8867","Miami","FL","USA","25.7742658","-80.1936589","12086"
"106723","5142612","HighSchool","2025","531","Rukeem Stroud","Tampa Bay Tech","UCF","CB","71","160","3","0.8867","Tampa","FL","USA","27.9477595","-82.458444","12057"
"106725","","HighSchool","2025","533","Ferzell Shepard","Scotlandville Magnet","UTSA","WR","74","175","3","0.8864","Baton Rouge","LA","USA","30.4459596","-91.18738","22033"
"106724","5296294","HighSchool","2025","533","Jaylon Coleman","Vandebilt Catholic","Liberty","ATH","68","150","3","0.8864","Houma","LA","USA","29.5957696","-90.7195348","22109"
"106726","5141522","HighSchool","2025","535","Iverson Howard","Quince Orchard","Maryland","RB","70","195","3","0.8861","Gaithersburg","MD","USA","39.1434406","-77.2013705","24031"
"106729","5211199","HighSchool","2025","536","Terrence Smith","West Aurora","Iowa","WR","75","185","3","0.8861","Aurora","IL","USA","41.7571701","-88.3147539","17089"
"106730","5214451","HighSchool","2025","536","Mike Tyler","Hammond School","South Carolina","TE","75","225","3","0.8861","Columbia","SC","USA","34.0007493","-81.0343313","45079"
"106728","5296155","HighSchool","2025","536","Giyahni Kontosis","Riverdale Baptist","Cincinnati","WR","73","195","3","0.8861","Upper Marlboro","MD","USA","38.8165274","-76.7519753","24033"
"106727","5164360","HighSchool","2025","536","TK Norman","Carver","Texas A&M","WR","72","167","3","0.8861","Montgomery","AL","USA","32.3669656","-86.3006485","01101"
"106734","5148609","HighSchool","2025","540","Quintin Simmons Jr.","Withrow","Kentucky","WR","72","175","3","0.8858","Cincinnati","OH","USA","39.1014537","-84.5124602","39061"
"106732","5215236","HighSchool","2025","540","Jamar Browder","Santaluces Community","Michigan","WR","75.5","205","3","0.8858","Lake Worth","FL","USA","26.615891","-80.0691435","12099"
"106731","","HighSchool","2025","540","Ja'Elyne Matthews","Toms River North","Rutgers","OT","77","305","3","0.8858","Toms River","NJ","USA","39.9537359","-74.1979576","34029"
"106733","5141353","HighSchool","2025","540","Darius Afalava","Skyridge","Oklahoma","IOL","77","320","3","0.8858","Lehi","UT","USA","40.3880902","-111.8491619","49049"
"106736","5144164","HighSchool","2025","544","Riley Wormley","Southlake Carroll","USC","RB","69","183","3","0.8853","Southlake","TX","USA","32.9412363","-97.1341783","48439"
"106737","5148598","HighSchool","2025","544","Dash Beierly","Mater Dei","Washington","QB","73","215","3","0.8853","Santa Ana","CA","USA","33.7494951","-117.8732213","06059"
"106735","5148608","HighSchool","2025","544","Michael Roeske","Wautoma","Wisconsin","OT","79","290","3","0.8853","Wautoma","WI","USA","44.0746995","-89.287897","55137"
"106738","5156379","HighSchool","2025","547","DaMarion Fowlkes","Our Lady of Good Counsel","Missouri","WR","70","175","3","0.8853","Olney","MD","USA","39.1532123","-77.0668408","24031"
"106739","5207620","HighSchool","2025","548","Xavier Johnson","Richland","Memphis","WR","72.5","165","3","0.8852","North Richland Hills","TX","USA","32.8342952","-97.2289029","48439"
"106740","5141679","HighSchool","2025","549","Reginald Vaughn","Hartfield Academy","Arkansas","DL","74","260","3","0.8851","Madison","MS","USA","32.4618086","-90.1153638","28089"
"106742","","HighSchool","2025","550","Carlton Smith","Maury","","LB","72","205","3","0.885","Norfolk","VA","USA","36.8462923","-76.2929252","51710"
"106741","","HighSchool","2025","550","Kail Ellis","Cass","","IOL","76","285","3","0.885","Cartersville","GA","USA","34.1650972","-84.7999383","13015"
"106743","","HighSchool","2025","550","Geron Johnson","Bartlett","","RB","70","185","3","0.885","Bartlett","TN","USA","35.2045329","-89.8739753","47157"
"106744","","HighSchool","2025","553","Jared Martin","Central","","EDGE","75","210","3","0.8848","El Centro","CA","USA","32.792","-115.5630514","06025"
"106745","","HighSchool","2025","554","Zion Johnson","Newton","","RB","68","180","3","0.8847","Covington","GA","USA","33.5967815","-83.8601827","13217"
"106746","","HighSchool","2025","555","Carl'veon Young","Carl Albert","","LB","76","215","3","0.8846","Oklahoma City","OK","USA","35.4729886","-97.5170536","40109"
"106747","","HighSchool","2025","556","Tyler Thomas","Dickinson","","IOL","76.5","317","3","0.8844","Dickinson","TX","USA","29.4607876","-95.0513173","48167"
"106752","","HighSchool","2025","556","N-Kye Wynn","Muskegon","","IOL","77","277","3","0.8844","Muskegon","MI","USA","43.2341813","-86.2483921","26121"
"106751","","HighSchool","2025","556","Kentrell Rinehart","Westland","","RB","73","205","3","0.8844","Columbus","OH","USA","39.9622601","-83.0007065","39049"
"106750","","HighSchool","2025","556","Josh Guerrier","Ocoee","","ATH","69","160","3","0.8844","Ocoee","FL","USA","28.5695186","-81.544117","12095"
"106749","","HighSchool","2025","556","Michael Riles","Memorial","","DL","75","235","3","0.8844","Port Arthur","TX","USA","29.8988618","-93.9288723","48245"
"106748","","HighSchool","2025","556","Juju Preston","Freedom","","WR","70","150","3","0.8844","Woodbridge","VA","USA","38.6581723","-77.2497049","51153"
"106755","","HighSchool","2025","562","Gabe Kaminski","Nazareth Academy","","EDGE","75","215","3","0.8842","La Grange Park","IL","USA","41.8333646","-87.8677324","17031"
"106753","","HighSchool","2025","562","Lamason Waller III","Sultana","","WR","74","170","3","0.8842","Hesperia","CA","USA","34.4263886","-117.3008784","06071"
"106754","","HighSchool","2025","562","Josiah Abdullah","Woodward Academy","","WR","70","175","3","0.8842","Atlanta","GA","USA","33.7490987","-84.3901849","13121"
"106759","","HighSchool","2025","562","Kaylib Singleton","Oakleaf","","CB","73","173","3","0.8842","Orange Park","FL","USA","30.1654707","-81.7016346","12019"
"106758","","HighSchool","2025","562","Austin Pay","Lone Peak","","OT","79","295","3","0.8842","American Fork","UT","USA","40.3768954","-111.7957645","49049"
"106757","","HighSchool","2025","562","Eli Owens","Alcoa","","TE","73.5","243","3","0.8842","Alcoa","TN","USA","35.7895271","-83.9737935","47009"
"106756","","HighSchool","2025","562","Brett Bordelon","Isidore Newman","","OT","76","260","3","0.8842","New Orleans","LA","USA","29.9499323","-90.0701156","22071"
"106760","","HighSchool","2025","569","JJ Buchanan","Coronado","","ATH","76","200","3","0.8841","Henderson","NV","USA","36.0301134","-114.9826194","32003"
"106761","","HighSchool","2025","570","Demarcus Gardner","Cedartown","","CB","72","170","3","0.8839","Cedartown","GA","USA","34.0124425","-85.2559398","13233"
"106762","","HighSchool","2025","571","Will Tompkins","Cedar Falls","","OT","77","270","3","0.8837","Cedar Falls","IA","USA","42.5274123","-92.4453179","19013"
"106767","","HighSchool","2025","572","Brenden Anes","Fred J Page","","LB","74","220","3","0.8836","Franklin","TN","USA","35.925193","-86.8689365","47187"
"106763","","HighSchool","2025","572","Jourdin Houston","St. Thomas More","","WR","73","190","3","0.8836","Middle Village","NY","USA","40.7182153","-73.87867088764077","36081"
"106764","","HighSchool","2025","572","Ko'o Kia","Punahou","","LB","74","210","3","0.8836","Honolulu","HI","USA","21.304547","-157.8556764","15003"
"106765","","HighSchool","2025","572","Keiundre Johnson","Terrell","","EDGE","75","230","3","0.8836","Terrell","TX","USA","32.7359626","-96.2752569","48257"
"106766","","HighSchool","2025","572","Chinedu Onyeagoro","King/Drew Magnet","","EDGE","74","220","3","0.8836","Los Angeles","CA","USA","34.0536909","-118.2427666","06037"
"106768","","HighSchool","2025","572","Manamo'ui Muti","Leilehua","","OT","79","320","3","0.8836","Wahiawa","HI","USA","21.500624100000003","-158.0166720181598","15003"
"106769","","HighSchool","2025","572","Antoni Ogumoro","Elgin","","IOL","76","320","3","0.8836","Elgin","OK","USA","","",""
"106770","","HighSchool","2025","579","Jahari Medlock","Charles Drew","","OT","78","278","3","0.8834","Riverdale","GA","USA","33.5726113","-84.4132594","13063"
